     2.11           OBSERVATION DATA    G (GPS)             RINEX VERSION / TYPE
teqc  2014Jan16     NOAA/NOS/NGS/CORS   20150316 09:31:29UTCPGM / RUN BY / DATE
Solaris x86 5.10|AMD64|cc SC5.8 -xarch=amd64|=+|=+          COMMENT
teqc  2014Jan16     NOAA/NOS/NGS/CORS   20150316 09:31:28UTCCOMMENT
teqc  2015Feb13     UNAVCO Archive Ops  20150316 03:17:55UTCCOMMENT
BIT 2 OF LLI FLAGS DATA COLLECTED UNDER A/S CONDITION       COMMENT
input file: cn00201503150000a.tgd                           COMMENT
RINEX file created by UNAVCO GPS Archive.                   COMMENT
For more information contact archive-gps@unavco.org         COMMENT
Monument ID: 24127                                          COMMENT
UNAVCO 4-char name:   CN00                                  COMMENT
4-char name from Log or data file: CN00                     COMMENT
Monument location: 17.66852 -61.78558 -21.9819              COMMENT
Visit ID: 112713                                            COMMENT
                                                            COMMENT
Barbuda__ATG2012                                            COMMENT
                                                            COMMENT
End of DB comments                                          COMMENT
 SNR is mapped to RINEX snr flag value [0-9]                COMMENT
  L1 & L2: min(max(int(snr_dBHz/6), 0), 9)                  COMMENT
CN00                                                        MARKER NAME
UNAVCO Community    UNAVCO                                  OBSERVER / AGENCY
5235K51839          TRIMBLE NETR9       4.85                REC # / TYPE / VERS
5240354581          TRM59800.00     NONE                    ANT # / TYPE
  2874042.8280 -5356829.5000  1923453.4320                  APPROX POSITION XYZ
        0.0083        0.0000        0.0000                  ANTENNA: DELTA H/E/N
     1     1                                                WAVELENGTH FACT L1/2
     7    L1    L2    C1    P2    P1    S1    S2            # / TYPES OF OBSERV
    30.0000                                                 INTERVAL
teqc windowed: start @ 2015 Mar 15 00:00:00.000             COMMENT
teqc windowed: delta = 86400.000 sec                        COMMENT
teqc edited: all SBAS satellites excluded                   COMMENT
teqc edited: all Galileo satellites excluded                COMMENT
teqc edited: all Compass satellites excluded                COMMENT
teqc edited: all QZSS satellites excluded                   COMMENT
Forced Modulo Decimation to 30 seconds                      COMMENT
  2015     3    15     0     0    0.0000000     GPS         TIME OF FIRST OBS
                                                            END OF HEADER
 15  3 15  0  0  0.0000000  0  9G07G16G23G27G09G19G04G11G01
 119946480.041 7  93464776.75745  22825026.906    22825033.324
        45.000          32.300
 121053470.925 7  94327513.76044  23035675.461    23035683.461
        45.500          29.900
 114870414.679 8  89509528.23846  21859117.227    21859123.996
        50.000          36.500
 115453285.078 8  89963786.43246  21969956.703    21969965.758
        50.600          39.000
 117992937.600 7  91942638.08345  22453298.227    22453307.340
        46.700          35.800
 107392487.859 8  83682600.89547  20436046.477    20436049.906
        50.500          45.300
 112937801.344 8  88003635.77146  21491291.234    21491302.578
        49.300          38.800
 113470306.214 8  88418499.73246  21592639.977    21592648.035
        51.900          40.200
 121170718.670 7  94418857.96244  23057988.516    23058008.707
        43.800          29.300
 15  3 15  0  0 30.0000000  0  9G07G16G23G27G09G19G04G11G01
 119849114.884 7  93388907.85445  22806498.766    22806505.594
        44.900          32.600
 121082400.353 7  94350056.02545  23041181.086    23041188.793
        45.800          30.600
 114925954.005 8  89552805.54746  21869686.719    21869692.668
        50.100          36.500
 115531775.003 8  90024947.37546  21984893.242    21984901.594
        50.200          38.800
 118005804.384 7  91952664.10945  22455746.648    22455755.879
        45.500          35.300
 107432973.609 8  83714148.23347  20443750.914    20443754.227
        50.900          45.500
 112860486.277 8  87943390.50846  21476578.539    21476589.473
        50.700          37.700
 113387181.327 8  88353727.24646  21576821.039    21576829.801
        51.000          39.100
 121069923.876 7  94340317.06044  23038806.641    23038826.773
        43.800          29.300
 15  3 15  0  1  0.0000000  0  9G07G16G23G27G09G19G04G11G01
 119751861.308 7  93313125.88545  22787993.047    22787998.938
        45.400          32.100
 121111300.466 7  94372575.43145  23046680.523    23046688.348
        44.900          30.200
 114981814.774 8  89596333.35046  21880316.414    21880321.836
        51.000          36.800
 115610389.264 8  90086205.19246  21999853.008    21999861.711
        50.000          39.400
 118019120.044 7  91963039.92445  22458280.828    22458289.531
        46.800          35.000
 107473884.805 8  83746027.09547  20451535.828    20451539.668
        51.500          45.300
 112783491.244 8  87883394.61946  21461926.953    21461938.355
        50.000          38.300
 113304383.681 8  88289209.74646  21561065.664    21561073.664
        52.100          39.800
 120969202.912 7  94261833.67445  23019640.266    23019660.105
        44.100          30.200
 15  3 15  0  1 30.0000000  0  9G07G16G23G27G09G19G04G11G01
 119654721.554 7  93237432.63245  22769507.938    22769513.711
        46.600          31.800
 121140171.881 7  94395072.48445  23052175.180    23052183.414
        46.000          30.100
 115037993.880 8  89640109.18846  21891006.695    21891013.699
        50.000          36.700
 115689125.309 7  90147557.89946  22014834.984    22014844.629
        47.500          38.300
 118032882.744 7  91973764.07245  22460898.523    22460909.164
        44.500          35.100
 107515218.660 8  83778235.29847  20459400.508    20459405.109
        50.200          44.800
 112706818.801 8  87823650.09646  21447336.016    21447347.008
        48.900          38.100
 113221915.554 8  88224949.01246  21545372.055    21545380.348
        51.400          39.400
 120868558.581 7  94183409.98244  23000487.695    23000507.008
        43.800          29.000
 15  3 15  0  2  0.0000000  0  9G07G16G23G27G09G19G04G11G01
 119557698.460 7  93161830.29345  22751044.734    22751051.094
        45.800          33.100
 121169015.311 7  94417547.72644  23057663.609    23057671.258
        44.700          29.800
 115094488.632 8  89684131.00046  21901758.328    21901764.336
        49.300          37.200
 115767980.677 7  90209003.59646  22029841.305    22029850.008
        47.800          38.600
 118047090.812 7  91984835.26645  22463601.953    22463612.418
        44.900          33.600
 107556972.660 8  83810770.88847  20467346.180    20467350.957
        51.100          45.800
 112630472.384 8  87764159.61546  21432807.547    21432818.656
        50.200          37.900
 113139779.646 8  88160947.16746  21529741.711    21529750.004
        50.600          40.200
 120767993.815 7  94105048.29844  22981351.117    22981369.609
        44.500          29.100
 15  3 15  0  2 30.0000000  0  9G07G16G23G27G09G19G04G11G01
 119460794.440 7  93086320.72345  22732605.117    22732610.832
        45.500          33.200
 121197831.689 7  94440001.89445  23063147.484    23063155.309
        45.400          31.200
 115151295.900 8  89728396.30746  21912567.891    21912573.781
        49.600          36.600
 115846952.897 8  90270540.34646  22044870.328    22044878.504
        50.500          38.800
 118061742.499 7  91996252.13845  22466390.594    22466400.590
        45.600          34.400
 107599144.158 8  83843631.79047  20475371.680    20475375.578
        51.800          45.300
 112554454.838 8  87704925.40346  21418341.523    21418352.809
        49.800          38.100
 113057978.397 8  88097206.08046  21514175.656    21514183.363
        51.300          39.900
 120667511.552 7  94026750.90945  22962228.898    22962248.563
        42.700          30.000
 15  3 15  0  3  0.0000000  0  9G07G16G23G27G09G19G04G11G01
 119364012.715 7  93010906.46545  22714188.359    22714193.547
        46.900          33.600
 121226621.949 7  94462435.69145  23068625.766    23068634.762
        45.900          30.400
 115208412.687 8  89772902.81146  21923436.305    21923443.367
        49.200          36.400
 115926039.844 8  90332166.49246  22059919.727    22059928.137
        49.700          38.600
 118076836.337 7  92008013.53245  22469263.055    22469272.875
        45.100          34.800
 107641731.047 8  83876816.38847  20483475.703    20483480.012
        51.000          45.200
 112478769.503 8  87645950.05846  21403939.164    21403949.980
        49.400          38.200
 112976514.636 8  88033727.97546  21498673.461    21498681.578
        51.500          39.800
 120567115.122 7  93948520.38044  22943123.922    22943142.414
        45.000          29.800
 15  3 15  0  3 30.0000000  0  9G07G16G23G27G09G19G04G11G01
 119267355.591 7  92935589.28645  22695793.734    22695800.094
        45.800          33.700
 121255386.396 7  94484849.37245  23074099.172    23074108.109
        45.700          30.200
 115265835.630 8  89817647.88446  21934364.070    21934370.195
        49.300          36.100
 116005238.489 8  90393879.68346  22074990.742    22074998.625
        49.200          38.300
 118092369.934 7  92020117.60445  22472218.586    22472228.699
        44.700          35.100
 107684729.984 8  83910322.05847  20491658.250    20491661.914
        51.500          44.700
 112403418.825 8  87587235.47146  21389599.898    21389610.832
        49.700          38.000
 112895390.125 8  87970514.21546  21483235.766    21483243.297
        51.600          39.800
 120466806.844 7  93870358.54144  22924035.719    22924054.738
        43.700          29.600
 15  3 15  0  4  0.0000000  0  9G07G16G23G27G09G19G04G11G01
 119170826.076 7  92860371.53245  22677425.109    22677432.172
        46.400          33.500
 121284126.728 7  94507244.26844  23079568.195    23079577.250
        44.800          29.100
 115323562.862 8  89862630.05246  21945349.891    21945355.547
        49.900          37.200
 116084547.403 8  90455678.80246  22090082.102    22090091.098
        49.100          38.200
 118108342.634 7  92032563.83446  22475258.930    22475269.160
        45.400          36.100
 107728139.684 8  83944147.81147  20499918.930    20499922.945
        51.000          45.300
 112328406.849 8  87528784.81646  21375325.734    21375336.727
        49.400          39.400
 112814608.535 8  87907567.65646  21467863.273    21467871.156
        51.100          39.100
 120366590.733 7  93792268.52244  22904964.375    22904983.512
        44.300          29.100
 15  3 15  0  4 30.0000000  0  9G07G16G23G27G09G19G04G11G01
 119074427.001 7  92785255.41145  22659081.133    22659087.316
        46.900          34.000
 121312843.632 7  94529620.91345  23085033.914    23085041.504
        46.400          31.500
 115381590.773 8  89907846.53145  21956391.727    21956398.262
        49.900          35.900
 116163963.876 8  90517561.73446  22105194.547    22105203.602
        48.600          38.100
 118124752.246 7  92045350.51145  22478380.992    22478391.398
        45.000          35.400
 107771957.103 8  83978291.25547  20508256.602    20508260.676
        50.300          45.300
 112253736.443 8  87470600.31746  21361116.078    21361127.188
        49.900          38.400
 112734171.967 8  87844889.94646  21452557.133    21452564.547
        52.100          39.800
 120266469.376 7  93714252.32844  22885912.070    22885930.738
        44.500          29.600
 15  3 15  0  5  0.0000000  0  9G07G16G23G27G09G19G04G11G01
 118978160.991 7  92710242.98845  22640762.305    22640768.137
        47.500          34.400
 121341537.624 7  94551979.67244  23090494.148    23090502.676
        45.400          29.300
 115439916.387 8  89953294.95346  21967490.266    21967496.859
        48.900          36.200
 116243485.426 8  90579526.54146  22120326.617    22120335.906
        48.300          37.800
 118141596.884 7  92058476.15845  22481586.781    22481596.602
        45.500          35.800
 107816179.613 8  84012750.36247  20516671.805    20516676.113
        51.200          44.800
 112179410.410 8  87412684.14846  21346972.539    21346983.648
        50.000          39.400
 112654083.032 8  87782483.12546  21437316.516    21437324.281
        51.600          40.100
 120166445.704 7  93636312.25745  22866878.438    22866896.461
        45.400          30.100
 15  3 15  0  5 30.0000000  0  9G07G16G23G27G09G19G04G11G01
 118882030.650 7  92635336.27645  22622469.523    22622475.941
        47.200          34.400
 121370209.419 7  94574321.14245  23095950.641    23095959.109
        46.100          30.700
 115498536.478 8  89998972.85845  21978645.828    21978651.836
        49.800          35.800
 116323109.534 7  90641571.26646  22135478.984    22135488.453
        47.200          38.100
 118158874.654 7  92071939.31645  22484875.305    22484884.832
        45.300          35.700
 107860804.382 8  84047522.92747  20525163.906    20525167.629
        51.400          45.400
 112105431.641 8  87355038.56746  21332894.859    21332905.383
        50.500          39.500
 112574344.075 8  87720349.01446  21422142.805    21422150.570
        53.100          39.900
 120066522.642 7  93558450.58845  22847863.492    22847880.930
        43.900          30.900
 15  3 15  0  6  0.0000000  0  9G07G16G23G27G09G19G04G11G01
 118786038.877 7  92560537.55545  22604202.734    22604209.152
        47.600          34.700
 121398860.041 7  94596646.13645  23101403.367    23101411.367
        45.600          30.600
 115557448.183 8  90044877.98646  21989856.477    21989862.719
        50.100          36.400
 116402833.973 7  90703694.15946  22150650.297    22150659.059
        47.300          38.300
 118176583.858 7  92085738.65645  22488244.211    22488254.559
        44.900          35.200
 107905829.155 8  84082607.17647  20533731.727    20533735.977
        51.700          45.100
 112031803.428 8  87297666.14546  21318883.070    21318893.535
        50.200          39.300
 112494957.230 8  87658489.25946  21407035.805    21407043.219
        52.700          39.900
 119966703.326 7  93480669.75045  22828867.727    22828885.633
        44.600          30.600
 15  3 15  0  6 30.0000000  0  9G07G16G23G27G09G19G04G11G01
 118690187.786 7  92485848.44545  22585963.219    22585969.402
        47.100          34.800
 121427489.909 7  94618954.93744  23106850.570    23106858.629
        46.200          29.900
 115616648.438 8  90091007.95846  22001122.430    22001127.852
        50.800          36.200
 116482655.840 7  90765892.97846  22165839.844    22165848.898
        47.000          38.200
 118194722.086 7  92099872.29146  22491696.719    22491705.949
        45.000          36.000
 107951250.519 8  84118000.46147  20542375.102    20542379.117
        50.900          45.200
 111958528.184 8  87240568.76146  21304939.445    21304950.027
        49.800          39.100
 112415924.965 8  87596905.80546  21391996.508    21392003.746
        53.100          40.600
 119866990.208 7  93402971.65545  22809892.477    22809910.910
        43.900          31.100
 15  3 15  0  7  0.0000000  0  9G07G16G23G27G09G19G04G11G01
 118594480.790 7  92411271.61245  22567750.602    22567756.375
        47.800          33.800
 121456100.306 7  94641248.54644  23112295.398    23112303.691
        44.700          29.000
 115676134.100 8  90137360.31446  22012442.477    22012448.191
        50.900          36.600
 116562573.302 7  90828166.28746  22181047.664    22181056.660
        47.000          37.900
 118213288.052 7  92114339.23845  22495229.430    22495239.133
        45.200          35.600
 107997066.474 8  84153701.21747  20551093.383    20551097.633
        51.100          44.600
 111885609.482 8  87183749.19646  21291063.477    21291074.352
        50.300          40.100
 112337250.186 8  87535600.91446  21377025.281    21377032.461
        52.300          40.500
 119767386.845 7  93325359.06844  22790937.742    22790956.469
        43.400          29.900
 15  3 15  0  7 30.0000000  0  9G07G16G23G27G09G19G04G11G01
 118498921.020 7  92336809.48745  22549566.750    22549572.172
        47.800          35.300
 121484692.382 7  94663527.87245  23117735.727    23117745.664
        43.300          30.200
 115735902.755 8  90183933.19845  22023814.945    22023821.422
        49.500          35.900
 116642584.344 7  90890512.50846  22196274.047    22196282.750
        47.300          37.700
 118232280.143 7  92129138.23045  22498843.281    22498853.160
        45.300          34.600
 108043274.976 8  84189707.85047  20559886.922    20559890.703
        50.800          45.000
 111813050.784 8  87127210.16146  21277256.438    21277266.551
        51.300          40.200
 112258935.628 8  87474576.71746  21362122.086    21362129.969
        52.700          40.900
 119667896.548 7  93247834.60145  22772004.750    22772023.184
        43.100          30.200
 15  3 15  0  8  0.0000000  0  9G07G16G23G27G09G19G04G11G01
 118403510.859 7  92262463.94445  22531410.422    22531415.785
        47.600          35.000
 121513266.707 7  94685793.38445  23123173.938    23123182.641
        45.500          30.900
 115795950.869 8  90230723.83145  22035242.445    22035248.863
        50.100          35.800
 116722686.276 7  90952929.57046  22211516.258    22211525.254
        47.200          37.100
 118251696.077 7  92144267.48745  22502539.328    22502548.148
        45.300          35.400
 108089872.963 8  84226017.98947  20568754.203    20568758.219
        50.700          45.100
 111740854.481 8  87070953.50446  21263517.008    21263527.766
        49.900          40.300
 112180983.399 8  87413834.83946  21347287.945    21347295.535
        53.000          40.600
 119568522.038 7  93170400.34545  22753094.836    22753113.035
        42.600          30.900
 15  3 15  0  8 30.0000000  0  9G07G16G23G27G09G19G04G11G01
 118308252.990 7  92188237.09445  22513283.320    22513288.273
        47.200          33.900
 121541824.240 7  94708045.80945  23128608.695    23128616.871
        45.200          30.600
 115856275.722 8  90277730.11745  22046721.469    22046728.824
        48.700          35.500
 116802876.860 7  91015415.70746  22226775.945    22226785.293
        46.200          37.700
 118271534.133 7  92159725.68745  22506313.445    22506322.852
        45.400          34.400
 108136857.940 8  84262629.67147  20577695.070    20577698.852
        51.300          44.600
 111669023.861 8  87014981.79946  21249847.883    21249858.699
        50.300          39.500
 112103395.942 8  87353377.20946  21332523.180    21332531.004
        52.300          40.700
 119469266.425 7  93093058.74045  22734207.125    22734224.797
        43.500          32.200
 15  3 15  0  9  0.0000000  0 10G07G16G23G27G30G09G19G04G11G01
 118213150.202 7  92114131.05445  22495184.789    22495190.797
        47.400          34.000
 121570365.541 7  94730285.58945  23134040.195    23134048.781
        45.200          30.200
 115916873.493 8  90324949.05545  22058253.555    22058260.207
        50.000          35.300
 116883153.345 7  91077968.76446  22242052.547    22242060.957
        47.500          37.900
 133121372.71814                  25332160.008
        29.600
 118291791.853 7  92175510.88545  22510169.211    22510178.148
        45.400          35.200
 108184226.556 8  84299540.29047  20586709.453    20586712.766
        51.400          45.000
 111597561.456 8  86959297.01146  21236249.578    21236259.516
        51.200          40.200
 112026175.466 8  87293205.52346  21317828.586    21317836.527
        52.400          40.800
 119370132.261 7  93015811.75745  22715342.438    22715359.406
        43.700          32.500
 15  3 15  0  9 30.0000000  0  9G07G16G23G27G09G19G04G11G01
 118118204.816 7  92040147.67845  22477116.820    22477123.590
        45.800          33.500
 121598891.179 7  94752513.17545  23139468.000    23139476.469
        45.300          30.200
 115977741.498 8  90372378.56745  22069836.344    22069843.172
        50.300          35.500
 116963513.271 7  91140586.83946  22257344.766    22257352.824
        47.400          37.300
 118312467.130 7  92191621.46146  22514103.383    22514112.672
        45.500          36.300
 108231976.503 8  84336748.04947  20595795.539    20595799.203
        50.200          44.900
 111526470.027 8  86903901.28946  21222720.570    21222730.742
        50.200          39.400
 111949323.902 8  87233321.30246  21303204.273    21303211.512
        53.300          41.100
 119271122.482 7  92938661.70745  22696501.063    22696517.914
        43.200          31.900
 15  3 15  0 10  0.0000000  0  9G07G16G23G27G09G19G04G11G01
 118023421.234 7  91966290.36945  22459080.508    22459086.105
        47.800          34.300
 121627403.729 7  94774730.54344  23144893.328    23144902.855
        44.300          29.300
 116038877.858 8  90420017.17645  22081470.227    22081476.293
        49.900          35.000
 117043955.901 7  91203269.36246  22272651.859    22272660.328
        46.500          37.100
 118333559.624 7  92208057.14745  22518116.758    22518126.164
        45.000          35.400
 108280106.147 8  84374251.67447  20604954.195    20604957.918
        50.200          44.700
 111455754.153 8  86848798.20746  21209263.352    21209274.285
        49.600          39.900
 111872845.545 8  87173727.88846  21288651.234    21288658.414
        53.100          40.500
 119172241.669 7  92861612.13745  22677684.047    22677701.602
        44.300          32.600
 15  3 15  0 10 30.0000000  0  9G07G16G23G27G09G19G04G11G01
 117928800.959 7  91892560.30845  22441076.391    22441081.051
        47.700          35.100
 121655903.085 7  94796937.63744  23150317.781    23150327.012
        44.200          29.800
 116100278.340 8  90467861.60445  22093154.336    22093160.988
        49.900          34.200
 117124477.829 7  91266013.67546  22287974.906    22287983.727
        46.600          37.300
 118355066.202 7  92224815.49945  22522209.438    22522218.316
        45.300          35.600
 108328612.014 8  84412048.45247  20614184.375    20614188.566
        50.800          44.500
 111385415.717 8  86793989.22346  21195878.789    21195888.844
        49.800          39.800
 111796742.085 8  87114426.60446  21274169.031    21274176.621
        52.800          40.600
 119073491.755 7  92784664.54245  22658892.141    22658909.695
        43.800          32.400
 15  3 15  0 11  0.0000000  0  9G07G16G23G27G09G19G04G11G01
 117834346.833 8  91818959.70445  22423102.555    22423106.746
        48.100          34.800
 121684389.592 7  94819134.71744  23155739.156    23155747.449
        44.300          29.300
 116161939.525 8  90515909.16545  22104887.969    22104895.266
        48.900          35.400
 117205076.743 7  91328817.98246  22303312.219    22303320.922
        46.600          37.200
 118376984.863 7  92241894.95645  22526380.070    22526389.715
        45.100          35.800
 108377491.337 8  84450136.23347  20623486.477    20623489.848
        50.700          44.500
 111315457.453 8  86739476.48246  21182565.938    21182576.168
        50.500          40.000
 111721014.907 8  87055418.51646  21259758.367    21259765.898
        52.900          40.500
 118974875.719 7  92707821.27545  22640126.477    22640143.387
        44.600          33.500
 15  3 15  0 11 30.0000000  0 10G07G16G23G27G30G09G19G04G11G01
 117740061.993 7  91745491.02645  22405159.977    22405165.457
        47.700          35.000
 121712864.517 7  94841322.76945  23161157.578    23161166.516
        44.900          30.000
 116223859.251 8  90564158.17945  22116671.117    22116677.594
        50.100          35.000
 117285750.441 7  91391680.55646  22318663.156    22318672.625
        47.500          36.300
 132612844.08215                  25235386.094
        30.800
 118399313.608 7  92259293.96945  22530629.461    22530639.398
        45.300          34.900
 108426741.772 8  84488513.20347  20632858.117    20632862.074
        51.200          44.800
 111245882.581 8  86685262.48346  21169326.164    21169336.102
        50.700          40.100
 111645667.092 8  86996706.04146  21245420.164    21245427.285
        52.900          40.900
 118876396.796 7  92631084.86345  22621385.977    22621403.004
        43.800          32.300
 15  3 15  0 12  0.0000000  0 10G07G16G23G27G30G09G19G04G11G01
 117645949.330 7  91672156.50145  22387250.688    22387256.637
        46.800          35.200
 121741329.130 7  94863502.78744  23166573.438    23166583.844
        44.200          28.900
 116286034.408 8  90612606.24845  22128503.227    22128509.586
        49.200          34.500
 117366496.847 7  91454599.78246  22334029.352    22334039.172
        46.600          36.900
 132510974.32915                  25215996.508
        30.800
 118422050.618 7  92277011.10145  22534956.313    22534965.898
        45.200          34.900
 108476360.593 8  84527177.21047  20642300.016    20642304.383
        51.200          44.700
 111176694.220 8  86631349.66446  21156159.883    21156170.055
        50.800          40.100
 111570700.841 8  86938290.87746  21231154.398    21231161.754
        52.900          40.400
 118778058.154 7  92554457.74045  22602671.594    22602689.441
        44.100          31.900
 15  3 15  0 12 30.0000000  0 10G07G16G23G27G30G09G19G04G11G01
 117552011.656 7  91598958.32345  22369374.563    22369380.805
        47.500          35.400
 121769784.158 7  94885675.34444  23171989.117    23171998.523
        44.900          29.100
 116348461.508 8  90661250.64845  22140382.063    22140388.363
        49.900          35.000
 117447313.530 7  91517573.79046  22349408.164    22349417.395
        46.600          36.400
 132409054.676 5                  25196604.703
        32.600
 118445193.632 7  92295044.60045  22539359.820    22539370.051
        44.900          35.000
 108526344.932 8  84566126.04947  20651811.883    20651816.074
        51.000          44.600
 111107895.064 8  86577740.12546  21143067.438    21143078.430
        50.600          39.500
 111496118.714 8  86880175.03146  21216961.781    21216968.668
        52.100          41.100
 118679862.640 7  92477942.13845  22583985.906    22584003.227
        44.500          33.500
 15  3 15  0 13  0.0000000  0 10G07G16G23G27G30G09G19G04G11G01
 117458251.792 7  91525898.71745  22351533.133    22351538.965
        47.200          35.800
 121798230.764 7  94907841.33244  23177402.852    23177412.141
        44.400          28.900
 116411137.614 8  90710089.08145  22152309.945    22152316.480
        49.800          34.800
 117528198.383 7  91580600.91446  22364800.547    22364809.719
        47.000          36.400
 132307088.232 5                  25177202.133
        33.800
 118468740.772 7  92313393.01045  22543840.594    22543850.000
        44.700          33.900
 108576692.442 8  84605357.87247  20661392.836    20661396.676
        50.400          43.900
 111039488.264 8  86524436.30746  21130049.719    21130060.125
        50.300          39.600
 111421923.131 8  86822360.40146  21202842.617    21202850.324
        53.100          41.400
 118581813.534 7  92401540.61945  22565328.164    22565344.605
        44.800          33.300
 15  3 15  0 13 30.0000000  0 10G07G16G23G27G30G09G19G04G11G01
 117364672.003 7  91452979.42545  22333725.383    22333731.273
        47.000          35.300
 121826668.971 7  94930000.78744  23182814.375    23182823.078
        43.700          28.600
 116474059.409 8  90759118.95445  22164283.133    22164290.020
        49.800          34.800
 117609148.638 7  91643678.98246  22380205.547    22380214.074
        46.200          36.500
 132205076.051 5 103016968.82452  25157789.258    25157796.906
        34.500          16.300
 118492689.381 7  92332054.25845  22548397.906    22548407.375
        44.900          34.700
 108627399.540 8  84644869.90247  20671041.438    20671045.570
        50.300          43.900
 110971476.035 8  86471439.94546  21117107.648    21117117.996
        49.800          39.900
 111348115.719 8  86764848.24046  21188797.875    21188804.469
        52.500          41.100
 118483913.266 7  92325255.07045  22546697.031    22546713.473
        44.400          33.000
 15  3 15  0 14  0.0000000  0 10G07G16G23G27G30G09G19G04G11G01
 117271275.743 7  91380203.17146  22315952.711    22315958.309
        46.800          36.400
 121855100.675 7  94952155.16444  23188224.820    23188233.582
        45.100          29.600
 116537224.170 8  90808338.14845  22176302.977    22176309.629
        50.200          34.700
 117690162.673 7  91706806.76245  22395621.977    22395630.328
        46.300          35.800
 132103020.555 5 102937445.15742  25138370.008    25138377.773
        34.300          15.600
 118517037.903 7  92351027.12145  22553030.930    22553040.574
        44.400          34.200
 108678464.440 8  84684660.73847  20680759.320    20680763.395
        51.300          44.300
 110903862.003 8  86418753.86046  21104241.242    21104250.945
        50.300          39.800
 111274699.478 8  86707640.88746  21174827.063    21174834.125
        52.600          41.200
 118386165.550 7  92249088.40445  22528096.930    22528113.078
        44.700          32.800
 15  3 15  0 14 30.0000000  0 10G07G16G23G27G30G09G19G04G11G01
 117178066.335 7  91307572.49345  22298214.781    22298221.199
        46.300          35.400
 121883526.720 7  94974305.14244  23193633.727    23193643.723
        43.300          29.200
 116600628.601 8  90857744.09345  22188368.883    22188375.652
        49.200          34.400
 117771238.241 7  91769982.49446  22411049.922    22411058.566
        46.200          36.200
 132000923.814 6 102857889.33142  25118940.641    25118949.051
        36.800          16.900
 118541784.250 7  92370309.97945  22557740.836    22557750.539
        44.500          34.600
 108729884.526 8  84724728.33347  20690544.039    20690548.113
        50.700          43.900
 110836648.906 8  86366380.19546  21091450.672    21091460.492
        50.600          40.700
 111201676.847 8  86650740.24046  21160931.258    21160938.730
        52.600          41.200
 118288573.454 7  92173042.99645  22509525.156    22509541.070
        45.100          33.400
 15  3 15  0 15  0.0000000  0 10G07G16G23G27G30G09G19G04G11G01
 117085045.489 7  91235088.75245  22280513.570    22280519.461
        45.600          35.400
 121911948.036 7  94996451.43744  23199042.602    23199052.070
        45.100          29.400
 116664269.691 8  90907334.44745  22200478.586    22200486.059
        49.500          34.700
 117852372.846 7  91833204.23646  22426489.313    22426498.133
        46.000          36.000
 131898787.639 6 102778302.81642  25099504.734    25099514.320
        37.000          14.800
 118566926.045 7  92389900.96245  22562524.555    22562534.082
        43.900          34.000
 108781656.573 8  84765070.19347  20700396.258    20700400.391
        50.500          44.600
 110769839.434 8  86314321.05146  21078737.133    21078747.070
        49.900          40.700
 111129049.722 8  86594147.78946  21147110.625    21147117.688
        52.500          41.600
 118191139.727 7  92097120.99045  22490983.578    22490999.844
        44.900          33.200
 15  3 15  0 15 30.0000000  0 10G07G16G23G27G30G09G19G04G11G01
 116992216.617 7  91162754.60945  22262848.430    22262854.613
        45.800          35.700
 121940365.342 7  95018594.59444  23204449.578    23204458.340
        43.600          29.200
 116728144.369 8  90957106.81745  22212634.555    22212641.090
        49.600          34.700
 117933564.490 7  91896470.41545  22441939.203    22441947.965
        45.300          35.300
 131796614.154 6 102698687.13842  25080061.961    25080071.430
        37.900          16.900
 118592461.284 7  92409798.53745  22567382.969    22567393.141
        43.500          34.600
 108833777.923 8  84805684.24447  20710314.023    20710318.156
        51.400          44.200
 110703436.656 8  86262578.80046  21066101.102    21066110.863
        50.200          41.000
 111056820.469 8  86537865.36046  21133365.594    21133372.656
        52.800          41.800
 118093867.604 7  92021324.90645  22472472.672    22472489.758
        44.100          32.700
 15  3 15  0 16  0.0000000  0 10G07G16G23G27G30G09G19G04G11G01
 116899582.794 7  91090572.43946  22245221.750    22245227.289
        46.700          36.600
 121968779.936 7  95040735.63844  23209857.711    23209866.648
        44.300          28.900
 116792249.915 8  91007059.08745  22224832.477    22224840.359
        49.000          34.200
 118014811.135 7  91959779.45145  22457399.875    22457408.109
        45.900          35.900
 131694405.508 6 102619044.13442  25060611.273    25060621.563
        37.300          15.600
 118618388.044 7  92430001.18645  22572317.266    22572327.027
        44.100          33.200
 108886246.376 8  84846568.76147  20720298.914    20720303.164
        49.900          44.300
 110637443.501 8  86211155.74446  21053543.063    21053553.000
        50.200          40.600
 110984991.807 8  86481895.07246  21119696.953    21119704.250
        51.700          40.700
 117996760.378 7  91945657.29045  22453994.289    22454010.496
        44.400          32.800
 15  3 15  0 16 30.0000000  0 10G07G16G23G27G30G09G19G04G11G01
 116807146.977 7  91018544.57546  22227631.336    22227637.402
        47.500          36.600
 121997192.575 7  95062875.14744  23215263.984    23215273.512
        42.600          27.900
 116856582.819 8  91057188.52545  22237074.508    22237082.273
        49.200          34.400
 118096110.555 7  92023129.61045  22472871.430    22472879.430
        45.800          35.700
 131592163.766 6 102539375.36642  25041155.289    25041165.754
        36.900          15.600
 118644703.979 7  92450507.10645  22577325.227    22577335.223
        44.100          34.100
 108939059.035 8  84887721.48347  20730348.992    20730353.535
        50.300          43.900
 110571862.881 8  86160054.14346  21041062.984    21041072.512
        50.800          40.100
 110913565.609 8  86426238.40846  21106104.883    21106111.945
        51.500          41.400
 117899821.073 7  91870120.54245  22435547.117    22435562.270
        45.300          34.200
 15  3 15  0 17  0.0000000  0 10G07G16G23G27G30G09G19G04G11G01
 116714912.003 7  90946673.21046  22210079.914    22210085.395
        47.300          36.600
 122025604.425 7  95085014.07144  23220671.883    23220680.234
        45.200          29.800
 116921140.152 8  91107492.83545  22249360.305    22249367.426
        50.000          35.400
 118177460.540 7  92086519.17345  22488351.148    22488359.910
        45.800          35.000
 131489890.832 6 102459682.21842  25021692.609    25021703.895
        36.500          16.300
 118671406.959 7  92471314.59145  22582407.711    22582416.121
        44.900          35.000
 108992213.158 8  84929140.29047  20740463.445    20740467.520
        49.800          44.200
 110506697.322 8  86109275.96046  21028662.172    21028671.578
        50.200          40.500
 110842544.444 8  86370897.34646  21092590.117    21092596.711
        51.200          41.500
 117803052.651 7  91794716.92045  22417132.609    22417148.641
        44.900          33.600
 15  3 15  0 17 30.0000000  0 10G07G16G23G27G30G09G19G04G11G01
 116622880.666 7  90874960.52045  22192566.844    22192572.383
        47.000          35.300
 122054016.477 7  95107153.13444  23226077.914    23226086.969
        43.600          28.000
 116985918.935 8  91157969.69445  22261686.945    22261693.949
        49.900          34.100
 118258859.166 7  92149946.64045  22503841.063    22503850.000
        46.000          35.500
 131387589.042 6 102379966.62542  25002225.164    25002237.035
        36.500          16.900
 118698494.958 7  92492422.12145  22587560.539    22587571.297
        44.100          34.000
 109045706.306 8  84970823.27847  20750643.148    20750646.813
        49.800          43.800
 110441949.997 8  86058823.66946  21016341.391    21016350.563
        50.800          40.300
 110771930.739 8  86315873.78747  21079152.953    21079160.016
        51.400          42.000
 117706458.429 7  91719449.05745  22398750.773    22398766.980
        44.500          33.900
 15  3 15  0 18  0.0000000  0 10G07G16G23G27G30G09G19G04G11G01
 116531055.880 7  90803408.77246  22175092.992    22175099.059
        47.000          36.900
 122082429.802 7  95129293.20144  23231484.336    23231494.566
        43.800          29.100
 117050915.951 8  91208616.61145  22274055.555    22274062.969
        49.100          34.400
 118340304.054 7  92213410.16246  22519340.055    22519348.465
        46.400          36.500
 131285260.118 6 102300229.86942  24982754.133    24982764.129
        37.100          17.400
 118725965.515 7  92513827.74645  22592789.414    22592798.820
        45.100          34.800
 109099535.564 8  85012768.16247  20760886.164    20760889.945
        49.900          43.900
 110377623.548 8  86008699.32846  21004100.328    21004109.914
        50.200          40.500
 110701726.473 8  86261169.28347  21065793.125    21065800.773
        51.100          42.000
 117610041.314 7  91644319.19945  22380402.242    22380419.504
        44.300          33.700
 15  3 15  0 18 30.0000000  0 10G07G16G23G27G30G09G19G04G11G01
 116439440.353 7  90732020.08446  22157659.250    22157665.082
        47.200          36.900
 122110845.072 7  95151434.77544  23236892.680    23236902.207
        43.500          29.500
 117116127.956 8  91259431.06945  22286465.664    22286472.668
        49.300          33.700
 118421792.892 7  92276907.90646  22534847.039    22534855.449
        46.700          36.300
 131182906.049 6 102220473.53043  24963276.602    24963287.242
        37.900          19.900
 118753816.261 7  92535529.61145  22598089.461    22598098.574
        45.300          34.900
 109153697.922 8  85054972.61347  20771193.172    20771196.660
        49.800          44.200
 110313720.561 8  85958904.96946  20991939.703    20991948.816
        50.200          40.700
 110631933.285 8  86206785.08946  21052511.852    21052519.617
        51.000          41.400
 117513804.208 7  91569329.58945  22362089.367    22362105.281
        45.100          34.500
 15  3 15  0 19  0.0000000  0 10G07G16G23G27G30G09G19G04G11G01
 116348036.780 7  90660796.54346  22140265.813    22140271.176
        47.100          36.700
 122139263.417 7  95173578.72044  23242299.938    23242310.578
        43.000          28.800
 117181551.908 8  91310410.66045  22298915.867    22298922.871
        49.400          34.400
 118503323.629 7  92340438.31246  22550361.742    22550370.680
        45.600          36.300
 131080529.027 6 102140699.27043  24943795.555    24943805.375
        38.300          18.600
 118782045.019 7  92557526.03045  22603460.586    22603469.934
        44.800          34.800
 109208190.639 8  85097434.47247  20781562.656    20781567.199
        49.800          43.400
 110250243.882 8  85909442.78446  20979860.055    20979869.934
        50.100          40.800
 110562554.307 8  86152723.66647  21039309.281    21039316.227
        50.800          42.300
 117417750.265 7  91494482.70345  22343810.547    22343825.934
        45.200          34.200
 15  3 15  0 19 30.0000000  0 10G07G16G23G27G30G09G19G04G11G01
 116256848.126 7  90589740.48046  22122913.602    22122918.730
        47.300          36.900
 122167685.799 7  95195725.84544  23247709.453    23247718.566
        43.200          29.600
 117247184.624 8  91361552.93345  22311405.313    22311411.379
        48.800          33.600
 118584894.068 7  92403999.64445  22565883.898    22565893.070
        46.200          35.200
 130978131.023 6 102060908.72042  24924309.016    24924318.719
        37.700          17.400
 118810649.417 7  92579815.16145  22608904.156    22608913.801
        45.400          35.700
 109263010.963 8  85140151.61147  20791994.703    20791998.895
        49.900          43.300
 110187196.101 8  85860314.80346  20967862.922    20967872.094
        50.400          40.400
 110493591.210 8  86098986.30147  21026186.078    21026192.906
        51.100          42.300
 117321882.485 7  91419780.87745  22325567.508    22325582.484
        45.400          34.700
 15  3 15  0 20  0.0000000  0 10G07G16G23G27G30G09G19G04G11G01
 116165877.905 7  90518854.63046  22105602.094    22105607.223
        46.900          36.900
 122196113.416 7  95217877.05044  23253118.305    23253128.828
        43.800          29.500
 117313023.341 8  91412855.72445  22323933.586    22323941.234
        48.700          33.500
 118666502.419 7  92467590.53045  22581413.469    22581422.055
        47.400          35.700
 130875714.415 6 101981103.67442  24904819.406    24904829.168
        37.300          17.800
 118839627.519 7  92602395.48745  22614418.492    22614428.371
        44.500          35.700
 109318156.527 8  85183122.18847  20802488.414    20802492.840
        49.800          43.800
 110124580.381 8  85811523.50246  20955947.320    20955956.375
        50.800          41.700
 110425046.114 8  86045574.65446  21013142.469    21013148.711
        52.300          41.800
 117226204.227 7  91345226.71845  22307359.672    22307375.234
        45.000          34.800
 15  3 15  0 20 30.0000000  0 10G07G16G23G27G30G09G19G04G11G01
 116075128.615 7  90448140.93646  22088333.320    22088338.508
        47.700          37.100
 122224546.880 7  95240032.80144  23258530.625    23258539.094
        44.200          28.800
 117379064.752 8  91464316.44945  22336501.375    22336508.145
        49.000          33.900
 118748146.520 7  92531209.26845  22596948.609    22596958.371
        46.400          35.400
 130773281.543 6 101901285.87843  24885327.422    24885336.828
        38.100          19.000
 118868977.037 7  92625265.23445  22620003.711    22620013.531
        45.700          34.600
 109373624.365 8  85226343.88547  20813043.734    20813047.926
        49.800          43.600
 110062399.341 8  85763070.90046  20944114.484    20944123.953
        50.600          41.300
 110356921.499 8  85992490.64447  21000178.609    21000185.203
        52.100          42.000
 117130718.598 7  91270822.66645  22289189.203    22289204.063
        45.000          34.800
 15  3 15  0 21  0.0000000  0 10G07G16G23G27G30G09G19G04G11G01
 115984603.552 7  90377601.96246  22071106.703    22071112.418
        47.600          37.500
 122252988.255 7  95262194.72444  23263941.000    23263951.113
        43.000          28.900
 117445306.167 8  91515932.99845  22349106.602    22349113.430
        49.500          33.100
 118829824.626 7  92594854.49645  22612491.664    22612501.367
        46.000          35.000
 130670834.508 6 101821457.07143  24865832.531    24865840.590
        38.600          18.600
 118898695.870 7  92648422.74245  22625658.508    22625668.211
        44.300          34.300
 109429412.540 8  85269815.19147  20823660.055    20823663.895
        49.700          43.700
 110000656.278 8  85714959.58846  20932365.094    20932374.324
        50.600          41.400
 110289220.018 8  85939736.35946  20987295.148    20987301.625
        51.100          41.800
 117035428.949 7  91196571.32145  22271054.930    22271071.371
        44.800          34.400
 15  3 15  0 21 30.0000000  0 10G07G16G23G27G30G09G19G04G11G01
 115894305.012 7  90307239.49946  22053922.945    22053929.129
        47.200          37.500
 122281437.782 7  95284362.98244  23269356.680    23269365.559
        43.500          29.300
 117511743.902 8  91567702.54145  22361749.344    22361756.582
        48.400          33.200
 118911534.126 7  92658524.19145  22628040.992    22628049.637
        45.500          35.100
 130568375.004 6 101741618.54843  24846335.086    24846343.848
        39.700          18.300
 118928781.230 7  92671865.89045  22631383.523    22631393.695
        44.200          33.700
 109485517.299 8  85313533.18547  20834336.180    20834340.723
        50.000          43.700
 109939353.158 8  85667191.07146  20920699.336    20920708.391
        50.800          40.900
 110221943.065 8  85887312.87446  20974492.898    20974498.848
        50.700          41.600
 116940337.852 7  91122474.69445  22252960.727    22252976.055
        45.500          35.300
 15  3 15  0 22  0.0000000  0 10G07G16G23G27G30G09G19G04G11G01
 115804236.433 7  90237056.22446  22036784.148    22036789.805
        47.300          37.200
 122309896.844 7  95306538.68044  23274772.297    23274781.703
        43.500          29.500
 117578375.400 8  91619623.06145  22374428.594    22374435.422
        48.900          32.700
 118993273.335 7  92722217.03045  22643595.789    22643604.492
        46.000          35.400
 130465905.494 6 101661772.23943  24826836.734    24826844.793
        41.300          20.100
 118959231.092 7  92695593.03745  22637178.023    22637188.078
        43.800          34.400
 109541936.860 8  85357496.47647  20845072.516    20845076.355
        49.600          43.000
 109878492.900 8  85619767.65846  20909118.203    20909127.199
        51.200          41.100
 110155093.218 8  85835222.19346  20961771.234    20961778.531
        51.300          41.800
 116845448.708 7  91048535.42345  22234903.813    22234918.203
        45.600          35.500
 15  3 15  0 22 30.0000000  0 10G07G16G23G27G30G09G19G04G11G01
 115714400.182 7  90167053.99146  22019687.805    22019694.809
        47.200          36.900
 122338365.656 7  95328721.96445  23280190.016    23280199.895
        43.400          30.200
 117645196.620 8  91671691.42245  22387144.031    22387151.270
        48.900          32.400
 119075039.472 7  92785930.86445  22659155.711    22659164.590
        45.800          35.800
 130363427.647 6 101581919.47843  24807335.945    24807343.652
        41.800          21.500
 118990042.564 7  92719601.96345  22643041.141    22643051.195
        43.900          34.100
 109598666.848 8  85401701.66847  20855867.609    20855871.566
        49.500          43.400
 109818077.847 8  85572691.14746  20897620.969    20897630.141
        51.400          41.400
 110088671.869 8  85783465.40546  20949132.039    20949138.398
        50.900          41.500
 116750764.025 7  90974755.46645  22216885.680    22216900.598
        45.800          35.000
 15  3 15  0 23  0.0000000  0 10G07G16G23G27G30G09G19G04G11G01
 115624799.505 7  90097235.32746  22002637.250    22002644.137
        47.300          37.100
 122366845.720 7  95350914.02844  23285608.875    23285619.633
        42.900          28.200
 117712205.197 8  91723905.78145  22399896.211    22399903.098
        50.000          33.500
 119156831.043 7  92849664.51745  22674719.797    22674729.203
        45.500          35.400
 130260943.907 7 101502062.09543  24787834.641    24787841.469
        42.500          21.100
 119021213.679 7  92743891.13045  22648973.242    22648983.297
        44.600          34.500
 109655705.669 8  85446147.49847  20866722.430    20866725.508
        50.100          43.600
 109758110.973 8  85525963.86146  20886209.656    20886219.125
        51.300          41.400
 110022681.527 8  85732044.46847  20936574.359    20936580.836
        51.000          42.300
 116656287.299 7  90901137.56345  22198906.883    22198921.449
        45.700          35.000
 15  3 15  0 23 30.0000000  0 10G07G16G23G27G30G09G19G04G11G01
 115535437.420 8  90027602.57846  21985632.586    21985638.242
        48.100          37.600
 122395338.420 7  95373115.92244  23291030.602    23291042.063
        42.600          29.700
 117779397.715 8  91776263.45845  22412681.867    22412689.047
        49.500          33.000
 119238645.852 7  92913416.27845  22690289.219    22690298.332
        47.300          35.200
 130158456.495 7 101422201.84243  24768332.492    24768339.320
        42.900          22.200
 119052742.004 7  92768458.63745  22654973.078    22654982.426
        44.800          33.800
 109713050.408 8  85490831.71047  20877634.922    20877638.176
        50.100          43.700
 109698594.701 8  85479587.69946  20874883.953    20874892.715
        51.000          41.600
 109957124.428 8  85680961.11747  20924099.422    20924106.074
        51.100          42.300
 116562021.576 7  90827684.06545  22180968.430    22180983.289
        46.000          35.500
 15  3 15  0 24  0.0000000  0 10G07G16G23G27G30G09G19G04G11G01
 115446316.465 7  89958157.72846  21968673.727    21968679.617
        47.800          37.400
 122423844.704 7  95395328.40444  23296455.109    23296466.570
        42.400          28.400
 117846771.313 8  91828762.24645  22425503.547    22425510.609
        49.800          33.500
 119320482.151 7  92977184.78545  22705861.383    22705871.145
        46.600          35.300
 130055967.725 6 101342340.54343  24748828.227    24748835.875
        41.400          21.100
 119084625.430 7  92793302.85145  22661040.594    22661049.297
        44.500          34.200
 109770698.449 8  85535752.25947  20888604.461    20888608.828
        50.000          43.600
 109639532.115 8  85433565.06546  20863644.461    20863653.988
        51.400          41.600
 109892002.641 8  85630216.97547  20911707.102    20911713.344
        50.500          42.500
 116467970.121 7  90754397.52045  22163070.094    22163086.242
        45.800          35.500
 15  3 15  0 24 30.0000000  0 10G07G16G23G27G30G09G19G04G11G01
 115357440.300 7  89888903.59446  21951760.758    21951766.824
        47.200          37.300
 122452365.889 7  95417552.50544  23301883.031    23301893.730
        42.600          28.400
 117914323.347 8  91881400.06845  22438357.789    22438365.438
        49.300          33.500
 119402338.206 7  93040968.68845  22721438.211    22721447.797
        47.000          35.400
 129953480.018 7 101262480.07343  24729325.977    24729333.684
        42.500          22.000
 119116861.756 7  92818422.05845  22667174.398    22667184.102
        45.000          33.800
 109828647.664 8  85580907.50047  20899632.313    20899636.035
        50.100          43.800
 109580926.228 8  85387898.30147  20852491.742    20852501.148
        51.200          42.000
 109827318.516 8  85579813.86847  20899397.633    20899405.164
        50.600          42.100
 116374136.344 7  90681280.60745  22145215.031    22145229.363
        46.100          35.300
 15  3 15  0 25  0.0000000  0 10G07G16G23G27G30G09G19G04G11G01
 115268811.923 7  89819842.59046  21934894.906    21934900.914
        47.000          37.200
 122480902.745 7  95439788.80944  23307314.633    23307324.453
        43.700          28.300
 117982050.062 8  91934173.99645  22451246.031    22451253.445
        49.300          33.600
 119484211.667 8  93104766.15345  22737019.086    22737027.789
        48.000          34.600
 129850995.391 7 101182621.98643  24709822.781    24709830.840
        42.100          21.800
 119149448.334 7  92843814.17845  22673376.164    22673385.219
        45.500          34.000
 109886894.453 8  85626294.60147  20910716.359    20910719.730
        50.300          43.500
 109522779.092 8  85342588.99946  20841427.094    20841435.855
        51.600          41.700
 109763074.003 8  85529753.30647  20887172.336    20887179.867
        50.900          42.200
 116280523.035 7  90608335.48845  22127400.523    22127415.207
        45.700          35.900
 15  3 15  0 25 30.0000000  0 10G07G16G23G27G30G09G19G04G11G01
 115180433.169 7  89750976.06746  21918077.227    21918083.234
        47.800          37.600
 122509456.291 7  95462038.13644  23312748.414    23312757.941
        44.100          28.900
 118049948.704 8  91987081.88745  22464167.422    22464174.543
        49.300          33.500
 119566100.343 7  93168575.46545  22752601.047    22752610.219
        47.800          35.300
 129748515.731 7 101102767.77943  24690321.164    24690329.750
        42.100          21.800
 119182382.458 7  92869477.11545  22679641.977    22679652.090
        45.000          32.700
 109945435.943 8  85671911.35147  20921855.930    20921859.594
        49.900          43.000
 109465093.231 8  85297639.12747  20830449.539    20830458.477
        52.300          42.400
 109699270.640 8  85480036.50047  20875030.914    20875037.859
        50.200          42.300
 116187132.991 7  90535564.34546  22109628.727    22109643.059
        45.800          36.400
 15  3 15  0 26  0.0000000  0 10G07G16G23G27G30G09G19G04G11G01
 115092307.696 8  89682306.90646  21901307.945    21901313.426
        48.300          38.000
 122538027.629 7  95484301.31844  23318185.570    23318195.039
        43.200          28.700
 118118015.953 8  92040121.18445  22477119.695    22477126.992
        49.300          32.800
 119648002.431 7  93232395.21845  22768186.805    22768196.449
        47.300          34.200
 129646043.522 6 101022919.39143  24670821.164    24670829.516
        41.600          21.100
 119215661.980 7  92895409.20045  22685975.094    22685985.031
        44.900          33.600
 110004269.695 8  85717755.83247  20933051.508    20933055.230
        49.600          43.700
 109407871.236 8  85253050.72546  20819560.211    20819569.855
        52.800          41.700
 109635910.953 8  85430665.42047  20862973.875    20862980.762
        50.200          42.800
 116093969.476 7  90462969.71445  22091900.133    22091915.109
        46.200          35.500
 15  3 15  0 26 30.0000000  0 10G07G16G23G27G30G09G19G04G11G01
 115004438.658 7  89613837.56446  21884587.250    21884592.438
        47.500          38.300
 122566618.178 7  95506579.47844  23323625.102    23323635.977
        42.600          28.100
 118186249.075 8  92093289.73345  22490104.664    22490111.199
        49.500          33.500
 119729916.259 8  93296224.12445  22783774.234    22783783.641
        48.100          34.600
 129543581.181 6 100943078.69943  24651322.289    24651331.168
        40.200          20.600
 119249284.682 7  92921608.67545  22692373.523    22692383.402
        45.400          33.500
 110063393.478 8  85763826.31547  20944302.391    20944306.406
        49.800          43.700
 109351116.163 8  85208826.14647  20808760.172    20808769.641
        52.500          42.000
 109572996.811 8  85381641.51347  20851001.164    20851008.109
        50.900          42.100
 116001035.899 7  90390554.24545  22074215.008    22074229.281
        46.800          35.200
 15  3 15  0 27  0.0000000  0 10G07G16G23G27G30G09G19G04G11G01
 114916828.651 7  89545570.07046  21867915.813    21867921.352
        47.600          38.100
 122595228.657 7  95528873.13344  23329070.125    23329080.355
        43.100          29.200
 118254644.800 8  92146584.96845  22503119.430    22503126.551
        49.200          32.400
 119811839.641 7  93360060.48645  22799363.430    22799372.957
        47.500          33.700
 129441130.875 6 100863247.43143  24631826.664    24631835.836
        41.100          21.700
 119283247.846 7  92948073.46145  22698836.469    22698847.051
        44.700          33.600
 110122803.961 8  85810120.19747  20955607.977    20955611.641
        49.900          43.300
 109294830.093 8  85164967.02846  20798049.336    20798057.922
        52.100          41.600
 109510530.281 8  85332966.39047  20839114.273    20839121.395
        50.800          42.300
 115908335.137 7  90318320.18245  22056574.188    22056588.285
        45.800          35.200
 15  3 15  0 27 30.0000000  0 10G07G16G23G27G30G09G19G04G11G01
 114829481.146 7  89477507.11846  21851294.031    21851299.219
        47.900          38.500
 122623860.418 7  95551183.39044  23334518.633    23334529.039
        44.100          28.100
 118323200.155 8  92200004.61145  22516164.656    22516173.066
        48.200          32.400
 119893770.844 7  93423902.94045  22814954.992    22814963.930
        47.700          33.800
 129338694.979 6 100783427.36243  24612334.266    24612342.852
        41.200          19.900
 119317549.342 7  92974801.86845  22705363.086    22705373.434
        44.600          33.000
 110182498.900 8  85856635.74947  20966967.281    20966971.238
        50.000          42.800
 109239015.840 8  85121475.56846  20787427.883    20787436.879
        52.400          41.700
 109448513.270 8  85284641.54347  20827312.836    20827319.605
        50.300          42.100
 115815870.468 7  90246270.08845  22038978.305    22038993.516
        46.300          35.200
 15  3 15  0 28  0.0000000  0 10G07G16G23G27G30G09G19G04G11G01
 114742398.437 7  89409650.46146  21834721.891    21834727.547
        47.500          37.700
 122652514.692 7  95573511.18144  23339971.141    23339982.191
        43.900          27.400
 118391911.723 7  92253545.95245  22529240.289    22529248.348
        46.600          32.600
 119975707.686 7  93487749.79045  22830547.117    22830556.055
        47.900          33.000
 129236275.499 6 100703620.16543  24592844.375    24592852.961
        41.700          21.100
 119352186.413 7  93001791.76845  22711954.680    22711964.148
        43.600          33.700
 110242475.362 8  85903370.65747  20978380.672    20978384.219
        50.200          43.000
 109183675.818 8  85078353.63646  20776897.313    20776905.664
        51.600          41.500
 109386947.884 8  85236668.62047  20815597.570    20815603.871
        50.500          42.600
 115723644.709 7  90174406.17145  22021428.141    22021442.883
        46.000          35.500
 15  3 15  0 28 30.0000000  0 10G07G16G23G27G30G09G19G04G11G01
 114655583.736 7  89342002.68846  21818202.086    21818208.094
        47.600          38.500
 122681192.065 7  95595856.97544  23345428.586    23345439.168
        43.300          27.800
 118460776.562 7  92307206.74045  22542345.148    22542352.621
        46.600          32.400
 120057648.197 8  93551599.48745  22846140.672    22846148.730
        48.000          33.600
 129133874.509 7 100623827.29843  24573358.930    24573367.281
        42.100          21.300
 119387156.389 7  93029041.09245  22718609.445    22718619.910
        44.100          33.200
 110302730.090 8  85950322.39747  20989846.992    20989850.539
        50.100          43.200
 109128812.325 8  85035603.01946  20766456.539    20766465.535
        52.600          41.800
 109325835.774 8  85189048.89047  20803968.188    20803974.664
        50.400          42.300
 115631660.845 7  90102730.74046  22003924.125    22003938.516
        46.300          36.400
 15  3 15  0 29  0.0000000  0 10G07G16G23G27G30G09G19G04G11G01
 114569039.509 7  89274565.66846  21801733.305    21801739.020
        47.800          39.200
 122709893.752 7  95618221.69644  23350890.492    23350901.895
        42.900          26.800
 118529791.575 7  92360984.54045  22555478.242    22555485.656
        45.800          31.100
 120139590.440 7  93615450.52345  22861733.570    22861741.980
        46.300          33.900
 129031494.372 7 100544050.68143  24553875.984    24553884.453
        42.400          20.100
 119422456.885 7  93056547.96345  22725327.797    22725337.559
        45.100          33.300
 110363260.687 8  85997489.10047  21001365.203    21001369.043
        49.900          43.400
 109074428.131 8  84993225.86946  20756107.820    20756116.699
        53.000          41.700
 109265178.861 8  85141783.86847  20792425.305    20792432.074
        51.600          42.200
 115539922.020 7  90031246.22246  21986466.461    21986480.324
        46.300          36.300
 15  3 15  0 29 30.0000000  0 10G07G16G23G27G30G09G19G04G11G01
 114482769.362 8  89207342.20246  21785316.961    21785322.207
        48.300          39.200
 122738620.920 7  95640606.29244  23356357.578    23356368.688
        43.200          28.100
 118598953.586 7  92414876.88645  22568640.164    22568647.930
        46.200          32.600
 120221532.699 7  93679301.58545  22877326.195    22877334.840
        46.800          34.200
 128929137.556 6 100464292.28343  24534396.867    24534406.688
        41.000          19.300
 119458085.606 7  93084310.59145  22732107.461    22732116.633
        45.200          33.100
 110424064.381 8  86044868.61247  21012936.125    21012939.789
        50.300          43.000
 109020525.553 8  84951224.01046  20745849.820    20745859.406
        52.500          41.400
 109204979.378 8  85094875.28047  20780969.445    20780976.684
        50.800          42.600
 115448431.475 7  89959955.17046  21969056.563    21969069.957
        46.800          36.200
 15  3 15  0 30  0.0000000  0 10G07G16G23G27G30G09G19G04G11G01
 114396776.067 8  89140334.47846  21768952.234    21768958.066
        48.000          38.000
 122767375.077 7  95663011.90944  23361829.180    23361840.758
        42.500          27.800
 118668259.692 7  92468881.50645  22581827.234    22581836.820
        45.900          32.100
 120303473.088 7  93743151.19245  22892918.742    22892927.621
        46.800          33.700
 128826806.400 6 100384553.82043  24514923.789    24514933.375
        40.100          20.100
 119494040.032 7  93112327.00645  22738948.266    22738958.730
        43.900          32.300
 110485138.728 8  86092459.02247  21024557.852    21024561.633
        49.900          42.900
 108967107.185 8  84909599.45147  20735685.219    20735693.395
        52.800          42.000
 109145239.088 8  85048324.50747  20769601.352    20769608.004
        51.000          42.600
 115357192.275 7  89888859.98146  21951694.375    21951707.652
        47.500          37.100
 15  3 15  0 30 30.0000000  0 10G07G16G23G27G30G09G19G04G11G01
 114311062.325 8  89073544.58646  21752642.008    21752647.195
        48.500          38.400
 122796156.699 7  95685438.92444  23367307.031    23367317.320
        43.600          28.000
 118737706.878 7  92522996.06545  22595043.883    22595051.414
        46.400          32.300
 120385409.588 7  93806997.75345  22908511.188    22908519.598
        46.700          33.800
 128724502.930 6 100304836.98043  24495455.695    24495466.336
        40.100          19.900
 119530317.328 7  93140595.01645  22745852.695    22745862.398
        44.000          32.600
 110546480.465 8  86140257.78747  21036230.938    21036234.426
        49.600          43.300
 108914175.197 8  84868353.88946  20725612.492    20725621.195
        51.700          41.900
 109085959.517 8  85002132.72847  20758320.977    20758327.336
        50.700          42.600
 115266207.247 7  89817962.83646  21934380.219    21934394.199
        46.600          37.200
 15  3 15  0 31  0.0000000  0 10G07G16G23G27G30G09G19G04G11G01
 114225631.407 7  89006975.08546  21736384.297    21736390.305
        47.500          38.800
 122824967.162 7  95707888.41544  23372789.313    23372800.422
        44.000          28.400
 118807291.977 7  92577218.08745  22608285.227    22608293.051
        46.500          33.000
 120467340.535 7  93870840.00845  22924101.852    22924110.555
        46.700          33.500
 128622229.638 6 100225143.60543  24475994.359    24476003.707
        40.900          20.100
 119566915.359 7  93169112.94745  22752817.055    22752827.109
        43.600          33.200
 110608087.408 8  86188263.21247  21047954.234    21047957.547
        50.000          42.400
 108861732.172 8  84827489.33146  20715632.359    20715640.477
        52.100          41.600
 109027142.736 8  84956301.56047  20747128.406    20747134.648
        49.900          42.700
 115175479.813 7  89747266.42646  21917115.258    21917128.418
        46.200          37.600
 15  3 15  0 31 30.0000000  0 10G07G16G23G27G30G09G19G04G11G01
 114140485.817 7  88940627.91046  21720181.383    21720187.156
        47.500          38.200
 122853807.512 7  95730361.19344  23378277.992    23378288.984
        43.800          29.100
 118877011.723 7  92631545.02345  22621553.109    22621560.934
        47.200          32.900
 120549263.774 7  93934676.25945  22939691.430    22939700.602
        46.400          33.300
 128519988.617 6 100145475.37243  24456538.195    24456548.367
        39.600          20.400
 119603831.224 7  93197878.52345  22759841.586    22759851.934
        43.800          33.300
 110669956.307 8  86236472.74047  21059727.836    21059731.500
        50.000          42.200
 108809780.468 8  84787007.61547  20705746.336    20705754.746
        52.800          42.500
 108968790.594 8  84910832.44746  20736024.305    20736030.430
        50.300          41.900
 115085012.698 7  89676772.85446  21899899.414    21899912.984
        46.300          37.000
 15  3 15  0 32  0.0000000  0 10G07G16G23G27G30G09G19G04G11G01
 114055628.689 7  88874505.51146  21704034.383    21704039.688
        47.800          39.400
 122882678.948 7  95752858.21444  23383771.305    23383782.297
        43.300          27.700
 118946863.144 7  92685974.55845  22634845.539    22634853.012
        45.900          32.100
 120631177.526 7  93998505.11345  22955278.695    22955287.574
        47.400          32.300
 128417782.294 6 100065834.18743  24437088.766    24437098.820
        39.800          20.900
 119641062.460 7  93226889.86145  22766926.867    22766936.746
        44.100          33.700
 110732084.643 8  86284884.43347  21071549.867    21071554.879
        50.500          43.200
 108758322.345 8  84746910.51747  20695953.555    20695962.668
        52.800          42.100
 108910905.056 8  84865726.93447  20725009.039    20725014.930
        51.500          42.900
 114994809.106 7  89606484.61646  21882733.938    21882748.270
        47.200          38.000
 15  3 15  0 32 30.0000000  0 10G07G16G23G27G30G09G19G04G11G01
 113971063.437 8  88808610.54346  21687942.094    21687947.633
        48.100          39.500
 122911582.823 7  95775380.48644  23389272.367    23389282.773
        43.500          27.600
 119016843.460 7  92740504.53345  22648162.445    22648170.445
        46.300          30.800
 120713080.347 7  94062325.45445  22970864.938    22970874.109
        47.500          32.600
 128315613.215 6  99986222.03143  24417646.445    24417657.027
        38.800          20.900
 119678606.786 7  93256145.16745  22774071.492    22774080.605
        44.600          34.400
 110794469.901 8  86333496.32347  21083421.602    21083426.730
        49.900          42.300
 108707360.628 8  84707200.22147  20686256.328    20686265.266
        52.200          42.100
 108853488.333 8  84820986.71347  20714082.797    20714089.508
        51.100          42.900
 114904872.356 7  89536404.30746  21865618.883    21865633.215
        46.600          37.400
 15  3 15  0 33  0.0000000  0 10G07G16G23G27G30G09G19G04G11G01
 113886792.766 8  88742945.11846  21671905.727    21671911.559
        48.000          39.200
 122940520.227 7  95797928.88144  23394777.984    23394789.328
        43.000          26.800
 119086949.403 7  92795132.43145  22661503.242    22661511.125
        47.800          32.100
 120794970.168 7  94126135.66045  22986448.211    22986456.973
        47.100          33.500
 128213483.666 6  99906640.65443  24398210.164    24398222.797
        39.200          21.300
 119716461.459 7  93285642.28845  22781274.867    22781284.156
        44.500          34.400
 110857109.349 8  86382306.28247  21095341.367    21095345.383
        49.900          42.800
 108656897.406 8  84667878.35846  20676653.398    20676661.633
        52.800          41.700
 108796541.570 8  84776612.70747  20703246.109    20703251.883
        49.900          42.900
 114815205.294 7  89466534.14546  21848555.672    21848569.770
        47.000          38.000
 15  3 15  0 33 30.0000000  0 10G07G16G23G27G30G09G19G04G11G01
 113802819.600 8  88677511.52146  21655926.078    21655931.617
        48.200          38.700
 122969492.119 7  95820504.15144  23400292.570    23400303.035
        44.400          28.100
 119157178.064 7  92849855.95045  22674867.375    22674875.785
        47.000          30.900
 120876845.228 7  94189934.36845  23002028.102    23002037.922
        46.500          33.700
 128111395.963 6  99827091.84343  24378785.156    24378796.207
        40.500          22.000
 119754623.975 7  93315379.29545  22788536.500    22788546.730
        44.000          33.500
 110920000.056 8  86431312.02647  21107309.359    21107313.375
        49.400          42.900
 108606934.897 8  84628946.66547  20667145.719    20667153.953
        53.200          42.400
 108740066.903 8  84732606.56447  20692499.578    20692505.586
        50.700          42.200
 114725811.070 7  89396876.58346  21831544.938    21831557.922
        46.900          37.600
 15  3 15  0 34  0.0000000  0 10G07G16G23G27G30G09G19G04G11G01
 113719146.630 8  88612311.82546  21640003.539    21640009.371
        48.400          39.000
 122998499.678 7  95843107.22544  23405813.352    23405823.230
        44.900          28.500
 119227526.495 7  92904672.76745  22688253.961    22688262.430
        47.300          30.900
 120958703.664 7  94253720.11045  23017605.898    23017615.305
        47.500          33.000
 128009352.411 6  99747577.45443  24359366.805    24359376.859
        41.400          22.800
 119793091.581 7  93345354.02345  22795856.555    22795867.254
        44.300          33.400
 110983139.331 8  86480511.46347  21119324.266    21119328.398
        49.500          42.300
 108557475.604 8  84590407.09847  20657733.805    20657742.332
        53.200          42.300
 108684066.021 8  84688969.60847  20681842.586    20681849.063
        50.500          42.600
 114636692.615 7  89327433.88846  21814585.703    21814599.332
        47.000          37.000
 15  3 15  0 34 30.0000000  0 10G07G16G23G27G30G09G19G04G11G01
 113635776.657 8  88547348.24346  21624138.578    21624144.586
        48.000          38.900
 123027543.859 7  95865738.83644  23411340.039    23411350.680
        45.400          27.800
 119297991.017 7  92959580.05145  22701663.336    22701671.277
        46.300          30.200
 121040543.598 7  94317491.43745  23033179.508    23033189.270
        47.800          33.000
 127907355.263 7  99668099.18843  24339957.469    24339967.055
        42.400          23.800
 119831861.600 7  93375564.39545  22803234.211    22803245.145
        43.800          33.200
 111046524.414 8  86529902.43147  21131386.430    21131390.152
        49.800          42.300
 108508521.563 8  84552261.22147  20648418.039    20648426.039
        53.100          42.000
 108628540.224 8  84645702.83447  20671276.813    20671282.645
        50.200          42.300
 114547852.901 7  89258208.40346  21797679.875    21797693.270
        46.800          37.300
 15  3 15  0 35  0.0000000  0 10G07G16G23G27G30G09G19G04G11G01
 113552712.825 8  88482623.21646  21608332.148    21608337.980
        48.200          39.800
 123056625.804 7  95888399.88344  23416873.531    23416884.465
        44.600          26.500
 119368568.779 7  93014575.58944  22715094.273    22715101.629
        44.800          29.900
 121122363.116 7  94381246.85745  23048749.352    23048759.230
        47.400          34.200
 127805406.846 7  99588658.91844  24320557.594    24320567.824
        43.500          24.500
 119870931.393 7  93406008.36945  22810669.484    22810679.246
        43.600          33.000
 111110152.188 8  86579482.49747  21143494.297    21143498.254
        49.500          42.300
 108460074.872 8  84514510.68747  20639199.203    20639207.145
        53.400          42.300
 108573491.290 8  84602807.65947  20660800.664    20660807.082
        51.000          42.700
 114459294.860 7  89189202.39846  21780827.680    21780840.840
        47.500          37.800
 15  3 15  0 35 30.0000000  0 10G07G16G23G27G30G09G19G04G11G01
 113469958.479 8  88418139.33946  21592584.461    21592590.117
        48.100          39.600
 123085746.812 7  95911091.36044  23422415.523    23422426.398
        44.700          27.100
 119439256.873 7  93069657.08545  22728545.047    22728553.105
        45.400          31.200
 121204160.860 7  94444985.30945  23064314.602    23064324.539
        46.800          33.200
 127703509.846 7  99509258.72944  24301167.313    24301176.781
        43.200          25.400
 119910298.595 7  93436684.08845  22818160.789    22818170.434
        43.600          32.300
 111174020.612 8  86629250.09846  21155647.766    21155651.371
        49.300          41.600
 108412138.237 8  84477157.60147  20630076.758    20630084.758
        53.000          42.500
 108518921.590 8  84560285.89647  20650416.508    20650422.398
        50.200          42.600
 114371021.925 8  89120418.54946  21764029.422    21764042.699
        48.000          37.200
 15  3 15  0 36  0.0000000  0 10G07G16G23G27G30G09G19G04G11G01
 113387516.002 8  88353898.47046  21576896.273    21576901.988
        48.900          39.800
 123114908.075 7  95933814.20644  23427965.344    23427976.805
        45.100          28.100
 119510052.262 7  93124822.18245  22742017.219    22742025.512
        45.900          31.400
 121285934.674 7  94508705.10445  23079875.055    23079884.758
        46.700          32.800
 127601666.310 7  99429900.18544  24281786.828    24281796.883
        42.700          25.800
 119949960.352 7  93467589.30945  22825708.242    22825718.355
        43.200          32.600
 111238126.502 8  86679202.72647  21167847.203    21167850.867
        49.900          42.400
 108364713.460 8  84440203.36847  20621051.945    20621060.238
        53.500          42.600
 108464832.305 8  84518138.48947  20640123.711    20640130.246
        50.500          43.200
 114283036.721 7  89051858.89846  21747286.414    21747299.457
        47.600          37.600
 15  3 15  0 36 30.0000000  0 10G07G16G23G27G30G09G19G04G11G01
 113305388.993 8  88289903.43046  21561267.914    21561273.746
        49.100          39.500
 123144111.017 7  95956569.52044  23433522.008    23433533.352
        44.300          28.000
 119580952.313 7  93180068.82845  22755509.352    22755517.117
        45.700          30.800
 121367683.518 7  94572405.44645  23095430.945    23095441.586
        45.600          32.200
 127499879.258 7  99350585.63844  24262416.648    24262427.113
        42.400          26.400
 119989914.593 7  93498722.45145  22833311.555    22833320.844
        44.300          33.500
 111302468.215 8  86729339.10447  21180090.883    21180094.664
        49.600          42.100
 108317803.396 8  84403650.19747  20612124.844    20612133.195
        53.000          42.400
 108411225.852 8  84476367.30947  20629922.359    20629928.895
        50.500          42.700
 114195343.023 7  88983526.40346  21730598.445    21730612.191
        46.800          37.900
 15  3 15  0 37  0.0000000  0 10G07G16G23G27G30G09G19G04G11G01
 113223579.651 8  88226155.92946  21545700.984    21545706.172
        49.900          40.200
 123173356.312 7  95979357.84644  23439087.625    23439098.969
        45.000          27.700
 119651953.381 7  93235394.19945  22769020.727    22769027.906
        45.400          30.000
 121449405.022 7  94636084.47845  23110983.734    23110992.848
        46.100          32.500
 127398150.609 7  99271316.62344  24243059.445    24243068.914
        43.000          24.400
 120030158.117 7  93530081.01745  22840968.969    22840979.199
        43.400          32.700
 111367041.919 8  86779656.26746  21192378.375    21192382.859
        49.500          41.900
 108271409.758 8  84367499.44247  20603296.641    20603304.934
        53.200          42.700
 108358102.938 8  84434972.92547  20619813.688    20619819.402
        50.200          42.500
 114107943.224 7  88915422.91846  21713966.922    21713980.082
        47.600          38.000
 15  3 15  0 37 30.0000000  0 10G07G16G23G27G30G09G19G04G11G01
 113142091.075 8  88162658.37446  21530193.859    21530198.871
        49.100          39.800
 123202645.265 7  96002180.19544  23444661.172    23444672.457
        44.100          28.600
 119723052.669 7  93290796.11045  22782550.914    22782558.270
        45.400          30.700
 121531097.469 7  94699740.88845  23126528.328    23126537.797
        46.400          32.100
 127296482.718 7  99192094.96544  24223713.148    24223722.676
        42.000          25.300
 120070688.333 7  93561662.97345  22848681.836    22848691.422
        44.100          32.700
 111431845.147 8  86830152.28446  21204709.703    21204714.246
        49.600          41.800
 108225534.526 8  84331752.64047  20594566.844    20594575.195
        53.200          43.000
 108305465.185 8  84393956.57347  20609796.672    20609802.621
        50.000          42.600
 114020840.366 8  88847550.81146  21697391.805    21697405.434
        48.700          38.200
 15  3 15  0 38  0.0000000  0 10G07G16G23G27G30G09G19G04G11G01
 113060926.262 8  88099413.10046  21514747.953    21514753.492
        48.400          39.200
 123231979.041 7  96025037.46944  23450243.242    23450255.172
        44.100          27.800
 119794246.951 7  93346272.05644  22796098.422    22796105.953
        44.900          29.300
 121612759.218 7  94763373.36245  23142068.773    23142077.711
        46.100          31.600
 127194877.989 7  99112922.53644  24204379.813    24204387.051
        42.000          24.500
 120111502.434 7  93593466.14845  22856448.258    22856459.074
        43.800          33.600
 111496874.926 8  86880824.82747  21217085.188    21217088.734
        49.800          42.000
 108180180.015 8  84296411.59647  20585935.914    20585944.383
        53.500          42.700
 108253314.367 8  84353319.66347  20599873.023    20599878.680
        50.300          43.300
 113934037.405 8  88779912.39846  21680872.891    21680885.465
        48.200          37.400
 15  3 15  0 38 30.0000000  0 10G07G16G23G27G30G09G19G04G11G01
 112980088.392 8  88036422.58546  21499365.711    21499370.547
        49.100          40.100
 123261358.790 7  96047930.54944  23455833.477    23455846.402
        44.700          27.600
 119865533.533 7  93401819.90544  22809662.844    22809671.547
        43.900          28.600
 121694388.838 7  94826980.80845  23157601.734    23157611.262
        46.000          31.100
 127093339.087 6  99033801.40643  24185055.867    24185065.156
        40.500          22.900
 120152598.172 7  93625488.77945  22864268.391    22864279.266
        43.200          33.300
 111562129.140 8  86931672.25247  21229503.117    21229506.488
        49.900          42.600
 108135348.814 9  84261478.31047  20577404.672    20577412.848
        54.400          42.800
 108201652.465 8  84313063.71947  20590041.852    20590047.508
        50.400          43.000
 113847537.694 8  88712510.27446  21664413.148    21664425.781
        49.200          38.600
 15  3 15  0 39  0.0000000  0 10G07G16G23G27G30G09G19G04G11G01
 112899580.504 8  87973689.20046  21484045.695    21484050.238
        50.600          40.500
 123290785.641 7  96070860.33444  23461433.961    23461446.066
        44.700          27.500
 119936909.464 7  93457437.36744  22823245.297    22823254.410
        44.300          27.600
 121775984.520 7  94890561.82045  23173129.523    23173138.754
        46.900          32.200
 126991868.318 6  98954733.36243  24165748.195    24165755.551
        40.900          22.900
 120193972.752 7  93657728.66845  22872141.359    22872152.293
        42.900          32.400
 111627604.879 8  86982692.28646  21241962.492    21241966.449
        49.800          41.700
 108091042.511 9  84226954.04047  20568973.539    20568981.656
        54.600          43.000
 108150481.129 8  84273190.02947  20580304.172    20580310.004
        51.400          42.800
 113761344.182 8  88645346.74046  21648010.953    21648023.527
        48.600          38.100
 15  3 15  0 39 30.0000000  0 10G07G16G23G27G30G09G19G04G11G01
 112819404.865 8  87911214.72046  21468788.375    21468793.680
        49.300          40.400
 123320260.518 7  96093827.56444  23467042.969    23467055.250
        45.900          27.600
 120008371.139 7  93513121.67044  22836845.516    22836853.047
        45.200          28.800
 121857544.359 7  94954114.87745  23188649.695    23188659.281
        46.800          32.000
 126890468.019 6  98875720.21643  24146452.203    24146460.027
        40.000          22.600
 120235623.220 7  93690183.55445  22880068.141    22880078.371
        43.500          33.400
 111693299.235 8  87033882.68147  21254463.625    21254467.934
        50.800          42.500
 108047263.094 9  84192840.32547  20560642.375    20560651.020
        54.500          43.000
 108099801.319 8  84233699.35647  20570659.680    20570665.980
        50.800          42.600
 113675459.564 8  88578423.90446  21631667.430    21631680.063
        49.500          38.900
 15  3 15  0 40  0.0000000  0 10G07G16G23G27G30G09G19G04G11G01
 112739564.795 8  87849001.71546  21453595.344    21453600.707
        50.400          40.000
 123349785.184 7  96116833.59044  23472661.414    23472673.461
        45.800          27.800
 120079915.914 7  93568870.70944  22850459.484    22850467.777
        45.500          29.300
 121939066.945 7  95017638.90145  23204163.961    23204173.016
        46.000          32.400
 126789140.828 6  98796764.04243  24127169.297    24127177.121
        39.400          22.300
 120277547.148 7  93722851.53745  22888046.039    22888055.801
        45.100          32.900
 111759209.900 8  87085241.62847  21267005.516    21267010.176
        50.700          42.000
 108004013.053 9  84159139.11647  20552412.336    20552420.453
        54.200          43.100
 108049615.018 8  84194593.23447  20561109.711    20561115.777
        51.500          43.300
 113589887.074 8  88511744.28846  21615383.234    21615395.574
        49.500          38.500
 15  3 15  0 40 30.0000000  0 10G07G16G23G27G30G09G19G04G11G01
 112660063.338 8  87787052.56046  21438466.500    21438472.332
        50.200          39.900
 123379360.735 7  96139879.23344  23478288.789    23478301.832
        45.100          26.600
 120151541.212 7  93624682.47044  22864089.758    22864097.875
        45.800          29.600
 122020550.852 7  95081132.80345  23219669.313    23219678.133
        45.400          32.100
 126687889.329 6  98717866.82244  24107902.828    24107910.242
        41.000          24.300
 120319741.953 7  93755730.57145  22896074.922    22896085.680
        43.700          33.000
 111825334.239 8  87136767.07046  21279588.867    21279593.410
        51.600          41.900
 107961294.474 9  84125852.02047  20544282.867    20544291.336
        55.000          42.600
 107999923.948 8  84155872.99747  20551654.297    20551659.719
        52.100          43.700
 113504629.933 8  88445310.39546  21599159.016    21599171.180
        49.100          39.000
 15  3 15  0 41  0.0000000  0 10G07G16G23G27G30G09G19G04G11G01
 112580903.508 8  87725369.60146  21423403.016    21423408.379
        50.200          40.100
 123408988.031 7  96162965.22244  23483927.797    23483940.195
        45.700          27.000
 120223243.650 7  93680554.36244  22877733.945    22877742.707
        46.500          28.900
 122101994.155 7  95144595.06345  23235166.023    23235176.781
        44.100          32.000
 126586715.802 6  98639030.38843  24088649.164    24088657.281
        41.700          22.000
 120362204.828 7  93788818.50145  22904155.859    22904166.441
        43.700          33.800
 111891669.224 8  87188456.65347  21292212.672    21292216.629
        51.900          42.000
 107919108.967 9  84092980.31047  20536255.469    20536263.117
        54.900          43.000
 107950729.015 8  84117539.37047  20542292.367    20542298.434
        52.300          42.600
 113419690.872 8  88379124.35446  21582995.844    21583007.656
        49.700          38.300
 15  3 15  0 41 30.0000000  0 10G07G16G23G27G30G09G19G04G11G01
 112502087.954 8  87663954.92046  21408404.570    21408409.816
        50.700          40.100
 123438668.662 7  96186092.74044  23489575.445    23489587.961
        44.700          26.900
 120295020.507 7  93736484.23344  22891391.703    22891401.699
        45.800          28.900
 122183395.545 7  95208024.67545  23250656.820    23250667.754
        42.700          31.300
 126485622.981 7  98560256.82343  24069412.039    24069419.863
        42.300          22.200
 120404933.343 7  93822113.41845  22912286.852    22912296.789
        43.400          31.700
 111958212.773 8  87240308.75047  21304875.102    21304878.707
        52.400          42.400
 107877459.255 9  84060526.10247  20528329.594    20528337.301
        54.100          43.000
 107902032.320 8  84079593.97147  20533025.828    20533031.719
        52.600          43.400
 113335073.207 8  88313188.74846  21566892.727    21566906.063
        49.200          38.300
 15  3 15  0 42  0.0000000  0 10G07G16G23G27G30G09G19G04G11G01
 112423619.750 8  87602810.89746  21393472.539    21393478.371
        50.800          39.900
 123468403.354 7  96209262.39944  23495234.250    23495246.941
        45.400          26.700
 120366868.615 7  93792469.63244  22905065.195    22905073.781
        46.000          29.800
 122264753.389 7  95271420.36645  23266138.234    23266148.816
        43.100          31.400
 126384613.361 7  98481548.09144  24050190.664    24050198.547
        42.900          24.000
 120447924.663 7  93855613.12845  22920468.297    22920477.410
        44.600          32.600
 112024962.093 8  87292321.18046  21317576.867    21317580.766
        51.500          41.100
 107836346.847 9  84028490.57647  20520506.211    20520513.977
        54.800          43.000
 107853835.223 8  84042037.87047  20523853.852    20523859.977
        52.800          42.800
 113250779.829 8  88247505.82946  21550852.109    21550864.742
        50.200          38.800
 15  3 15  0 42 30.0000000  0 10G07G16G23G27G30G09G19G04G11G01
 112345502.031 8  87541939.97546  21378607.625    21378612.520
        51.600          40.300
 123498193.844 7  96232475.49344  23500903.195    23500915.594
        45.200          25.700
 120438785.353 7  93848508.51244  22918750.516    22918759.629
        45.400          29.900
 122346066.057 7  95334780.84545  23281611.328    23281622.379
        42.500          31.600
 126283689.443 7  98402906.14243  24030984.164    24030992.867
        43.200          23.000
 120491176.079 7  93889315.49645  22928698.047    22928708.453
        43.700          31.400
 112091914.660 8  87344491.99646  21330317.219    21330321.000
        50.900          41.600
 107795773.801 8  83996875.33347  20512785.242    20512792.891
        53.900          42.900
 107806139.287 8  84004872.29547  20514777.500    20514783.332
        52.800          42.900
 113166813.722 8  88182077.92146  21534874.000    21534886.457
        49.900          39.000
 15  3 15  0 43  0.0000000  0 10G07G16G23G27G30G09G19G04G11G01
 112267737.485 8  87481344.25846  21363809.141    21363814.504
        50.800          40.600
 123528041.018 7  96255732.76344  23506583.172    23506596.449
        44.700          25.800
 120510767.431 7  93904598.29745  22932449.383    22932457.500
        46.000          30.200
 122427331.848 7  95398104.80345  23297076.516    23297087.273
        44.100          31.900
 126182853.578 7  98324332.79344  24011795.508    24011804.152
        42.400          24.500
 120534684.764 7  93923218.33645  22936977.164    22936987.395
        42.900          31.300
 112159067.565 8  87396818.90346  21343096.008    21343100.316
        51.700          41.500
 107755741.973 9  83965681.81547  20505167.563    20505175.094
        55.000          43.900
 107758945.640 8  83968098.11447  20505796.563    20505802.570
        52.300          43.400
 113083177.734 8  88116907.24746  21518958.320    21518970.660
        50.300          39.000
 15  3 15  0 43 30.0000000  0 10G07G16G23G27G30G09G19G04G11G01
 112190329.055 8  87421026.03846  21349078.500    21349084.273
        50.500          40.400
 123557945.900 7  96279034.98044  23512274.938    23512288.039
        44.600          28.000
 120582812.038 7  93960736.79344  22946158.359    22946166.477
        45.800          29.700
 122508549.337 7  95461391.11245  23312531.539    23312542.004
        45.200          30.500
 126082108.396 7  98245830.11343  23992624.648    23992632.883
        42.100          23.000
 120578448.141 7  93957319.64745  22945305.258    22945315.723
        43.800          31.300
 112226418.045 8  87449299.77046  21355912.578    21355916.066
        52.600          41.300
 107716253.470 9  83934911.67147  20497652.805    20497660.922
        54.400          43.400
 107712255.956 8  83931716.64647  20496912.266    20496917.512
        51.500          43.100
 112999875.005 8  88051996.24746  21503106.766    21503119.398
        51.300          39.400
 15  3 15  0 44  0.0000000  0 10G07G16G23G27G30G09G19G04G11G01
 112113279.195 8  87360987.22546  21334417.219    21334422.992
        50.500          40.800
 123587909.874 7  96302383.23344  23517976.758    23517989.156
        44.600          26.800
 120654916.034 7  94016921.56644  22959879.734    22959887.500
        45.000          29.700
 122589716.576 7  95524638.28845  23327977.242    23327987.648
        46.200          31.900
 125981456.002 7  98167399.74544  23973470.688    23973479.156
        42.900          25.900
 120622463.140 7  93991617.03045  22953681.016    22953691.305
        43.500          31.400
 112293963.035 8  87501932.21446  21368766.258    21368769.746
        52.300          41.300
 107677309.759 9  83904566.03447  20490242.078    20490249.551
        54.100          43.800
 107666071.242 8  83895728.64047  20488123.500    20488129.039
        51.600          42.400
 112916907.824 8  87987346.71646  21487317.961    21487330.301
        51.400          39.200
 15  3 15  0 44 30.0000000  0 10G07G16G23G27G30G09G19G04G11G01
 112036591.520 8  87301230.62946  21319822.898    21319829.082
        49.500          40.400
 123617934.214 7  96325778.53844  23523691.430    23523703.242
        44.900          27.300
 120727076.378 7  94073150.28345  22973611.852    22973620.027
        45.000          30.400
 122670832.457 7  95587845.42645  23343413.648    23343422.938
        44.700          31.000
 125880899.290 7  98089043.94044  23954334.820    23954343.758
        42.200          24.300
 120666727.366 7  94026108.60645  22962104.508    22962114.797
        44.500          32.400
 112361700.923 8  87554714.96146  21381656.453    21381660.293
        52.100          41.400
 107638913.176 9  83874646.73847  20482934.977    20482943.152
        54.200          43.300
 107620393.155 8  83860135.42147  20479431.391    20479436.871
        51.400          43.400
 112834279.939 8  87922961.55646  21471594.281    21471606.094
        51.600          39.200
 15  3 15  0 45  0.0000000  0 10G07G16G23G27G30G09G19G04G11G01
 111960268.330 8  87241758.05346  21305299.047    21305304.703
        50.500          40.300
 123648020.048 7  96349221.74744  23529415.383    23529428.250
        44.500          26.100
 120799290.193 7  94129420.63645  22987353.625    22987362.211
        44.400          30.200
 122751895.280 7  95651011.22445  23358839.648    23358848.762
        44.700          30.300
 125780440.644 6  98010764.57244  23935218.227    23935227.105
        40.700          26.100
 120711237.935 7  94060792.15245  22970576.000    22970584.410
        43.000          32.600
 112429628.760 8  87607645.71746  21394583.023    21394586.336
        51.500          41.300
 107601065.290 8  83845154.99647  20475732.828    20475740.594
        53.700          42.800
 107575222.972 8  83824937.96547  20470834.969    20470840.859
        51.700          43.000
 112751993.964 8  87858842.81546  21455935.547    21455947.652
        51.600          39.400
 15  3 15  0 45 30.0000000  0 10G07G16G23G27G30G09G19G04G11G01
 111884312.665 8  87182571.85446  21290845.398    21290851.172
        50.300          40.200
 123678168.526 7  96372713.78044  23535152.938    23535166.391
        45.100          26.200
 120871554.722 7  94185730.48144  23001104.594    23001114.000
        44.700          29.900
 122832903.467 7  95714134.43345  23374254.977    23374263.797
        43.400          30.700
 125680082.572 6  97932563.55644  23916120.492    23916129.605
        41.600          25.600
 120755992.117 7  94095665.50845  22979091.281    22979101.277
        43.900          32.000
 112497743.755 8  87660722.31046  21407545.203    21407548.281
        52.000          41.300
 107563768.093 8  83816092.36547  20468635.102    20468642.750
        53.500          43.500
 107530561.837 8  83790137.17247  20462336.305    20462342.313
        51.600          42.500
 112670052.834 8  87794992.78246  21440341.898    21440354.590
        51.400          39.400
 15  3 15  0 46  0.0000000  0 10G07G16G23G27G30G09G19G04G11G01
 111808727.148 8  87123674.10746  21276462.281    21276467.410
        50.100          40.700
 123708380.470 7  96396255.26044  23540902.555    23540915.070
        44.500          27.100
 120943866.571 7  94242077.22744  23014865.695    23014874.105
        43.500          29.100
 122913855.258 7  95777213.70945  23389659.344    23389668.988
        43.800          30.400
 125579827.387 6  97854442.73744  23897042.063    23897050.941
        41.300          27.100
 120800986.795 7  94130726.27345  22987653.367    22987663.363
        43.300          31.900
 112566042.709 8  87713942.25546  21420540.867    21420544.297
        51.400          40.500
 107527022.815 8  83787459.80547  20461643.016    20461650.371
        53.300          43.700
 107486410.511 8  83755733.62347  20453934.563    20453940.160
        49.900          43.300
 112588459.150 8  87731413.49746  21424815.680    21424827.844
        51.300          40.200
 15  3 15  0 46 30.0000000  0 10G07G16G23G27G30G09G19G04G11G01
 111733514.940 8  87065067.23446  21262150.313    21262155.383
        50.200          41.000
 123738657.312 7  96419847.28144  23546664.328    23546677.371
        43.800          26.800
 121016223.387 7  94298459.00444  23028634.664    23028643.074
        43.800          28.400
 122994749.308 7  95840248.00044  23405053.258    23405062.902
        43.200          29.600
 125479677.788 6  97776404.17744  23877984.750    23877993.277
        41.500          27.500
 120846219.395 7  94165972.41545  22996261.438    22996271.141
        44.500          31.900
 112634523.655 8  87767304.01046  21433572.172    21433576.656
        51.200          40.900
 107490831.568 8  83759258.95047  20454756.016    20454763.957
        53.500          43.600
 107442771.037 8  83721728.93047  20445630.461    20445636.469
        51.300          42.700
 112507216.006 8  87668107.35446  21409354.891    21409367.523
        51.000          40.000
 15  3 15  0 47  0.0000000  0 10G07G16G23G27G30G09G19G04G11G01
 111658678.850 8  87006753.44946  21247909.414    21247914.191
        51.500          41.300
 123769000.290 7  96443490.87144  23552437.977    23552451.195
        43.400          25.900
 121088621.839 7  94354873.21044  23042411.539    23042421.066
        42.400          28.400
 123075584.283 7  95903236.25245  23420435.695    23420445.633
        43.800          31.100
 125379636.475 6  97698449.99544  23858947.328    23858956.031
        40.800          25.800
 120891687.387 7  94201401.99345  23004912.531    23004923.465
        43.100          31.000
 112703183.995 8  87820805.56346  21446638.125    21446642.434
        50.100          40.900
 107455196.131 8  83731491.20147  20447974.414    20447982.590
        53.900          43.200
 107399644.816 8  83688124.17247  20437423.477    20437429.543
        50.900          43.100
 112426326.525 8  87605076.78246  21393962.109    21393973.980
        50.100          39.500
 15  3 15  0 47 30.0000000  0 10G07G16G23G27G30G09G19G04G11G01
 111584222.116 8  86948735.24746  21233739.867    21233745.172
        49.600          40.300
 123799410.710 7  96467186.98944  23558225.680    23558238.371
        44.500          27.600
 121161059.163 7  94411317.69744  23056196.367    23056205.363
        44.400          29.700
 123156358.999 7  95966177.55844  23435806.602    23435816.129
        43.200          29.400
 125279706.262 6  97620582.38744  23839932.211    23839940.152
        40.700          25.700
 120937388.212 7  94237012.98845  23013610.070    23013620.711
        43.200          32.200
 112772021.332 8  87874445.02346  21459737.367    21459741.617
        51.200          40.800
 107420118.804 8  83704158.33947  20441299.242    20441307.359
        53.800          43.300
 107357033.194 8  83654920.38647  20429314.938    20429320.652
        49.700          43.600
 112345793.831 8  87542324.23946  21378637.055    21378649.160
        50.900          39.400
 15  3 15  0 48  0.0000000  0 10G07G16G23G27G30G09G19G04G11G01
 111510146.844 8  86891014.28846  21219644.039    21219648.934
        49.500          40.500
 123829889.514 7  96490936.39544  23564025.531    23564038.809
        43.000          27.400
 121233532.566 7  94467790.29744  23069986.063    23069996.996
        42.000          28.900
 123237071.406 7  96029070.29245  23451165.867    23451175.215
        43.400          30.200
 125179889.157 6  97542802.94344  23820936.648    23820945.527
        40.200          27.000
 120983318.530 7  94272802.80845  23022349.227    23022359.750
        43.500          30.600
 112841032.683 8  87928220.09346  21472870.031    21472874.047
        50.200          41.000
 107385600.525 8  83677261.09947  20434730.875    20434739.168
        51.100          43.500
 107314936.670 8  83622117.98247  20421303.734    20421309.508
        49.200          43.400
 112265620.261 8  87479851.51246  21363380.500    21363392.840
        50.300          40.300
 15  3 15  0 48 30.0000000  0 10G07G16G23G27G30G09G19G04G11G01
 111436456.366 8  86833593.17646  21205621.891    21205626.082
        50.300          41.500
 123860438.090 7  96514740.17644  23569838.570    23569852.902
        43.600          27.000
 121306039.000 7  94524288.61744  23083785.156    23083794.918
        42.600          29.900
 123317720.214 7  96091913.49544  23466512.359    23466521.590
        42.000          29.700
 125080187.894 6  97465113.74144  23801963.586    23801972.875
        39.700          25.600
 121029475.774 7  94308769.46545  23031132.914    23031143.555
        43.300          30.500
 112910215.533 8  87982128.80046  21486034.648    21486038.898
        49.500          40.600
 107351643.001 8  83650800.81447  20428268.359    20428276.477
        52.500          43.300
 107273356.606 8  83589718.01947  20413391.906    20413397.504
        49.600          43.600
 112185808.852 8  87417660.99046  21348193.008    21348204.938
        49.900          40.300
 15  3 15  0 49  0.0000000  0 10G07G16G23G27G30G09G19G04G11G01
 111363153.201 8  86776473.87546  21191672.531    21191677.484
        50.500          41.500
 123891057.445 7  96538599.09044  23575665.961    23575679.766
        43.000          25.800
 121378575.483 7  94580810.36244  23097588.750    23097597.805
        44.300          29.900
 123398303.878 7  96154705.93444  23481847.094    23481855.973
        43.600          28.900
 124980604.882 6  97387516.67244  23783013.688    23783022.391
        40.700          25.100
 121075857.054 7  94344910.67145  23039958.820    23039969.051
        43.700          31.500
 112979567.475 8  88036169.26146  21499232.391    21499236.406
        51.200          40.900
 107318247.930 8  83624778.80447  20421913.844    20421921.375
        53.100          43.100
 107232294.098 8  83557721.35047  20405578.219    20405583.934
        49.900          43.300
 112106362.388 8  87355754.83846  21333075.125    21333086.703
        50.400          40.400
 15  3 15  0 49 30.0000000  0 10G07G16G23G27G30G09G19G04G11G01
 111290240.447 8  86719658.78746  21177797.734    21177802.453
        50.500          40.900
 123921748.948 7  96562514.23144  23581507.234    23581519.926
        42.800          26.900
 121451139.316 7  94637353.38444  23111396.813    23111405.223
        45.900          27.800
 123478821.285 7  96217446.74644  23497168.727    23497177.840
        43.200          29.100
 124881143.046 6  97310014.04344  23764086.914    23764096.027
        41.600          24.900
 121122459.792 7  94381224.46045  23048828.078    23048838.191
        42.600          30.600
 113049085.800 8  88090339.38246  21512461.734    21512465.105
        50.300          40.900
 107285417.413 8  83599196.70247  20415666.273    20415673.922
        53.400          43.300
 107191750.934 8  83526129.35247  20397862.422    20397868.078
        49.400          43.500
 112027284.067 8  87294135.55946  21318026.773    21318038.527
        49.800          40.500
 15  3 15  0 50  0.0000000  0 10G07G16G23G27G30G09G19G04G11G01
 111217720.661 8  86663149.90146  21163996.891    21164002.313
        50.000          41.100
 123952513.653 7  96586486.41144  23587362.398    23587375.148
        42.700          27.800
 121523727.499 7  94693915.37844  23125210.672    23125219.551
        44.100          29.600
 123559270.889 7  96280134.70844  23512477.461    23512486.691
        42.300          29.500
 124781804.787 7  97232607.69244  23745184.180    23745192.297
        42.000          26.900
 121169281.111 7  94417708.56645  23057738.484    23057748.012
        44.200          31.700
 113118767.853 8  88144637.08146  21525721.281    21525725.004
        48.800          40.700
 107253152.732 8  83574055.50447  20409526.750    20409534.223
        53.600          43.400
 107151727.880 8  83494942.64647  20390246.469    20390251.949
        50.300          43.800
 111948576.502 8  87232805.18246  21303048.766    21303060.695
        50.000          40.800
 15  3 15  0 50 30.0000000  0 10G07G16G23G27G30G09G19G04G11G01
 111145596.613 8  86606949.37146  21150272.414    21150277.602
        50.900          41.100
 123983352.670 7  96610516.50744  23593229.961    23593243.414
        43.000          27.200
 121596336.912 7  94750493.91445  23139027.461    23139036.988
        45.900          30.000
 123639650.897 7  96342768.44944  23527774.070    23527783.477
        44.200          29.900
 124682592.357 7  97155299.39544  23726304.344    23726312.227
        42.600          25.900
 121216317.890 7  94454360.57545  23066688.828    23066698.297
        45.700          32.200
 113188610.957 8  88199060.26746  21539012.172    21539015.543
        50.100          40.500
 107221454.965 8  83549356.06247  20403494.195    20403501.785
        53.100          43.900
 107112225.184 8  83464161.40947  20382729.000    20382734.832
        50.700          43.200
 111870242.228 8  87171765.68446  21288141.938    21288153.457
        49.700          40.600
 15  3 15  0 51  0.0000000  0 10G07G16G23G27G30G09G19G04G11G01
 111073871.749 8  86551059.91246  21136623.609    21136629.207
        49.100          41.100
 124014267.209 7  96634605.43644  23599112.906    23599125.832
        42.500          26.800
 121668965.075 7  94807087.05845  23152848.766    23152858.352
        47.800          30.200
 123719960.423 7  96405347.28144  23543056.344    23543065.988
        42.600          29.600
 124583508.868 7  97078091.56244  23707448.945    23707456.711
        42.600          25.800
 121263567.778 7  94491178.63345  23075680.008    23075689.711
        44.800          31.400
 113258612.931 8  88253607.25046  21552333.398    21552336.945
        51.100          40.600
 107190326.376 8  83525100.12947  20397570.836    20397578.133
        53.200          43.600
 107073244.794 8  83433787.16247  20375311.406    20375316.652
        49.600          42.800
 111792284.599 8  87111019.66746  21273307.195    21273318.656
        50.300          40.500
 15  3 15  0 51 30.0000000  0 10G07G16G23G27G30G09G19G04G11G01
 111002547.895 8  86495482.91846  21123051.016    21123056.730
        50.000          41.100
 124045258.859 7  96658754.44344  23605010.625    23605024.723
        42.900          26.200
 121741608.736 7  94863692.29944  23166672.156    23166681.445
        44.300          29.600
 123800197.835 7  96467869.90244  23558325.539    23558335.242
        42.000          29.900
 124484556.584 7  97000985.99144  23688618.766    23688626.883
        42.100          24.800
 121311027.686 7  94528160.33945  23084711.500    23084721.555
        44.100          30.700
 113328771.036 8  88308275.90346  21565683.641    21565688.418
        48.600          40.400
 107159768.080 8  83501288.57747  20391755.555    20391763.379
        53.900          43.100
 107034787.810 8  83403820.75447  20367993.141    20367998.855
        50.000          43.600
 111714706.165 8  87050569.13346  21258544.531    21258555.816
        50.300          40.900
 15  3 15  0 52  0.0000000  0 10G07G16G23G27G30G09G19G04G11G01
 110931628.471 8  86440221.06746  21109555.492    21109560.504
        50.500          41.400
 124076328.702 7  96682964.36044  23610924.227    23610937.797
        42.500          25.800
 121814265.525 7  94920307.74944  23180498.148    23180507.555
        46.800          28.500
 123880361.902 6  96530335.36844  23573579.266    23573589.379
        41.400          29.400
 124385738.367 6  96923984.86744  23669814.273    23669822.273
        41.600          25.300
 121358695.079 7  94565303.73145  23093782.953    23093792.301
        44.700          31.700
 113399082.883 8  88363064.34546  21579063.477    21579067.902
        50.800          40.700
 107129781.809 9  83477922.76247  20386049.391    20386057.449
        54.100          43.600
 106996855.554 8  83374263.23147  20360775.125    20360780.547
        50.500          43.000
 111637509.876 8  86990416.36646  21243854.180    21243865.934
        51.100          40.600
 15  3 15  0 52 30.0000000  0 10G07G16G23G27G30G09G19G04G11G01
 110861116.266 8  86385276.53746  21096137.453    21096142.348
        50.900          41.400
 124107477.817 7  96707236.03344  23616851.242    23616865.164
        43.600          24.500
 121886932.729 7  94976931.33144  23194326.984    23194336.273
        43.900          28.400
 123960451.428 7  96592742.75645  23588819.555    23588829.668
        42.300          30.600
 124287056.942 6  96847090.34144  23651036.273    23651043.863
        41.400          26.500
 121406567.183 7  94602606.62445  23102892.547    23102902.895
        43.700          30.900
 113469546.330 7  88417970.91746  21592471.328    21592476.340
        47.900          40.500
 107100369.290 9  83455004.03147  20380452.500    20380460.090
        54.600          43.600
 106959448.936 8  83345115.30147  20353656.461    20353662.234
        49.900          42.900
 111560698.677 8  86930563.66746  21229237.609    21229248.426
        50.600          41.100
 15  3 15  0 53  0.0000000  0 10G07G16G23G27G30G09G19G04G11G01
 110791014.012 8  86330651.45446  21082797.570    21082802.934
        50.400          41.800
 124138707.195 7  96731570.27444  23622795.125    23622808.520
        44.000          25.900
 121959607.145 7  95033560.50944  23208156.625    23208165.855
        45.200          28.100
 124040464.719 6  96655090.76444  23604046.367    23604055.480
        41.900          29.300
 124188514.618 7  96770304.20344  23632284.555    23632291.617
        42.200          26.400
 121454641.004 7  94640066.71345  23112040.586    23112050.113
        44.100          30.800
 113540158.095 8  88472993.06346  21605908.930    21605913.766
        49.000          40.500
 107071531.531 9  83432533.15347  20374965.148    20374971.977
        54.400          43.800
 106922568.544 8  83316377.40547  20346638.531    20346643.602
        49.900          43.900
 111484275.100 8  86871013.00846  21214694.742    21214706.320
        51.100          41.800
 15  3 15  0 53 30.0000000  0 10G07G16G23G27G30G09G19G04G11G01
 110721324.288 8  86276347.81646  21069535.453    21069541.285
        51.900          41.100
 124170018.342 6  96755968.23344  23628752.773    23628766.402
        41.500          25.300
 122032286.015 7  95090193.13544  23221987.188    23221996.125
        45.100          28.200
 124120400.644 7  96717378.46244  23619257.711    23619267.297
        43.200          28.600
 124090114.166 6  96693628.61244  23613558.906    23613566.555
        41.600          25.400
 121502913.788 7  94677681.81744  23121226.094    23121236.969
        43.400          29.700
 113610916.099 8  88528129.16546  21619374.047    21619378.648
        49.300          39.800
 107043269.976 9  83410511.26347  20369586.469    20369593.648
        54.300          43.900
 106886215.539 8  83288050.46847  20339720.375    20339725.855
        51.100          43.500
 111408242.016 8  86811766.63046  21200225.883    21200236.934
        50.400          41.600
 15  3 15  0 54  0.0000000  0 10G07G16G23G27G30G09G19G04G11G01
 110652049.880 8  86222367.80646  21056352.969    21056358.684
        50.500          41.600
 124201412.180 7  96780430.63044  23634727.758    23634741.152
        42.700          25.500
 122104966.447 7  95146826.96044  23235817.727    23235827.254
        45.400          27.800
 124200257.841 7  96779604.83245  23634454.617    23634464.965
        43.500          30.300
 123991858.139 7  96617065.59944  23594861.023    23594869.785
        42.000          26.400
 121551382.759 7  94715449.80445  23130450.352    23130459.230
        43.300          30.400
 113681817.689 8  88583377.14746  21632866.031    21632869.988
        49.800          40.600
 107015586.136 9  83388939.53947  20364318.727    20364326.082
        54.100          43.600
 106850390.905 8  83260135.24747  20332903.273    20332908.930
        51.000          43.100
 111332602.193 8  86752826.69946  21185831.461    21185842.512
        51.200          40.600
 15  3 15  0 54 30.0000000  0 10G07G16G23G27G30G09G19G04G11G01
 110583193.741 8  86168713.72646  21043250.695    21043256.059
        50.800          41.300
 124232890.272 6  96804958.69344  23640717.422    23640731.695
        41.600          25.100
 122177645.724 7  95203459.88244  23249648.609    23249657.723
        45.400          28.500
 124280035.074 7  96841768.88744  23649634.867    23649644.805
        42.600          29.800
 123893749.244 6  96540617.21444  23576191.430    23576200.250
        41.900          26.300
 121600045.005 7  94753368.41744  23139708.969    23139719.199
        42.200          29.400
 113752860.429 8  88638735.12146  21646385.109    21646389.066
        50.900          40.200
 106988481.608 9  83367819.22747  20359160.297    20359167.945
        54.500          44.100
 106815095.575 8  83232632.47747  20326186.695    20326192.176
        50.300          43.900
 111257358.509 8  86694195.43346  21171513.320    21171524.254
        51.900          41.200
 15  3 15  0 55  0.0000000  0 10G07G16G23G27G30G09G19G04G11G01
 110514758.641 8  86115387.71446  21030227.391    21030233.164
        51.700          41.400
 124264453.881 7  96829553.39544  23646724.008    23646738.516
        42.600          27.600
 122250321.066 7  95260089.73744  23263478.031    23263487.793
        43.700          27.400
 124359730.988 7  96903869.60244  23664799.500    23664810.902
        42.200          27.900
 123795790.045 6  96464285.49944  23557550.344    23557558.871
        41.600          25.700
 121648897.804 7  94791435.48844  23149005.750    23149015.863
        42.500          29.100
 113824041.988 8  88694201.26646  21659931.023    21659934.805
        49.300          40.200
 106961957.394 8  83347151.11347  20354112.875    20354120.465
        53.400          44.100
 106780330.535 8  83205542.90247  20319571.500    20319576.102
        51.300          43.600
 111182513.581 8  86635874.89246  21157270.672    21157281.781
        51.600          41.100
 15  3 15  0 55 30.0000000  0 10G07G16G23G27G30G09G19G04G11G01
 110446747.135 8  86062391.78646  21017285.273    21017291.047
        50.900          41.700
 124296103.975 7  96854215.48244  23652747.008    23652761.691
        42.100          26.700
 122322989.784 7  95316714.41744  23277306.852    23277316.379
        43.900          26.000
 124439344.176 7  96965905.84444  23679950.297    23679961.172
        43.100          29.400
 123697983.111 6  96388072.43144  23538938.461    23538946.754
        40.700          26.200
 121697938.196 7  94829648.75645  23158338.227    23158347.574
        42.300          30.100
 113895359.586 8  88749773.40346  21673501.859    21673505.875
        50.900          39.900
 106936014.887 9  83326936.27547  20349176.359    20349183.832
        54.100          43.900
 106746096.605 8  83178867.19047  20313056.508    20313061.637
        51.200          43.400
 111108070.096 8  86577867.15646  21143104.141    21143115.309
        51.200          41.400
 15  3 15  0 56  0.0000000  0 10G07G16G23G27G30G09G19G04G11G01
 110379161.594 8  86009727.77146  21004424.297    21004429.484
        51.300          41.200
 124327841.620 7  96878945.80344  23658786.977    23658800.723
        42.100          26.000
 122395648.853 7  95373331.59444  23291133.992    23291143.578
        44.300          27.100
 124518873.440 7  97027876.68544  23695084.031    23695094.379
        42.700          28.900
 123600331.155 7  96311980.10344  23520355.469    23520363.820
        43.100          26.900
 121747163.378 7  94868006.00545  23167705.203    23167715.375
        42.700          30.300
 113966810.868 8  88805449.71046  21687098.602    21687102.500
        50.200          40.300
 106910655.396 9  83307175.72647  20344350.492    20344357.730
        54.400          44.000
 106712394.411 8  83152605.81847  20306643.211    20306648.633
        49.700          43.400
 111034030.814 8  86520174.39146  21129015.102    21129025.918
        52.600          41.400
 15  3 15  0 56 30.0000000  0 10G07G16G23G27G30G09G19G04G11G01
 110312005.418 8  85957398.32047  20991645.328    20991649.871
        51.200          42.600
 124359667.980 7  96903745.27344  23664843.891    23664857.461
        42.100          26.500
 122468295.513 7  95429939.09544  23304958.813    23304967.691
        46.100          27.200
 124598317.616 7  97089781.25544  23710201.453    23710211.918
        42.200          28.100
 123502836.898 7  96236010.64944  23501802.680    23501811.617
        43.800          27.100
 121796570.613 7  94906505.13145  23177107.492    23177117.254
        43.100          30.000
 114038393.701 8  88861228.52546  21700720.523    21700724.070
        51.300          40.100
 106885880.377 8  83287870.60647  20339636.070    20339643.133
        53.800          43.800
 106679225.062 8  83126759.64547  20300331.594    20300336.078
        50.200          43.600
 110960398.567 8  86462798.78446  21115003.086    21115014.313
        52.000          41.400
 15  3 15  0 57  0.0000000  0 10G07G16G23G27G30G09G19G04G11G01
 110245280.863 8  85905405.21546  20978947.711    20978952.605
        51.500          41.900
 124391584.290 7  96928614.81144  23670917.273    23670932.016
        43.400          27.000
 122540927.200 7  95486534.91544  23318779.445    23318789.852
        45.800          27.700
 124677675.442 7  97151618.52445  23725303.180    23725312.941
        42.800          30.000
 123405502.972 7  96160166.13944  23483280.789    23483289.082
        43.200          28.200
 121846157.163 7  94945143.95344  23186544.133    23186553.539
        42.700          29.800
 114110105.265 8  88917107.65846  21714366.102    21714370.996
        50.900          39.500
 106861690.818 9  83269021.69647  20335032.703    20335040.117
        54.600          44.200
 106646589.667 8  83101329.53347  20294121.063    20294125.898
        49.300          43.500
 110887176.042 8  86405742.44046  21101068.914    21101080.375
        51.900          40.900
 15  3 15  0 57 30.0000000  0 10G07G16G23G27G30G09G19G04G11G01
 110178991.003 8  85853750.81847  20966333.242    20966338.137
        52.300          42.200
 124423591.955 7  96953555.53844  23677007.750    23677023.137
        42.800          25.800
 122613540.954 7  95543116.76344  23332597.906    23332608.137
        45.000          25.900
 124756945.544 7  97213387.44744  23740388.070    23740398.652
        43.200          29.800
 123308331.896 7  96084448.51744  23464789.453    23464798.801
        43.000          27.900
 121895919.926 7  94983920.11644  23196013.953    23196022.949
        42.600          29.900
 114181943.288 8  88973085.32346  21728036.766    21728041.133
        51.400          39.900
 106838087.931 9  83250629.92847  20330540.867    20330548.223
        55.300          44.400
 106614488.456 8  83076315.68347  20288012.633    20288017.059
        51.300          43.300
 110814365.728 8  86349007.30346  21087214.109    21087224.457
        52.500          41.400
 15  3 15  0 58  0.0000000  0 10G07G16G23G27G30G09G19G04G11G01
 110113138.071 8  85802436.88446  20953801.734    20953806.512
        52.700          41.800
 124455692.049 7  96978568.29944  23683117.617    23683131.246
        42.300          24.300
 122686134.170 7  95599682.56144  23346412.398    23346423.098
        45.400          26.000
 124836126.741 7  97275087.08344  23755455.477    23755465.707
        43.400          28.400
 123211326.341 7  96008859.87344  23446329.031    23446338.676
        42.500          27.000
 121945856.185 7  95022831.44245  23205515.992    23205525.754
        43.800          30.700
 114253905.170 8  89029159.50346  21741730.758    21741734.891
        50.700          39.800
 106815073.009 9  83232696.31947  20326161.406    20326168.586
        55.400          44.000
 106582922.407 8  83051718.82847  20282005.070    20282010.316
        51.100          43.400
 110741970.399 8  86292595.51446  21073437.266    21073448.199
        52.500          41.600
 15  3 15  0 58 30.0000000  0 10G07G16G23G27G30G09G19G04G11G01
 110047724.719 8  85751465.48047  20941354.492    20941359.035
        52.400          42.300
 124487885.906 7  97003654.08744  23689243.578    23689258.496
        43.600          25.900
 122758703.963 7  95656230.09944  23360222.141    23360231.961
        44.300          24.800
 124915217.926 7  97336716.56344  23770506.359    23770516.063
        43.900          27.400
 123114489.123 7  95933402.40244  23427901.883    23427910.410
        42.300          27.200
 121995963.235 7  95061875.88145  23215051.102    23215060.863
        42.800          30.200
 114325988.633 8  89085328.41446  21755447.422    21755452.258
        50.500          39.200
 106792647.314 9  83215221.84347  20321893.758    20321900.410
        55.000          44.100
 106551892.401 8  83027539.67247  20276100.172    20276105.652
        49.800          43.300
 110669992.866 8  86236509.29047  21059740.508    21059751.148
        53.000          42.000
 15  3 15  0 59  0.0000000  0 10G07G16G23G27G30G09G19G04G11G01
 109982753.783 8  85700838.80546  20928990.008    20928995.781
        52.400          41.600
 124520174.387 7  97028813.64144  23695388.672    23695402.711
        42.700          27.700
 122831247.649 7  95712757.29444  23374027.430    23374036.836
        44.600          25.800
 124994217.672 7  97398274.80944  23785538.398    23785549.273
        43.700          27.300
 123017822.745 6  95858078.06044  23409506.547    23409515.426
        41.700          27.500
 122046238.034 7  95101051.00844  23224616.164    23224627.801
        42.200          28.800
 114398191.048 8  89141590.01646  21769187.445    21769191.988
        50.500          39.300
 106770811.719 9  83198207.17747  20317738.438    20317745.676
        54.700          43.700
 106521398.927 8  83003778.58147  20270297.539    20270302.434
        50.800          43.400
 110598435.575 8  86180750.51946  21046123.063    21046133.762
        52.900          41.700
 15  3 15  0 59 30.0000000  0 10G07G16G23G27G30G09G19G04G11G01
 109918228.008 8  85650559.02146  20916712.063    20916716.664
        52.400          41.800
 124552558.947 7  97054048.01344  23701550.242    23701566.332
        42.500          26.400
 122903762.690 7  95769262.12744  23387825.945    23387836.410
        43.000          26.900
 125073125.171 7  97459761.18244  23800554.055    23800563.758
        43.900          26.500
 122921330.080 7  95782889.06344  23391145.945    23391153.301
        43.200          28.300
 122096677.923 7  95140354.78245  23234215.336    23234226.211
        42.700          30.200
 114470510.169 8  89197942.56646  21782949.516    21782953.590
        49.300          39.800
 106749567.733 8  83181653.51447  20313695.844    20313702.613
        52.800          44.600
 106491442.949 8  82980436.32347  20264596.906    20264602.094
        49.500          43.700
 110527301.383 8  86125321.43347  21032586.586    21032597.168
        52.800          42.100
 15  3 15  1  0  0.0000000  0 10G07G16G23G27G30G09G19G04G11G01
 109854149.669 8  85600627.88847  20904518.133    20904522.793
        52.400          42.300
 124585040.586 7  97079358.05744  23707731.828    23707746.746
        42.900          27.200
 122976246.034 7  95825742.31144  23401619.906    23401630.664
        42.200          27.100
 125151938.810 7  97521174.42844  23815552.602    23815562.422
        43.700          27.000
 122825013.430 7  95707837.24344  23372817.531    23372825.004
        43.800          27.900
 122147279.895 7  95179784.85445  23243845.219    23243855.625
        43.600          31.200
 114542943.693 8  89254384.25646  21796733.438    21796737.512
        48.300          39.700
 106728915.930 8  83165561.29647  20309765.852    20309772.855
        53.000          44.300
 106462024.744 8  82957513.10847  20258999.023    20259004.504
        50.900          43.200
 110456592.575 8  86070223.81847  21019130.797    21019142.316
        52.100          42.100
 15  3 15  1  0 30.0000000  0 10G07G16G23G27G30G09G19G04G11G01
 109790521.713 8  85551047.70946  20892410.094    20892414.578
        52.700          41.800
 124617620.644 7  97104744.76644  23713931.336    23713946.840
        42.400          24.700
 123048695.008 7  95882195.67844  23415407.039    23415416.625
        42.400          27.100
 125230657.636 7  97582513.78644  23830532.336    23830542.098
        42.900          26.400
 122728875.827 7  95632924.93544  23354524.203    23354530.621
        43.600          28.600
 122198041.242 7  95219339.11445  23253504.250    23253515.418
        43.400          30.600
 114615489.329 7  89310913.31346  21810538.188    21810542.320
        47.900          39.000
 106708857.648 8  83149931.54747  20305948.641    20305955.879
        52.100          43.500
 106433145.273 8  82935009.68547  20253503.375    20253508.563
        50.000          43.900
 110386312.095 8  86015459.96947  21005757.258    21005768.133
        52.300          42.200
 15  3 15  1  1  0.0000000  0 10G07G16G23G27G30G09G19G04G11G01
 109727346.945 8  85501820.65547  20880387.930    20880392.355
        52.100          42.300
 124650300.067 7  97130208.91644  23720152.352    23720165.688
        44.200          25.800
 123121107.338 7  95938620.47044  23429186.414    23429196.703
        43.200          28.400
 125309280.761 6  97643778.57444  23845493.125    23845502.711
        41.300          25.500
 122632919.988 6  95558154.25444  23336263.359    23336271.535
        41.800          28.500
 122248959.332 7  95259015.52144  23263194.648    23263205.641
        43.400          29.400
 114688144.749 8  89367527.91446  21824364.242    21824368.609
        49.000          39.200
 106689394.089 8  83134765.22747  20302245.016    20302251.551
        53.500          44.700
 106404805.676 8  82912926.95547  20248110.672    20248115.684
        50.900          43.400
 110316462.602 8  85961031.94547  20992464.641    20992475.984
        52.700          42.100
 15  3 15  1  1 30.0000000  0 10G07G16G23G27G30G09G19G04G11G01
 109664627.585 8  85452948.45447  20868453.125    20868458.020
        52.500          42.500
 124683080.309 7  97155751.61344  23726389.031    23726405.063
        44.500          26.000
 123193479.957 7  95995014.32044  23442958.398    23442970.152
        44.400          27.700
 125387806.698 6  97704967.65344  23860436.742    23860446.031
        41.200          24.800
 122537148.439 7  95483527.18244  23318037.047    23318044.813
        42.000          27.800
 122300030.937 7  95298811.54144  23272912.852    23272922.848
        43.800          29.100
 114760907.169 8  89424225.88946  21838210.383    21838214.281
        48.800          39.500
 106670525.972 8  83120062.87247  20298654.750    20298661.285
        53.900          43.900
 106377005.863 8  82891264.83647  20242820.305    20242824.906
        50.700          43.000
 110247046.439 8  85906941.58447  20979255.258    20979266.074
        51.500          42.000
 15  3 15  1  2  0.0000000  0 10G07G16G23G27G30G09G19G04G11G01
 109602366.152 8  85404433.10247  20856604.727    20856610.324
        51.800          42.000
 124715962.519 7  97181373.74844  23732647.078    23732662.523
        44.800          25.000
 123265810.184 7  96051375.10744  23456723.484    23456734.066
        45.700          27.700
 125466234.269 6  97766080.06444  23875361.109    23875370.398
        40.600          25.000
 122441563.756 7  95409045.70344  23299848.320    23299856.320
        42.500          28.100
 122351253.305 7  95338725.04245  23282659.813    23282670.219
        42.900          30.000
 114833774.176 8  89481005.36546  21852076.664    21852080.211
        48.600          38.800
 106652253.998 8  83105825.05847  20295177.516    20295184.520
        53.200          43.900
 106349746.463 8  82870023.81947  20237633.414    20237638.016
        49.700          43.700
 110178066.142 8  85853190.85547  20966129.031    20966139.672
        51.800          42.500
 15  3 15  1  2 30.0000000  0 10G07G16G23G27G30G09G19G04G11G01
 109540565.359 8  85356276.67647  20844844.258    20844849.387
        52.800          42.200
 124748947.584 7  97207076.03844  23738923.664    23738939.402
        43.700          25.800
 123338095.670 7  96107701.05244  23470479.305    23470489.770
        45.300          28.400
 125544562.483 6  97827115.04244  23890265.914    23890276.496
        41.900          24.300
 122346168.715 7  95334712.00844  23281695.641    23281703.641
        42.900          29.000
 122402623.641 7  95378753.83444  23292435.539    23292445.711
        43.600          29.300
 114906743.763 8  89537864.76646  21865962.250    21865966.441
        49.800          39.000
 106634579.439 9  83092052.76647  20291814.461    20291820.762
        54.500          43.800
 106323028.199 8  82849204.46447  20232548.797    20232554.219
        51.200          43.200
 110109524.335 8  85799781.79647  20953085.711    20953095.941
        52.800          42.200
 15  3 15  1  3  0.0000000  0 10G07G16G23G27G30G09G19G04G11G01
 109479227.450 8  85308480.94447  20833172.070    20833177.258
        52.100          42.200
 124782037.130 7  97232859.74844  23745221.258    23745235.883
        43.000          25.700
 123410333.391 7  96163989.71744  23484226.148    23484236.086
        45.700          28.900
 125622790.116 7  97888071.64944  23905152.813    23905162.574
        42.500          26.800
 122250965.888 7  95260528.07644  23263579.188    23263587.305
        44.400          29.800
 122454138.991 7  95418895.63944  23302238.273    23302248.914
        43.700          29.500
 114979813.110 8  89594801.91346  21879866.641    21879870.363
        48.500          38.600
 106617502.921 8  83078746.46747  20288564.398    20288571.285
        53.900          44.400
 106296851.319 8  82828806.97247  20227567.297    20227572.191
        51.000          43.500
 110041423.440 8  85746716.31047  20940126.133    20940136.246
        52.600          42.400
 15  3 15  1  3 30.0000000  0 10G07G16G23G27G30G09G19G04G11G01
 109418355.466 8  85261048.27547  20821588.156    20821592.992
        51.500          42.300
 124815231.981 7  97258725.51144  23751538.047    23751553.668
        43.200          26.600
 123482520.939 7  96220239.32944  23497963.227    23497973.691
        43.400          27.100
 125700916.345 7  97948949.23944  23920020.063    23920029.000
        42.600          26.700
 122155958.211 7  95186496.22044  23245499.641    23245507.406
        42.400          29.800
 122505796.749 7  95459148.42544  23312069.453    23312079.156
        43.600          29.200
 115052980.625 8  89651815.54646  21893789.672    21893793.688
        48.400          38.900
 106601025.878 8  83065907.29947  20285428.969    20285435.914
        53.900          44.100
 106271216.755 8  82808832.05747  20222689.102    20222694.406
        51.500          43.400
 109973766.268 8  85693996.57146  20927251.539    20927261.711
        52.300          41.900
 15  3 15  1  4  0.0000000  0 10G07G16G23G27G30G09G19G04G11G01
 109357951.982 8  85213980.67147  20810094.039    20810099.109
        52.500          42.500
 124848533.349 7  97284674.26144  23757875.289    23757891.203
        43.900          26.900
 123554655.593 7  96276447.70044  23511689.609    23511701.539
        43.200          27.700
 125778939.960 6  98009746.87144  23934867.563    23934876.383
        40.800          25.300
 122061148.340 7  95112618.48744  23227457.336    23227465.336
        43.200          29.700
 122557594.015 7  95499509.87744  23321925.523    23321936.105
        43.900          29.600
 115126243.511 7  89708903.49246  21907731.250    21907735.676
        47.700          39.200
 106585148.792 8  83053535.62047  20282407.734    20282414.445
        53.500          44.700
 106246125.128 8  82789280.21747  20217914.203    20217919.566
        51.500          43.900
 109906555.281 8  85641624.50947  20914461.430    20914472.246
        52.100          42.500
 15  3 15  1  4 30.0000000  0 10G07G16G23G27G30G09G19G04G11G01
 109298019.401 8  85167279.99546  20798689.117    20798694.129
        51.900          41.800
 124881942.715 7  97310707.17244  23764233.555    23764249.176
        42.600          25.000
 123626734.841 7  96332612.87344  23525406.203    23525418.133
        43.900          27.700
 125856860.190 6  98070463.95444  23949694.625    23949704.797
        40.800          25.800
 121966539.279 7  95038897.21944  23209454.641    23209461.996
        44.100          28.200
 122609528.186 7  95539978.00145  23331808.406    23331818.578
        42.900          30.500
 115199600.042 8  89766064.41846  21921690.523    21921694.773
        48.600          38.600
 106569872.771 8  83041632.30747  20279500.586    20279507.063
        53.700          44.500
 106221577.636 8  82770152.36947  20213242.867    20213247.234
        52.000          43.300
 109839793.112 8  85589602.18447  20901757.609    20901767.254
        52.300          43.000
 15  3 15  1  5  0.0000000  0 10G07G16G23G27G30G09G19G04G11G01
 109238559.716 8  85120947.80447  20787374.750    20787379.879
        51.900          42.000
 124915460.850 7  97336824.82744  23770612.039    23770627.191
        42.500          25.000
 123698755.699 7  96388732.54944  23539111.586    23539123.516
        43.200          27.700
 125934675.235 6  98131099.06544  23964502.227    23964511.930
        40.900          26.400
 121872132.975 7  94965333.95044  23191489.227    23191497.051
        44.300          29.900
 122661595.762 6  95580550.08644  23341716.883    23341726.820
        41.400          29.700
 115273047.374 8  89823296.09646  21935667.086    21935670.867
        48.100          38.600
 106555198.131 8  83030197.60047  20276708.008    20276715.480
        53.000          44.400
 106197572.680 8  82751447.28247  20208674.828    20208679.840
        51.400          43.000
 109773481.625 8  85537931.02447  20889137.945    20889148.703
        52.600          42.700
 15  3 15  1  5 30.0000000  0 10G07G16G23G27G30G09G19G04G11G01
 109179576.023 8  85074986.52247  20776150.172    20776155.828
        51.900          42.600
 124949089.263 7  97363028.43544  23777011.984    23777027.371
        42.200          25.400
 123770715.786 7  96444804.87444  23552806.352    23552817.344
        44.300          26.600
 126012384.484 6  98191651.74844  23979290.281    23979299.512
        41.400          26.800
 121777932.515 7  94891931.08044  23173563.469    23173571.352
        43.700          29.700
 122713794.310 7  95621224.22445  23351649.945    23351660.996
        42.300          30.400
 115346583.370 8  89880596.86746  21949660.586    21949664.602
        48.500          39.200
 106541125.918 8  83019232.32947  20274029.805    20274036.867
        53.900          44.100
 106174111.673 8  82733166.05647  20204210.156    20204215.285
        50.000          42.800
 109707623.716 8  85486613.29947  20876606.055    20876616.344
        52.800          42.800
 15  3 15  1  6  0.0000000  0 10G07G16G23G27G30G09G19G04G11G01
 109121070.728 8  85029398.02047  20765017.023    20765021.801
        51.800          42.700
 124982829.245 6  97389318.93344  23783432.031    23783447.945
        41.900          24.700
 123842612.360 7  96500827.68544  23566487.438    23566499.660
        42.600          27.500
 126089987.090 6  98252121.33844  23994056.945    23994067.000
        41.700          25.900
 121683940.774 7  94818690.85945  23155677.445    23155684.859
        43.800          30.000
 122766121.148 7  95661998.33044  23361606.742    23361617.266
        42.200          29.600
 115420205.789 7  89937964.98146  21963670.727    21963674.566
        47.300          38.100
 106527656.983 8  83008737.14047  20271467.250    20271473.199
        53.300          44.100
 106151195.718 8  82715309.52647  20199850.313    20199854.387
        51.600          43.800
 109642221.937 8  85435651.00347  20864160.406    20864170.578
        52.100          43.000
 15  3 15  1  6 30.0000000  0 10G07G16G23G27G30G09G19G04G11G01
 109063046.054 8  84984184.02647  20753975.078    20753980.148
        51.300          42.300
 125016681.400 7  97415696.88344  23789873.922    23789889.660
        42.100          25.100
 123914443.016 7  96556799.09044  23580157.047    23580169.270
        42.600          25.900
 126167481.702 7  98312506.79444  24008803.781    24008812.953
        42.200          26.700
 121590160.245 7  94745615.21944  23137831.156    23137838.512
        44.300          29.800
 122818573.238 7  95702870.02444  23371589.047    23371599.688
        43.200          29.300
 115493911.804 8  89995398.23446  21977695.836    21977700.320
        48.700          37.900
 106514791.825 8  82998712.41947  20269018.992    20269025.762
        53.100          44.100
 106128824.173 8  82697877.22947  20195592.703    20195597.305
        50.700          43.400
 109577278.552 8  85385045.89347  20851802.164    20851812.395
        52.000          42.900
 15  3 15  1  7  0.0000000  0 11G07G16G28G23G27G30G09G19G04G11G01
 109005504.538 8  84939346.52047  20743025.633    20743030.352
        51.600          42.300
 125050647.221 7  97442163.37044  23796337.672    23796353.820
        42.200          25.400
 134920503.82615                  25674517.875
        33.200
 123986205.216 7  96612717.09144  23593812.938    23593825.980
        42.000          25.200
 126244867.735 7  98372807.62544  24023529.758    24023539.461
        42.100          25.700
 121496593.951 7  94672706.50944  23120026.266    23120033.563
        44.100          29.300
 122871147.980 7  95743837.31144  23381593.188    23381603.301
        43.600          29.900
 115567699.700 8  90052895.28746  21991737.883    21991741.430
        50.000          38.400
 106502531.554 8  82989159.04347  20266685.555    20266692.734
        53.900          44.300
 106106998.119 8  82680869.98247  20191438.945    20191443.488
        51.200          42.900
 109512796.227 8  85334800.05247  20839531.391    20839541.445
        52.200          43.100
 15  3 15  1  7 30.0000000  0 11G07G16G28G23G27G30G09G19G04G11G01
 108948448.437 8  84894887.26247  20732167.922    20732172.699
        52.500          43.000
 125084727.774 7  97468719.28544  23802823.461    23802838.965
        42.900          24.500
 134873565.570 5                  25665587.141
        35.000
 124057896.163 6  96668579.53644  23607457.258    23607468.895
        41.600          26.400
 126322143.778 6  98433022.72844  24038234.117    24038244.172
        40.400          25.400
 121403244.135 7  94599966.46044  23102262.328    23102269.098
        44.900          28.500
 122923842.128 7  95784897.65244  23391620.414    23391630.469
        43.200          29.100
 115641567.252 8  90110454.40746  22005794.336    22005798.234
        49.200          38.300
 106490876.248 9  82980077.07047  20264467.813    20264474.523
        55.000          44.600
 106085717.074 8  82664287.42247  20187389.055    20187394.066
        50.700          43.300
 109448776.883 8  85284914.97247  20827348.805    20827359.328
        52.800          43.100
 15  3 15  1  8  0.0000000  0 11G07G16G28G23G27G30G09G19G04G11G01
 108891880.719 8  84850808.56247  20721403.219    20721408.641
        52.300          42.600
 125118924.024 7  97495365.32544  23809331.195    23809347.109
        43.300          24.100
 134826456.35115                  25656620.656
        30.100
 124129513.538 6  96724384.63144  23621085.930    23621097.566
        41.300          25.300
 126399309.263 6  98493151.72444  24052918.719    24052928.891
        41.200          26.000
 121310113.979 7  94527397.60244  23084540.211    23084547.039
        45.800          29.400
 122976653.360 7  95826049.20344  23401669.875    23401680.809
        42.100          29.400
 115715512.527 8  90168074.09746  22019865.656    22019869.672
        50.400          38.200
 106479826.881 9  82971467.25947  20262365.367    20262372.195
        54.700          44.700
 106064982.470 8  82648130.65447  20183443.711    20183448.195
        50.700          43.200
 109385223.526 8  85235393.00147  20815254.672    20815264.609
        52.700          43.000
 15  3 15  1  8 30.0000000  0 11G07G16G28G23G27G30G09G19G04G11G01
 108835803.341 8  84807111.94847  20710732.602    20710737.672
        52.900          43.000
 125153237.441 7  97522102.69443  23815860.547    23815877.516
        43.500          23.600
 134779175.76915                  25647620.008
        31.000
 124201054.672 7  96780130.21644  23634699.320    23634711.895
        42.300          26.500
 126476362.833 7  98553193.49644  24067582.016    24067591.422
        42.000          25.600
 121217205.861 7  94455001.74444  23066858.422    23066866.598
        44.300          29.900
 123029578.502 7  95867289.52544  23411742.117    23411751.762
        43.600          29.600
 115789532.946 8  90225752.34846  22033950.930    22033955.063
        48.900          38.100
 106469384.148 9  82963330.14847  20260377.570    20260384.105
        54.600          44.500
 106044794.075 8  82632399.50347  20179601.820    20179606.480
        51.600          43.000
 109322138.113 8  85186235.66047  20803250.172    20803260.461
        52.300          42.700
 15  3 15  1  9  0.0000000  0 11G07G16G28G23G27G30G09G19G04G11G01
 108780219.075 8  84763799.57247  20700155.156    20700159.934
        53.300          43.000
 125187669.130 7  97548932.17644  23822413.711    23822430.387
        44.600          24.100
 134731723.29214                  25638589.539
        28.900
 124272517.016 7  96835814.35743  23648299.492    23648311.598
        43.500          23.600
 126553303.791 6  98613147.53544  24082222.922    24082232.684
        41.000          26.900
 121124522.778 7  94382781.24544  23049221.906    23049229.730
        44.300          29.900
 123082614.943 6  95908616.60244  23421834.438    23421844.492
        41.600          28.400
 115863625.568 8  90283486.86146  22048050.680    22048054.637
        49.700          37.900
 106459548.360 9  82955665.97647  20258506.211    20258513.039
        54.300          44.400
 106025151.805 8  82617093.89847  20175863.742    20175868.402
        50.900          43.800
 109259523.178 8  85137444.92847  20791334.805    20791344.801
        53.300          43.000
 15  3 15  1  9 30.0000000  0 11G07G16G28G23G27G30G09G19G04G11G01
 108725129.779 8  84720872.89847  20689672.133    20689676.910
        53.300          43.500
 125222220.517 7  97575854.93444  23828988.641    23829005.492
        44.400          25.300
 134684098.626 5                  25629529.109
        32.800
 124343898.026 6  96891435.06344  23661883.703    23661895.105
        41.100          25.000
 126630131.079 7  98673012.99344  24096843.148    24096852.617
        43.400          27.600
 121032067.270 7  94310738.05744  23031628.867    23031636.633
        45.200          29.800
 123135759.685 6  95950028.06044  23431947.969    23431957.613
        40.900          28.400
 115937789.543 8  90341276.95646  22062163.344    22062167.828
        48.100          38.400
 106450320.198 9  82948475.27247  20256750.078    20256756.555
        54.300          44.900
 106006056.404 8  82602214.43547  20172229.977    20172234.695
        50.200          43.100
 109197381.023 8  85089022.59847  20779509.102    20779518.688
        51.900          43.800
 15  3 15  1 10  0.0000000  0 10G07G16G28G27G30G09G19G04G11G01
 108670536.529 8  84678332.74247  20679282.656    20679287.668
        52.800          42.800
 125256891.151 7  97602870.64243  23835586.148    23835603.293
        43.900          22.000
 134636299.708 5                  25620434.109
        35.100
 126706842.345 7  98732788.03944  24111441.367    24111450.129
        44.600          28.000
 120939840.652 7  94238873.22045  23014079.039    23014086.160
        44.700          31.000
 123189008.576 6  95991520.65244  23442079.820    23442090.461
        40.500          27.900
 116012020.808 8  90399119.48446  22076289.055    22076293.598
        48.300          37.300
 106441698.710 9  82941757.30347  20255109.219    20255116.105
        54.500          44.000
 105987506.386 8  82587759.94347  20168700.336    20168704.527
        49.100          43.200
 109135712.467 8  85040969.30047  20767773.844    20767784.367
        53.400          43.000
 15  3 15  1 10 30.0000000  0 11G07G16G28G23G27G30G09G19G04G11G01
 108616442.794 8  84636181.82647  20668989.023    20668993.742
        52.700          43.000
 125291683.171 7  97629980.91144  23842208.594    23842224.508
        43.700          24.700
 134588326.50615                  25611303.820
        31.600
 124486412.40518  97002545.45055  23689001.164    23689012.801
        48.800          32.600
 126783437.737 7  98792472.77244  24126015.883    24126025.938
        43.300          28.000
 120847846.699 7  94167189.67245  22996573.352    22996580.941
        45.600          30.000
 123242359.825 6  96033092.99844  23452232.477    23452243.059
        40.500          28.400
 116086317.721 8  90457013.18146  22090427.609    22090431.215
        48.100          37.300
 106433685.210 8  82935513.07947  20253584.180    20253590.598
        53.900          44.600
 105969503.195 8  82573731.54047  20165274.414    20165278.957
        49.300          42.900
 109074520.917 8  84993287.70347  20756129.406    20756139.402
        52.900          43.200
 15  3 15  1 11  0.0000000  0 11G07G16G28G23G27G30G09G19G04G11G01
 108562851.359 8  84594422.30447  20658791.367    20658795.734
        52.500          43.300
 125326598.007 7  97657186.87243  23848851.430    23848868.926
        42.200          23.500
 134540179.782 5                  25602142.523
        32.500
 124557534.03017  97057963.80852  23702534.945    23702546.406
        42.800          16.300
 126859916.782 7  98852066.87744  24140569.242    24140579.121
        43.100          26.500
 120756088.618 7  94095689.93244  22979112.938    22979119.824
        45.200          29.800
 123295811.008 7  96074743.22544  23462404.023    23462414.547
        42.800          27.300
 116160679.069 8  90514957.07246  22104578.203    22104582.160
        48.300          37.800
 106426280.851 9  82929743.51847  20252175.234    20252181.887
        55.300          44.900
 105952047.239 8  82560129.55847  20161952.195    20161957.266
        50.500          43.300
 109013809.130 8  84945979.94747  20744575.789    20744586.020
        53.400          43.000
 15  3 15  1 11 30.0000000  0 11G07G16G28G23G27G30G09G19G04G11G01
 108509763.404 8  84553055.10947  20648688.633    20648693.703
        53.000          42.600
 125361635.609 7  97684488.48543  23855519.391    23855536.418
        42.600          22.900
 134491858.10115                  25592945.266
        33.400
 124628566.29116                  23716049.766
        40.500
 126936277.327 7  98911568.63444  24155101.148    24155110.086
        42.300          26.600
 120664567.904 7  94024375.17545  22961696.266    22961703.914
        44.200          30.800
 123349358.146 7  96116468.21644  23472593.305    23472604.180
        43.300          28.200
 116235101.366 8  90572948.47246  22118740.953    22118744.207
        49.100          38.100
 106419484.873 9  82924448.01347  20250881.688    20250888.340
        55.800          43.600
 105935137.281 8  82546953.02747  20158734.359    20158739.723
        50.800          42.900
 108953578.113 8  84899046.81447  20733114.680    20733124.383
        53.200          43.300
 15  3 15  1 12  0.0000000  0 11G07G16G28G23G27G30G09G19G04G11G01
 108457182.458 8  84512082.98447  20638682.969    20638687.922
        52.400          43.200
 125396798.616 7  97711887.80543  23862212.523    23862227.793
        42.900          23.400
 134443360.903 5                  25583719.531
        33.100
 124699506.71017  97168586.94453  23729548.320    23729560.133
        42.700          21.800
 127012520.118 6  98970978.63244  24169609.289    24169618.875
        41.700          25.600
 120573288.824 7  93953248.68445  22944326.422    22944334.012
        44.900          31.700
 123402999.945 7  96158266.96144  23482801.719    23482811.949
        43.400          27.000
 116309583.667 8  90630986.62046  22132913.742    22132917.934
        48.600          37.700
 106413299.083 9  82919627.97147  20249704.516    20249711.637
        54.800          44.400
 105918775.533 8  82534203.67647  20155621.406    20155625.422
        49.900          43.700
 108893831.776 8  84852491.35547  20721745.078    20721755.133
        53.200          43.500
 15  3 15  1 12 30.0000000  0 11G07G16G28G23G27G30G09G19G04G11G01
 108405111.889 8  84471508.54747  20628773.883    20628779.012
        52.300          42.800
 125432089.023 7  97739386.40143  23868927.297    23868944.031
        42.800          23.800
 134394690.454 5                  25574457.203
        33.700
 124770348.00716  97223777.63453  23743029.047    23743039.922
        40.600          19.900
 127088645.014 6  99030296.74244  24184094.797    24184104.852
        40.500          25.800
 120482254.853 7  93882313.18445  22927003.289    22927010.586
        44.200          31.500
 123456734.398 7  96200137.92244  23493026.539    23493037.531
        42.300          26.900
 116384124.768 8  90689070.59146  22147098.625    22147102.465
        49.300          37.800
 106407724.763 9  82915284.40747  20248644.461    20248650.645
        54.900          44.700
 105902962.453 8  82521881.86247  20152611.820    20152616.598
        50.900          43.600
 108834572.949 8  84806315.77747  20710468.234    20710478.758
        53.200          43.600
 15  3 15  1 13  0.0000000  0 11G07G16G28G23G27G30G09G19G04G11G01
 108353552.619 8  84431332.53147  20618962.734    20618967.746
        52.600          43.000
 125467506.744 7  97766984.20943  23875666.672    23875684.930
        42.200          22.900
 134345844.413 5                  25565160.461
        30.500
 124841092.053 6  97278900.29753  23756490.008    23756501.469
        40.700          22.300
 127164649.923 6  99089521.38644  24198557.688    24198568.563
        40.500          24.700
 120391467.580 7  93811569.91945  22909726.844    22909734.082
        43.200          30.800
 123510557.485 7  96242077.92944  23503268.930    23503279.395
        42.600          27.800
 116458721.516 8  90747197.92246  22161293.422    22161298.023
        50.000          37.500
 106402760.969 9  82911416.57047  20247699.086    20247705.797
        54.300          44.300
 105887696.915 8  82509986.69847  20149707.289    20149711.598
        51.800          43.000
 108775802.638 8  84760520.85147  20699284.836    20699294.422
        52.800          43.600
 15  3 15  1 13 30.0000000  0 11G07G16G28G23G27G30G09G19G04G11G01
 108302507.414 8  84391557.08747  20609249.219    20609254.055
        52.700          43.000
 125503053.798 7  97794682.78843  23882432.336    23882449.539
        42.600          22.200
 134296822.72715                  25555831.914
        33.100
 124911734.032 6                  23769933.688
        41.400
 127240534.633 6  99148652.37243  24212997.695    24213009.215
        40.500          23.400
 120300930.214 7  93741021.39945  22892497.508    22892505.449
        42.800          31.200
 123564466.962 6  96284085.28644  23513528.250    23513538.598
        41.000          27.700
 116533372.272 8  90805367.33146  22175499.047    22175504.059
        48.200          37.600
 106398408.589 9  82908025.15147  20246871.055    20246877.180
        55.100          44.500
 105872979.613 8  82498518.72847  20146906.555    20146910.512
        51.100          43.400
 108717523.631 8  84715108.76447  20688194.742    20688204.211
        52.800          43.700
 15  3 15  1 14  0.0000000  0 11G07G16G28G23G27G30G09G19G04G11G01
 108251978.015 8  84352183.57147  20599633.664    20599638.266
        53.000          43.300
 125538730.299 6  97822482.20543  23889220.555    23889238.813
        41.600          22.900
 134247625.23315                  25546468.328
        30.300
 124982270.15417  97388908.74453  23783356.664    23783367.715
        45.200          20.600
 127316297.737 6  99207688.59144  24227416.039    24227426.094
        40.600          24.500
 120210645.093 7  93670669.42845  22875316.820    22875325.289
        42.700          30.800
 123618459.627 6  96326157.42544  23523802.055    23523813.164
        41.100          27.800
 116608074.524 8  90863576.88946  22189714.344    22189719.004
        48.100          37.600
 106394667.450 8  82905110.03347  20246159.352    20246165.887
        53.700          44.600
 105858809.973 8  82487477.51647  20144209.820    20144214.422
        51.100          43.200
 108659737.765 8  84670080.93147  20677197.984    20677208.332
        51.800          43.500
 15  3 15  1 14 30.0000000  0 11G07G16G28G23G27G30G09G19G04G11G01
 108201966.882 8  84313213.90447  20590116.859    20590121.402
        53.500          42.900
 125574537.888 6  97850383.74943  23896035.789    23896053.227
        41.100          23.300
 134198250.353 5                  25537073.555
        33.500
 125052701.018 6                  23796759.820
        39.400
 127391938.824 7  99266629.73044  24241810.703    24241819.348
        42.100          25.300
 120120615.255 7  93600516.37245  22858185.461    22858192.934
        43.800          31.600
 123672532.869 6  96368292.37944  23534092.516    23534102.629
        40.900          26.100
 116682826.201 8  90921824.95246  22203939.383    22203944.160
        49.300          37.700
 106391538.177 9  82902671.69047  20245563.594    20245569.836
        54.400          44.200
 105845188.499 8  82476863.43847  20141617.461    20141621.828
        50.600          43.000
 108602447.484 8  84625439.27747  20666296.016    20666305.602
        53.700          43.900
 15  3 15  1 15  0.0000000  0 11G07G16G28G23G27G30G09G19G04G11G01
 108152475.059 8  84274648.89047  20580698.758    20580704.063
        53.700          43.300
 125610476.369 6  97878387.28344  23902874.648    23902892.496
        41.000          24.500
 134148697.461 5 104531432.14052  25527644.992    25527644.848
        33.800          14.800
 125123027.25717                  23810142.383
        44.300
 127467455.557 6  99325473.99443  24256180.766    24256189.820
        41.800          22.600
 120030841.868 7  93530563.16445  22841101.547    22841109.020
        43.800          31.300
 123726682.500 7  96410486.85744  23544396.320    23544407.430
        42.400          27.300
 116757624.187 8  90980109.10746  22218173.289    22218177.480
        48.400          37.700
 106389019.476 9  82900709.11447  20245084.430    20245090.789
        54.100          44.500
 105832113.723 8  82466675.35847  20139129.313    20139133.738
        50.700          43.000
 108545653.352 8  84581184.22247  20655488.352    20655498.465
        53.600          43.400
 15  3 15  1 15 30.0000000  0 11G07G16G28G23G27G30G09G19G04G11G01
 108103504.724 8  84236490.23047  20571380.539    20571384.848
        52.600          43.200
 125646547.005 6  97906493.79044  23909738.797    23909757.641
        40.900          24.300
 134098966.309 5                  25518184.539
        33.700
 125193245.26617                  23823502.516
        42.000
 127542847.527 6  99384221.01043  24270527.406    24270535.641
        40.400          22.300
 119941328.090 7  93460812.23845  22824068.711    22824075.012
        44.100          32.400
 123780906.000 7  96452738.88744  23554716.344    23554725.871
        43.200          27.600
 116832466.428 8  91038427.73246  22232415.305    22232419.145
        48.800          36.800
 106387111.791 9  82899222.65947  20244721.461    20244727.176
        54.800          44.500
 105819586.029 8  82456913.58347  20136745.438    20136749.863
        51.200          43.400
 108489357.916 8  84537317.76547  20644775.953    20644785.184
        52.800          44.000
 15  3 15  1 16  0.0000000  0 11G07G16G28G23G27G30G09G19G04G11G01
 108055058.455 8  84198739.93947  20562160.516    20562165.527
        52.000          42.600
 125682751.592 6  97934704.67843  23916629.164    23916647.129
        40.800          23.200
 134049057.177 5                  25508683.531
        35.200
 125263345.78317                  23836842.570
        45.300
 127618114.464 6  99442870.61943  24284850.617    24284858.559
        39.900          22.300
 119852077.081 7  93391266.07045  22807084.609    22807090.559
        44.700          31.600
 123835201.274 7  96495046.83344  23565047.344    23565058.102
        43.000          26.500
 116907351.644 7  91096779.84846  22246664.891    22246669.316
        46.400          36.400
 106385815.876 8  82898212.90147  20244474.203    20244480.621
        53.200          44.300
 105807605.747 8  82447578.37147  20134465.898    20134470.324
        49.900          43.300
 108433563.790 8  84493841.93047  20634158.070    20634168.125
        53.500          43.900
 15  3 15  1 16 30.0000000  0 11G07G16G28G23G27G30G09G19G04G11G01
 108007140.086 8  84161401.01047  20553042.469    20553046.895
        52.400          43.300
 125719092.358 6  97963021.65644  23923544.977    23923563.527
        41.700          25.500
 133998970.79715                  25499153.680
        33.000
 125333330.259 7  97662468.65354  23850159.406    23850172.742
        45.300          28.300
 127693256.832 6  99501423.15943  24299148.484    24299157.598
        39.000          21.800
 119763092.892 7  93321927.82245  22790151.398    22790157.641
        44.500          31.300
 123889566.703 7  96537409.44844  23575392.555    23575403.371
        42.800          25.200
 116982279.057 7  91155164.84146  22260922.844    22260927.797
        47.500          36.100
 106385133.164 9  82897680.98047  20244344.484    20244350.902
        54.300          43.900
 105796174.042 8  82438670.60847  20132290.164    20132294.180
        51.200          43.100
 108378274.350 8  84450759.35447  20623636.875    20623646.461
        53.000          43.900
 15  3 15  1 17  0.0000000  0 11G07G16G28G23G27G30G09G19G04G11G01
 107959749.554 8  84124473.35547  20544024.141    20544028.801
        52.300          43.100
 125755568.598 7  97991444.20744  23930486.414    23930504.496
        42.300          25.300
 133948704.893 6                  25489588.516
        36.700
 125403286.46416  97716892.75453  23863453.930    23863464.512
        37.000          18.600
 127768272.077 6  99559876.61843  24313423.078    24313432.191
        39.000          21.100
 119674376.543 7  93252798.28045  22773268.516    22773275.344
        44.100          31.500
 123943997.785 7  96579823.23844  23585750.297    23585761.289
        43.700          27.300
 117057244.667 7  91213579.62246  22275188.320    22275193.039
        46.700          36.400
 106385062.032 9  82897625.60047  20244331.258    20244337.734
        54.300          44.900
 105785289.151 8  82430188.93747  20130218.891    20130223.375
        51.200          43.800
 108323489.903 8  84408070.28147  20613212.125    20613221.594
        53.000          43.600
 15  3 15  1 17 30.0000000  0 11G07G16G28G23G27G30G09G19G04G11G01
 107912890.039 8  84087959.49347  20535106.945    20535111.723
        52.800          43.200
 125792182.768 7  98019974.22344  23937454.539    23937472.855
        42.500          25.300
 133898260.334 5                  25479988.242
        35.400
 125473037.39516                  23876725.750
        37.400
 127843160.335 6  99618231.18143  24327674.438    24327682.906
        40.400          22.600
 119585931.652 7  93183880.25045  22756437.992    22756445.230
        44.900          32.400
 123998492.487 7  96622286.59444  23596119.648    23596130.992
        42.200          25.700
 117132247.702 7  91272023.55546  22289461.320    22289465.688
        47.100          36.300
 106385603.421 9  82898047.52147  20244434.406    20244440.766
        54.800          44.700
 105774951.749 8  82422133.88247  20128251.805    20128256.348
        51.800          43.700
 108269213.368 9  84365776.98647  20602883.594    20602893.180
        54.200          43.700
 15  3 15  1 18  0.0000000  0 11G07G16G28G23G27G30G09G19G04G11G01
 107866562.824 8  84051860.40647  20526291.094    20526296.105
        53.900          43.000
 125828934.773 7  98048611.62344  23944448.352    23944467.488
        43.000          24.000
 133847635.853 5                  25470355.531
        35.400
 125542658.67916                  23889975.445
        41.800
 127917920.435 6  99676485.85843  24341901.039    24341909.332
        41.100          21.100
 119497760.272 7  93115175.33845  22739659.641    22739667.348
        46.300          32.600
 124053047.639 7  96664797.05244  23606502.609    23606512.898
        43.000          26.200
 117207285.152 7  91330494.29446  22303739.875    22303744.125
        47.500          36.500
 106386756.767 8  82898946.28647  20244653.023    20244659.559
        53.800          43.900
 105765160.793 8  82414504.62847  20126388.484    20126393.203
        51.500          43.300
 108215446.134 9  84323880.54847  20592651.977    20592661.504
        54.000          44.200
 15  3 15  1 18 30.0000000  0 11G07G16G28G23G27G30G09G19G04G11G01
 107820770.348 8  84016177.99947  20517577.789    20517582.391
        53.700          43.500
 125865825.967 7  98077357.50144  23951469.008    23951487.734
        44.800          26.400
 133796831.349 6                  25460687.188
        36.200
 125612159.72116  97879642.29253  23903199.992    23903209.871
        41.400          19.900
 127992551.706 6  99734640.11043  24356101.758    24356111.930
        41.400          22.200
 119409865.121 7  93046685.67645  22722933.320    22722941.496
        46.000          32.400
 124107660.426 6  96707352.36744  23616894.617    23616905.258
        40.900          24.200
 117282355.586 8  91388990.73546  22318026.500    22318029.930
        49.400          37.000
 106388522.005 8  82900321.86047  20244988.844    20244995.320
        53.600          43.700
 105755916.507 8  82407301.34547  20124629.477    20124634.137
        51.700          44.100
 108162190.229 9  84282382.54347  20582517.531    20582526.879
        54.300          44.400
 15  3 15  1 19  0.0000000  0 11G07G16G28G23G27G30G09G19G04G11G01
 107775515.480 8  83980914.51047  20508965.742    20508970.813
        53.700          44.100
 125902858.208 7  98106213.26344  23958517.055    23958535.430
        44.000          26.700
 133745847.66715                  25450985.484
        34.100
 125681530.165 7  97933702.51853  23916400.352    23916410.582
        43.200          21.800
 128067054.105 7  99792693.98943  24370279.313    24370288.074
        42.000          22.600
 119322250.072 7  92978414.27145  22706260.969    22706269.145
        46.300          32.800
 124162329.109 6  96749951.26844  23627297.305    23627308.238
        41.700          27.200
 117357457.446 8  91447511.67846  22332318.531    22332321.434
        49.700          36.800
 106390900.354 8  82902175.18447  20245441.977    20245448.277
        53.700          44.200
 105747219.714 8  82400524.69747  20122974.055    20122978.539
        50.600          43.200
 108109448.761 8  84241285.40347  20572480.766    20572490.762
        52.900          44.200
 15  3 15  1 19 30.0000000  0 11G07G16G28G23G27G30G09G19G04G11G01
 107730800.089 8  83946071.37847  20500456.219    20500461.523
        52.600          43.200
 125940032.506 7  98135179.73044  23965590.398    23965609.887
        43.600          26.300
 133694684.149 6 104177690.75752  25441249.484    25441256.723
        36.200          14.800
 125750769.528 6  97987664.68753  23929577.578    23929588.277
        40.900          19.900
 128141427.030 6  99850646.95743  24384431.945    24384441.648
        40.700          22.600
 119234917.453 7  92910362.95445  22689642.477    22689649.480
        45.700          33.600
 124217050.705 6  96792591.43044  23637709.984    23637722.383
        41.700          26.500
 117432588.751 8  91506055.56246  22346614.813    22346619.180
        49.300          36.900
 106393891.559 9  82904506.06047  20246010.969    20246017.211
        55.300          44.100
 105739069.708 8  82394174.10847  20121423.563    20121427.871
        51.300          43.300
 108057223.494 8  84200590.50147  20562542.320    20562551.906
        53.200          44.100
 15  3 15  1 20  0.0000000  0 11G07G16G28G23G27G30G09G19G04G11G01
 107686625.404 8  83911649.58147  20492049.766    20492054.367
        52.600          43.700
 125977349.607 7  98164257.46644  23972692.961    23972710.926
        43.600          25.800
 133643339.919 6                  25431480.086
        38.100
 125819875.982 7                  23942729.367
        43.600
 128215669.098 6  99908497.98043  24398559.773    24398569.418
        40.800          22.900
 119147869.497 7  92842533.44845  22673077.625    22673085.273
        45.700          32.700
 124271821.872 6  96835270.16744  23648133.508    23648144.559
        41.600          27.000
 117507746.792 8  91564620.25846  22360916.828    22360921.078
        48.000          36.500
 106397494.833 8  82907313.87347  20246696.563    20246702.629
        52.900          44.700
 105731465.771 8  82388249.03147  20119976.203    20119981.098
        51.500          43.600
 108005515.576 8  84160298.71647  20552702.859    20552712.621
        53.200          44.300
 15  3 15  1 20 30.0000000  0 11G07G16G28G23G27G30G09G19G04G11G01
 107642992.430 8  83877649.89647  20483747.297    20483751.898
        52.600          43.600
 126014809.575 7  98193446.53244  23979820.742    23979840.406
        42.700          26.500
 133591813.461 6 104097521.71042  25421675.336    25421679.879
        36.700          14.800
 125888849.37816                  23955854.875
        36.800
 128289778.643 6  99966245.70643  24412662.586    24412672.289
        40.800          22.600
 119061107.915 7  92774927.08845  22656567.359    22656574.070
        44.600          32.700
 124326638.872 6  96877984.65444  23658564.781    23658575.891
        40.900          27.100
 117582928.536 7  91623203.44346  22375223.391    22375227.465
        47.500          36.700
 106401709.261 8  82910597.90947  20247498.813    20247504.352
        53.800          44.100
 105724406.635 8  82382748.46447  20118633.039    20118637.465
        51.400          42.900
 107954326.047 9  84120410.87247  20542962.039    20542971.094
        54.100          44.600
 15  3 15  1 21  0.0000000  0 11G07G16G28G23G27G30G09G19G04G11G01
 107599903.338 8  83844074.01947  20475547.875    20475552.477
        53.000          43.700
 126052413.271 7  98222747.59344  23986977.367    23986996.328
        42.700          26.200
 133540105.151 5 104057229.59542  25411834.500    25411840.156
        35.400          17.800
 125957689.41415  98148906.88852  23968954.992    23968966.277
        31.300          17.400
 128363755.121 6 100023889.75543  24426739.797    24426748.910
        40.300          22.600
 118974635.564 7  92707546.10545  22640112.094    22640118.805
        46.300          34.200
 124381498.955 7  96920732.74644  23669005.523    23669015.637
        42.900          26.300
 117658132.867 7  91681804.22846  22389534.586    22389538.191
        47.700          36.800
 106406534.800 8  82914358.13747  20248416.461    20248423.055
        53.700          44.100
 105717891.785 8  82377672.01947  20117393.398    20117397.590
        51.500          43.400
 107903656.940 8  84080928.55147  20533319.602    20533328.832
        52.700          44.300
 15  3 15  1 21 30.0000000  0 11G07G16G28G23G27G30G09G19G04G11G01
 107557361.217 8  83810924.35047  20467452.000    20467456.836
        52.500          43.600
 126090163.028 7  98252162.40644  23994162.203    23994180.695
        43.000          25.500
 133488215.820 5 104016796.45642  25401959.656    25401965.781
        35.100          15.600
 126026384.87717  98202427.52653  23982028.492    23982038.020
        42.900          20.600
 128437599.065 6 100081430.51543  24440791.586    24440801.230
        39.800          22.900
 118888456.430 7  92640393.60545  22623712.195    22623720.020
        44.900          33.200
 124436400.875 7  96963513.37844  23679452.711    23679462.180
        43.000          26.500
 117733358.885 7  91740421.90745  22403848.430    22403853.324
        46.600          35.900
 106411972.306 8  82918595.21547  20249451.578    20249457.469
        53.300          44.700
 105711922.757 8  82373020.88747  20116256.844    20116261.270
        51.000          43.900
 107853511.454 8  84041854.24547  20523777.289    20523786.758
        53.300          44.200
 15  3 15  1 22  0.0000000  0 11G07G16G28G23G27G30G09G19G04G11G01
 107515366.908 8  83778201.55047  20459461.336    20459465.469
        53.400          43.700
 126128059.242 6  98281691.38144  24001372.742    24001393.109
        41.300          24.700
 133436144.090 5 103976221.08242  25392050.961    25392057.086
        35.400          14.800
 126094917.08816                  23995072.781
        37.100
 128511308.862 6 100138866.76443  24454818.594    24454827.590
        39.600          22.000
 118802572.060 7  92573470.78645  22607368.070    22607376.363
        43.700          32.100
 124491340.721 7  97006323.59744  23689906.375    23689917.191
        43.400          27.400
 117808603.321 7  91799053.94446  22418167.070    22418171.613
        46.700          36.000
 106418020.644 8  82923308.26347  20250602.289    20250608.473
        53.400          44.500
 105706497.710 8  82368793.64447  20115224.594    20115229.254
        51.000          43.100
 107803890.258 8  84003188.48047  20514334.320    20514344.082
        53.800          44.800
 15  3 15  1 22 30.0000000  0 11G07G16G28G23G27G30G09G19G04G11G01
 107473923.497 8  83745908.01547  20451574.430    20451579.441
        52.600          43.600
 126166103.851 6  98311335.96244  24008612.664    24008633.266
        41.900          24.400
 133383890.720 6 103935504.07642  25382106.641    25382113.176
        37.600          13.900
 126163331.38315                  24008092.688
        34.100
 128584884.947 6 100196198.80943  24468819.250    24468828.953
        38.600          22.000
 118716986.351 7  92506780.69145  22591081.797    22591089.680
        44.700          32.300
 124546316.787 7  97049162.03844  23700367.789    23700378.840
        43.200          24.600
 117883865.136 7  91857699.52145  22432489.570    22432493.527
        46.300          35.400
 106424680.866 8  82928498.10147  20251869.742    20251875.926
        53.800          44.200
 105701617.689 8  82364991.08247  20114296.438    20114300.453
        51.700          43.100
 107754796.341 8  83964933.58347  20504992.039    20505001.684
        53.000          44.000
 15  3 15  1 23  0.0000000  0 10G07G16G28G27G30G09G19G04G11G01
 107433032.140 8  83714044.65247  20443792.680    20443797.223
        53.400          43.800
 126204297.297 7  98341096.52144  24015881.602    24015901.148
        43.200          25.300
 133331454.781 6 103894645.02642  25372129.555    25372134.684
        38.600          15.600
 128658326.211 6 100253425.79343  24482794.789    24482803.609
        39.800          22.900
 118631701.442 7  92440324.98745  22574853.039    22574860.160
        44.700          32.900
 124601325.962 7  97092026.22744  23710836.289    23710847.340
        43.800          27.100
 117959142.210 7  91916356.99845  22446814.570    22446818.176
        46.300          35.200
 106431952.220 8  82934164.14847  20253253.313    20253259.320
        53.600          44.400
 105697281.866 8  82361612.57747  20113471.250    20113475.793
        51.800          43.200
 107706231.011 8  83927090.56947  20495750.547    20495759.719
        53.200          44.600
 15  3 15  1 23 30.0000000  0 11G07G16G28G23G27G30G09G19G04G11G01
 107392694.452 8  83682612.71447  20436116.516    20436121.352
        53.500          43.900
 126242640.342 7  98370973.61944  24023178.781    24023198.680
        42.100          24.100
 133278835.941 6 103853643.33642  25362117.344    25362121.242
        37.000          14.800
 126299715.59616                  24034048.008
        37.900
 128731631.575 6 100310546.89443  24496744.125    24496753.297
        41.500          23.800
 118546719.556 7  92374105.39945  22558682.547    22558688.848
        45.700          33.900
 124656365.009 7  97134913.72644  23721309.133    23721320.008
        42.000          26.200
 118034432.295 7  91975024.59645  22461141.852    22461145.809
        46.600          35.800
 106439833.708 8  82940305.61547  20254753.000    20254759.828
        53.800          44.500
 105693488.717 8  82358656.93547  20112749.086    20112753.453
        51.700          43.100
 107658195.543 8  83889660.44147  20486609.664    20486618.719
        53.200          44.800
 15  3 15  1 24  0.0000000  0 11G07G16G28G23G27G30G09G19G04G11G01
 107352911.956 8  83651613.39947  20428546.352    20428551.188
        53.700          43.900
 126281133.657 7  98400967.84443  24030503.188    24030524.258
        42.500          22.600
 133226033.946 6 103812498.97942  25352068.844    25352072.859
        37.300          14.800
 126367816.96516                  24046982.328
        37.500
 128804800.309 6 100367561.52043  24510667.344    24510676.930
        41.100          23.800
 118462043.352 7  92308124.02445  22542568.383    22542575.621
        45.700          33.600
 124711431.121 6  97177822.32044  23731788.352    23731799.344
        41.600          27.100
 118109733.656 7  92033700.99545  22475470.578    22475475.121
        46.800          35.800
 106448325.203 8  82946922.41147  20256368.992    20256374.824
        53.400          44.100
 105690238.230 8  82356124.15447  20112130.508    20112135.109
        50.500          43.400
 107610691.725 8  83852644.57147  20477569.711    20477579.000
        52.600          44.400
 15  3 15  1 24 30.0000000  0 11G07G16G28G23G27G30G09G19G04G11G01
 107313687.983 8  83621049.30447  20421082.211    20421086.695
        53.200          43.300
 126319779.672 7  98431081.03643  24037859.078    24037878.977
        42.400          22.900
 133173049.849 5 103771212.67142  25341985.367    25341990.496
        34.900          12.600
 126435538.09715                  24059886.422
        34.200
 128877833.080 6 100424470.20044  24524565.938    24524574.934
        41.300          25.800
 118377676.797 7  92242383.92745  22526514.219    22526521.047
        45.100          33.400
 124766522.912 6  97220750.95443  23742272.508    23742283.734
        40.900          23.500
 118185045.490 7  92092385.55046  22489801.742    22489806.344
        47.300          36.200
 106457427.701 8  82954015.30347  20258101.250    20258107.434
        53.300          44.000
 105687531.078 8  82354014.74047  20111615.469    20111619.777
        49.600          43.600
 107563722.535 8  83816045.30447  20468631.766    20468641.055
        53.400          45.000
 15  3 15  1 25  0.0000000  0 10G07G16G28G27G30G09G19G04G11G01
 107275022.748 8  83590920.57647  20413724.266    20413729.043
        53.200          43.500
 126358577.980 6  98461312.84043  24045242.383    24045263.219
        41.300          22.600
 133119881.980 5 103729783.21842  25331867.188    25331873.137
        35.000          13.900
 128950727.946 6 100481271.41844  24538437.477    24538446.121
        40.300          24.300
 118293621.105 7  92176886.05945  22510519.180    22510525.832
        47.500          34.400
 124821636.222 6  97263696.34043  23752759.266    23752771.078
        39.700          22.900
 118260364.302 7  92151075.54645  22504134.672    22504138.805
        46.400          35.500
 106467139.191 8  82961582.73447  20259949.297    20259955.129
        53.000          43.800
 105685365.419 8  82352327.27447  20111203.719    20111207.969
        50.300          43.500
 107517288.233 8  83779862.84247  20459795.539    20459804.945
        51.700          45.000
 15  3 15  1 25 30.0000000  0 10G07G16G28G27G30G09G19G04G11G01
 107236919.277 8  83561229.60147  20406473.641    20406478.359
        53.100          44.300
 126397530.914 6  98491665.16243  24052654.922    24052675.289
        41.400          21.700
 133066531.287 5 103688211.29242  25321713.578    25321720.406
        35.000          15.600
 129023485.672 6 100537965.79543  24552281.992    24552291.223
        39.600          23.000
 118209880.384 7  92111633.61145  22494583.234    22494591.059
        46.600          34.400
 124876769.610 6  97306657.36143  23763252.227    23763262.633
        39.600          22.600
 118335689.724 7  92209770.70545  22518469.031    22518473.164
        47.200          35.700
 106477460.732 8  82969625.53547  20261913.344    20261918.941
        53.900          44.200
 105683742.078 8  82351062.39247  20110894.438    20110898.160
        51.100          43.100
 107471391.930 8  83744099.58947  20451061.844    20451071.430
        53.000          44.700
 15  3 15  1 26  0.0000000  0 10G07G16G28G27G30G09G19G04G11G01
 107199378.668 8  83531977.21447  20399330.016    20399334.676
        53.200          43.900
 126436638.763 6  98522138.18743  24060097.438    24060118.508
        40.800          21.500
 133012996.939 6 103646496.28342  25311528.250    25311533.672
        37.400          16.900
 129096105.137 6 100594552.39144  24566101.844    24566110.488
        39.600          24.100
 118126456.580 7  92046628.11045  22478708.172    22478715.703
        46.800          34.000
 124931919.799 6  97349631.47744  23773747.313    23773757.309
        39.500          24.700
 118411019.433 7  92268469.20045  22532803.383    22532808.219
        47.200          35.400
 106488391.289 8  82978142.89547  20263992.922    20263999.223
        52.900          44.000
 105682659.764 8  82350219.07847  20110688.094    20110692.637
        51.100          43.300
 107426034.586 8  83708756.30547  20442430.602    20442439.539
        53.200          45.000
 15  3 15  1 26 30.0000000  0 11G07G16G28G23G27G30G09G19G04G11G01
 107162402.291 8  83503164.49247  20392293.602    20392298.496
        53.600          43.800
 126475902.348 6  98552732.59443  24067568.711    24067590.074
        40.900          21.100
 132959278.685 6 103604637.94642  25301306.641    25301311.887
        37.700          17.400
 126705276.87014                  24111214.484
        29.600
 129168585.421 6 100651030.57543  24579893.789    24579902.551
        39.700          23.800
 118043352.030 7  91981871.39445  22462893.500    22462902.027
        47.000          33.700
 124987083.752 6  97392616.30544  23784245.234    23784254.820
        39.700          24.600
 118486351.175 7  92327169.27245  22547138.797    22547143.164
        45.500          35.000
 106499930.023 8  82987134.14847  20266188.758    20266195.000
        52.400          43.900
 105682117.702 8  82349796.74647  20110585.156    20110589.582
        50.200          43.400
 107381217.499 8  83673834.00947  20433902.016    20433910.660
        52.500          44.400
 15  3 15  1 27  0.0000000  0 10G07G16G28G27G30G09G19G04G11G01
 107125991.565 8  83474792.52847  20385364.656    20385369.082
        53.300          43.800
 126515322.921 6  98583449.27143  24075070.617    24075091.980
        39.400          20.900
 132905376.454 6 103562636.26742  25291049.625    25291055.398
        38.100          17.400
 129240926.013 6 100707399.85643  24593661.188    24593669.246
        39.500          22.500
 117960569.562 7  91917365.64745  22447141.016    22447147.902
        47.700          34.100
 125042258.844 6  97435609.83344  23794743.656    23794753.594
        39.500          24.600
 118561683.217 7  92385869.58645  22561473.602    22561477.793
        45.300          34.200
 106512076.472 8  82996598.95047  20268500.133    20268506.492
        52.700          43.600
 105682115.495 8  82349795.08447  20110585.156    20110589.055
        50.900          43.000
 107336942.466 8  83639334.08247  20425476.680    20425485.266
        53.600          45.100
 15  3 15  1 27 30.0000000  0 10G07G16G28G27G30G09G19G04G11G01
 107090149.563 8  83446863.72347  20378544.453    20378549.113
        52.700          44.000
 126554901.967 6  98614289.45543  24082603.609    24082623.625
        41.200          21.700
 132851290.328 6 103520491.31142  25280757.977    25280762.578
        36.600          16.300
 129313127.121 6 100763660.47843  24607400.734    24607409.262
        38.600          22.000
 117878112.551 8  91853113.49945  22431450.023    22431457.145
        48.100          35.100
 125097443.211 6  97478610.54644  23805245.328    23805256.145
        40.700          24.400
 118637014.527 7  92444569.33545  22575808.820    22575812.250
        45.000          34.300
 106524831.118 8  83006537.67947  20270927.508    20270933.691
        52.300          44.000
 105682653.037 8  82350213.99547  20110686.961    20110691.094
        50.200          43.500
 107293211.750 8  83605258.30747  20417155.078    20417163.898
        52.000          44.500
 15  3 15  1 28  0.0000000  0 10G07G16G28G27G30G09G19G04G11G01
 107054876.630 8  83419378.34947  20371831.828    20371836.723
        53.500          43.600
 126594639.014 6  98645252.73243  24090165.422    24090186.551
        41.000          20.600
 132797019.949 6 103478202.80842  25270431.234    25270435.016
        39.200          17.800
 129385187.237 6 100819811.20843  24621112.656    24621121.184
        38.100          23.300
 117795982.490 7  91789116.10145  22415820.805    22415827.574
        47.600          34.900
 125152633.040 6  97521615.52343  23815747.461    23815758.102
        41.800          23.000
 118712342.259 7  92503266.28045  22590143.258    22590146.453
        45.700          34.600
 106538192.316 8  83016949.03947  20273469.391    20273476.102
        53.200          44.200
 105683728.554 8  82351052.10947  20110891.563    20110895.637
        52.100          43.300
 107250025.880 8  83571607.08447  20408936.867    20408944.984
        53.200          44.700
 15  3 15  1 28 30.0000000  0 12G07G16G28G23G27G30G09G19G04G11G01G17
 107020174.404 8  83392337.68147  20365228.445    20365232.930
        52.900          43.900
 126634536.037 6  98676340.68243  24097757.680    24097779.570
        41.700          19.900
 132742565.145 6 103435770.58943  25260067.570    25260072.230
        39.200          19.000
 126972346.12615                  24162035.945
        35.200
 129457105.997 6 100875851.80743  24634799.375    24634807.316
        38.000          22.200
 117714182.348 7  91725375.80945  22400254.609    22400261.906
        47.600          34.300
 125207825.853 7  97564622.81943  23826251.188    23826260.301
        42.100          21.800
 118787665.031 7  92561959.36045  22604476.586    22604480.602
        45.500          34.400
 106552159.388 8  83027832.50747  20276127.734    20276133.977
        53.400          44.500
 105685341.805 8  82352309.23247  20111198.461    20111203.238
        49.600          43.000
 107207386.609 8  83538381.77747  20400822.469    20400831.230
        52.800          44.900
 131357175.17115                  24996438.211
        30.700
 15  3 15  1 29  0.0000000  0 11G07G16G28G27G30G09G19G04G11G01G17
 106986045.267 8  83365743.57547  20358733.563    20358738.223
        53.200          43.700
 126674594.442 6  98707554.40843  24105382.469    24105403.188
        41.500          21.500
 132687926.380 6 103393195.02342  25249670.102    25249674.234
        36.700          16.300
 129528883.768 6 100931782.54444  24648457.258    24648466.430
        37.500          24.400
 117632715.648 8  91661895.33445  22384752.609    22384759.027
        48.400          35.300
 125263019.840 6  97607631.06844  23836754.695    23836763.691
        41.700          24.800
 118862981.764 7  92620647.75845  22618809.469    22618812.547
        46.800          35.300
 106566732.911 8  83039188.53847  20278901.031    20278907.098
        52.500          44.700
 105687493.124 8  82353985.63247  20111607.742    20111612.695
        51.000          42.900
 107165296.382 8  83505584.30147  20392813.172    20392821.992
        51.800          44.900
 131306059.09815                  24986714.250
        31.900
 15  3 15  1 29 30.0000000  0 11G07G16G28G27G30G09G19G04G11G01G17
 106952489.497 8  83339596.25147  20352348.680    20352353.281
        53.400          43.900
 126714814.099 7  98738893.72143  24113036.313    24113057.676
        42.000          21.800
 132633102.077 6 103350474.88442  25239236.430    25239241.793
        37.500          17.400
 129600518.734 6 100987601.97943  24662087.719    24662097.188
        37.100          21.300
 117551583.524 8  91598675.54845  22369313.453    22369320.340
        48.600          34.800
 125318210.979 6  97650637.10244  23847256.289    23847266.227
        39.800          24.800
 118938289.647 7  92679329.24545  22633140.523    22633143.484
        46.300          35.700
 106581910.778 8  83051015.47847  20281789.008    20281795.191
        52.300          44.300
 105690180.048 8  82356079.38547  20112119.188    20112123.203
        50.200          43.300
 107123755.262 8  83473214.70447  20384907.836    20384916.773
        51.500          44.700
 131255157.93215                  24977027.180
        33.000
 15  3 15  1 30  0.0000000  0 12G07G16G28G23G27G30G09G19G04G11G01G17
 106919509.865 8  83313897.86547  20346072.656    20346077.434
        53.400          44.300
 126755196.819 7  98770360.11143  24120720.930    24120742.469
        42.000          20.600
 132578093.517 6 103307611.14143  25228768.508    25228774.340
        37.500          18.300
 127170880.70715                  24199812.383
        34.300
 129672011.655 6 101043310.74643  24675692.695    24675702.750
        37.200          21.100
 117470789.974 7  91535719.58645  22353937.789    22353946.199
        47.500          34.400
 125373397.851 6  97693639.77843  23857758.180    23857768.820
        39.400          23.800
 119013587.719 7  92738003.07945  22647468.906    22647472.336
        47.200          35.200
 106597693.612 8  83063313.83047  20284792.258    20284798.969
        52.700          44.500
 105693403.133 8  82358590.92247  20112732.711    20112736.902
        51.900          43.500
 107082765.942 8  83441275.06947  20377107.539    20377116.535
        51.900          44.500
 131204472.213 5                  24967382.945
        33.500
 15  3 15  1 30 30.0000000  0 11G07G16G28G27G30G09G19G04G11G01G17
 106887107.448 8  83288649.25947  20339906.570    20339911.230
        53.100          44.100
 126795743.064 7  98801953.95343  24128437.750    24128459.465
        43.000          21.500
 132522900.278 6 103264603.50542  25218265.578    25218271.645
        37.700          16.900
 129743361.479 6 101098907.99143  24689270.664    24689279.777
        37.300          20.600
 117390337.064 8  91473029.07646  22338628.656    22338636.656
        48.100          36.200
 125428577.240 6  97736636.63243  23868257.438    23868269.133
        39.400          22.600
 119088874.038 7  92796667.74745  22661794.430    22661798.797
        46.500          35.000
 106614080.197 8  83076082.63447  20287910.922    20287917.281
        52.600          44.700
 105697161.337 8  82361519.44547  20113447.477    20113451.551
        52.600          43.600
 107042329.427 8  83409766.19547  20369412.789    20369421.551
        52.700          44.900
 131154001.357 5                  24957778.164
        31.600
 15  3 15  1 31  0.0000000  0 12G07G16G28G23G27G30G09G19G04G11G01G17
 106855283.891 8  83263851.70547  20333850.609    20333855.152
        53.200          43.600
 126836454.026 7  98833676.07843  24136184.445    24136206.219
        42.000          21.500
 132467521.921 6 103221451.62343  25207727.117    25207733.652
        37.500          19.900
 127302252.72515                  24224830.906
        30.500
 129814568.067 6 101154393.62143  24702819.305    24702830.648
        37.600          20.900
 117310227.563 8  91410606.15345  22323384.969    22323392.266
        48.400          35.200
 125483746.625 6  97779625.68643  23878756.453    23878767.680
        38.800          22.900
 119164146.836 7  92855321.87445  22676119.320    22676122.457
        46.100          34.600
 106631069.909 8  83089321.41147  20291143.461    20291149.996
        52.400          44.100
 105701453.753 8  82364864.22947  20114264.375    20114268.391
        51.200          43.000
 107002447.261 8  83378689.28247  20361823.477    20361832.355
        52.100          44.800
 131103745.40414                  24948211.594
        28.900
 15  3 15  1 31 30.0000000  0 11G07G16G28G27G30G09G19G04G11G01G17
 106824040.684 8  83239506.38147  20327905.250    20327909.910
        52.900          44.400
 126877331.090 6  98865527.64843  24143963.391    24143985.457
        41.400          21.300
 132411959.153 6 103178156.00742  25197154.516    25197158.766
        38.400          17.800
 129885631.154 6 101209767.44643  24716342.703    24716352.992
        37.900          19.900
 117230464.286 8  91348453.00246  22308206.695    22308213.465
        49.400          36.400
 125538903.753 6  97822605.17743  23889252.320    23889264.191
        38.700          21.700
 119239404.864 7  92913964.50345  22690440.055    22690443.895
        46.200          34.600
 106648662.516 8  83103029.96447  20294491.672    20294498.090
        52.500          44.000
 105706280.083 8  82368625.05047  20115183.047    20115186.887
        51.500          43.500
 106963121.141 8  83348045.65247  20354340.172    20354348.875
        52.900          45.600
 131053702.89815                  24938692.773
        33.000
 15  3 15  1 32  0.0000000  0 12G07G16G28G27G30G09G32G19G04G11G01G17
 106793379.275 8  83215614.38847  20322070.617    20322074.750
        52.300          43.800
 126918374.939 6  98897509.14643  24151773.516    24151796.637
        41.400          20.100
 132356211.833 6 103134716.64143  25186545.086    25186550.918
        38.500          19.000
 129956550.077 6 101265028.91543  24729839.578    24729848.574
        40.100          20.900
 117151049.655 8  91286571.53045  22293094.234    22293100.887
        48.700          35.900
 125594045.755 6  97865572.86943  23899746.469    23899756.934
        39.100          22.900
 125977548.85316                  23972731.078
        37.600
 119314646.325 7  92972594.21345  22704758.344    22704761.656
        45.500          34.200
 106666856.671 8  83117207.26347  20297953.539    20297960.016
        53.200          44.600
 105711639.242 8  82372801.06847  20116202.688    20116206.820
        51.800          43.500
 106924352.209 8  83317836.19247  20346962.492    20346971.371
        52.800          45.100
 131003874.041 5                  24929208.820
        32.800
 15  3 15  1 32 30.0000000  0 13G07G16G28G23G27G30G09G32G19G04G11G01
                                G17
 106763298.763 8  83192175.04847  20316346.828    20316351.430
        52.900          44.700
 126959583.925 7  98929619.34643  24159617.047    24159639.641
        42.800          21.700
 132300277.532 6 103091131.51643  25175902.242    25175906.902
        37.700          19.000
 127498220.59215                  24262098.063
        31.900
 130027322.528 6 101320176.28043  24743306.508    24743316.680
        39.900          22.000
 117071984.163 8  91224962.10845  22278048.047    22278054.816
        48.800          35.500
 125649167.878 6  97908525.08443  23910235.852    23910246.668
        38.700          22.300
 125931758.755 5                  23964018.750
        34.300
 119389867.340 7  93031208.00245  22719071.648    22719075.664
        45.800          34.000
 106685649.923 8  83131851.39247  20301529.664    20301536.023
        52.800          43.700
 105717528.695 8  82377390.30347  20117323.031    20117327.164
        51.400          43.400
 106886139.729 8  83288060.33247  20339690.875    20339699.578
        52.200          45.300
 130954256.35714                  24919763.477
        28.000
 15  3 15  1 33  0.0000000  0 13G03G07G16G28G23G27G30G09G32G19G04G11
                                G01
 127528749.14516                  24267914.523
        36.400
 106733802.060 8  83169190.62647  20310733.945    20310737.961
        53.700          44.300
 127000960.821 6  98961860.32343  24167490.906    24167513.559
        40.700          20.600
 132244157.589 6 103047401.80643  25165223.141    25165227.039
        38.600          18.600
 127563102.30715                  24274451.359
        35.300
 130097949.323 6 101375210.11143  24756746.781    24756756.250
        39.300          22.600
 116993271.920 7  91163627.95045  22263069.750    22263076.520
        47.800          35.100
 125704268.960 6  97951460.91543  23920720.195    23920731.539
        37.600          21.500
 125886042.121 5                  23955319.680
        35.600
 119465067.847 7  93089805.80245  22733382.094    22733385.348
        46.000          34.000
 106705042.766 8  83146962.73447  20305220.086    20305226.270
        51.900          44.200
 105723948.557 8  82382392.83947  20118544.664    20118549.324
        51.100          43.200
 106848486.539 8  83258720.28147  20332525.977    20332534.680
        51.800          45.300
 15  3 15  1 33 30.0000000  0 12G03G07G16G28G27G30G09G32G19G04G11G01
 127466754.02916                  24256126.117
        36.100
 106704890.756 8  83146662.35747  20305231.602    20305236.145
        52.200          44.100
 127042506.958 6  98994233.17543  24175398.492    24175421.086
        41.300          21.300
 132187852.300 6 103003527.61143  25154509.359    25154513.844
        38.500          18.600
 130168430.477 6 101430130.46243  24770156.375    24770167.543
        36.800          19.300
 116914915.872 8  91102571.34445  22248159.383    22248165.625
        48.500          35.600
 125759346.627 6  97994378.51743  23931199.844    23931213.121
        36.200          19.900
 125840401.523 6                  23946632.961
        36.800
 119540246.049 7  93148386.22045  22747687.992    22747692.125
        47.100          34.500
 106725034.775 8  83162540.96347  20309024.492    20309030.793
        52.600          44.500
 105730898.365 8  82387808.32047  20119867.164    20119871.414
        51.800          43.700
 106811394.257 8  83229817.30047  20325467.180    20325475.941
        52.500          45.100
 15  3 15  1 34  0.0000000  0 11G07G16G28G27G30G09G32G19G04G11G01
 106676567.712 8  83124592.46847  20299842.180    20299846.313
        52.900          44.500
 127084224.356 6  99026739.53243  24183336.969    24183360.738
        40.000          20.100
 132131363.179 6 102959510.18043  25143760.672    25143763.164
        39.400          19.600
 130238766.976 6 101484938.11743  24783541.094    24783552.965
        37.900          20.900
 116836919.913 8  91041795.32845  22233316.727    22233323.613
        48.300          35.700
 125814399.770 6  98037276.97143  23941678.492    23941689.133
        37.700          21.700
 125794841.130 6  98022053.65452  23937964.953    23937988.016
        37.900          14.800
 119615402.022 7  93206949.30445  22761989.727    22761993.977
        47.100          34.600
 106745625.951 8  83178586.07247  20312942.617    20312949.094
        52.900          44.300
 105738378.257 8  82393636.85747  20121290.375    20121294.332
        52.000          43.000
 106774865.403 8  83201353.35247  20318516.141    20318525.371
        53.000          45.500
 15  3 15  1 34 30.0000000  0 12G03G07G16G28G27G30G09G32G19G04G11G01
 127342351.72515                  24232457.453
        34.300
 106648832.115 8  83102980.34047  20294564.070    20294568.496
        53.200          43.900
 127126112.052 6  99059378.52643  24191309.109    24191331.762
        41.700          21.700
 132074687.970 6 102915347.77243  25132975.328    25132979.109
        39.600          19.000
 130308956.177 6 101539630.93843  24796899.266    24796909.379
        37.800          21.100
 116759284.484 7  90981300.23445  22218542.938    22218550.234
        47.900          35.700
 125869423.533 5  98080152.55843  23952148.461    23952159.570
        35.900          19.600
 125749361.685 6  97986615.25842  23929310.063    23929335.121
        36.800          14.800
 119690532.005 7  93265492.16045  22776286.625    22776290.875
        47.500          34.100
 106766813.662 8  83195096.00547  20316974.484    20316980.668
        52.300          43.900
 105746385.670 8  82399876.45647  20122814.742    20122818.523
        51.500          43.300
 106738899.178 8  83173327.80747  20311671.930    20311680.574
        52.700          45.500
 15  3 15  1 35  0.0000000  0 13G03G07G16G28G23G27G30G09G32G19G04G11
                                G01
 127279865.68015                  24220572.797
        33.600
 106621687.116 8  83081828.41747  20289398.813    20289403.180
        53.500          44.300
 127168172.139 6  99092151.84243  24199312.867    24199336.227
        39.900          21.500
 132017828.705 6 102871041.92043  25122153.313    25122159.086
        39.600          19.600
 127820841.30214                  24323493.227
        28.600
 130378999.660 6 101594210.21843  24810228.344    24810238.340
        37.900          21.300
 116682013.978 7  90921089.49845  22203839.297    22203845.598
        47.900          35.500
 125924417.131 6  98123004.59643  23962614.766    23962624.762
        38.100          19.600
 125703967.692 6  97951243.43642  23920672.188    23920696.426
        36.900          15.600
 119765636.314 7  93324014.98645  22790578.664    22790582.445
        47.800          34.200
 106788598.618 8  83212071.33747  20321120.367    20321126.668
        52.200          44.200
 105754921.573 8  82406527.86047  20124438.469    20124443.188
        51.600          43.400
 106703498.599 8  83145743.03047  20304935.023    20304943.727
        52.400          45.400
 15  3 15  1 35 30.0000000  0 12G03G07G16G28G27G30G09G32G19G04G11G01
 127217189.77715                  24208648.797
        32.300
 106595132.683 8  83061136.66647  20284345.555    20284350.391
        52.700          44.700
 127210405.229 6  99125060.00043  24207350.086    24207374.207
        40.000          20.900
 131960784.138 6 102826591.68743  25111298.305    25111303.844
        38.900          18.600
 130448896.148 6 101648674.94443  24823529.789    24823538.961
        40.400          21.300
 116605110.032 8  90861164.38446  22189205.109    22189211.645
        48.000          36.800
 125979377.153 6  98165830.49143  23973072.305    23973083.297
        36.000          18.300
 125658660.859 6  97915939.53442  23912049.188    23912075.535
        37.500          16.900
 119840712.306 7  93382515.75845  22804865.492    22804868.395
        47.500          34.000
 106810979.248 8  83229510.82647  20325379.148    20325385.098
        52.700          43.300
 105763983.772 8  82413589.36247  20126162.898    20126166.738
        51.400          42.700
 106668663.955 8  83118599.23247  20298306.078    20298314.840
        53.300          45.500
 15  3 15  1 36  0.0000000  0 12G03G07G16G28G27G30G09G32G19G04G11G01
 127154342.98815                  24196691.648
        30.500
 106569169.306 8  83040905.48447  20279404.891    20279409.375
        53.400          44.100
 127252811.190 6  99158102.85443  24215418.813    24215444.105
        38.500          20.400
 131903553.516 6 102781996.47243  25100407.727    25100413.148
        37.900          19.600
 130518644.452 6 101703024.24643  24836802.875    24836811.344
        40.000          21.300
 116528574.374 8  90801526.26146  22174641.008    22174647.309
        48.000          36.800
 126034300.164 6  98208627.54843  23983523.875    23983535.160
        36.700          18.600
 125613442.826 6  97880704.48842  23903446.742    23903471.098
        38.600          17.400
 119915757.728 7  93440992.70645  22819145.758    22819148.602
        46.600          33.000
 106833953.543 8  83247412.91647  20329751.367    20329756.965
        52.400          44.000
 105773570.523 8  82421059.61047  20127987.500    20127991.398
        50.800          43.500
 106634395.637 8  83091896.73547  20291785.109    20291793.168
        52.400          45.900
 15  3 15  1 36 30.0000000  0 12G03G07G16G28G27G30G09G32G19G04G11G01
 127091334.61916                  24184702.688
        37.600
 106543799.593 8  83021136.90147  20274577.125    20274581.434
        52.300          44.700
 127295392.422 6  99191282.22243  24223524.609    24223548.203
        38.900          20.600
 131846138.582 6 102737257.58843  25089481.594    25089486.957
        38.700          19.600
 130588245.672 6 101757258.90943  24850047.555    24850055.379
        40.600          19.600
 116452410.936 7  90742178.17145  22160146.984    22160154.398
        47.900          35.900
 126089185.049 6  98251394.94643  23993968.727    23993979.660
        36.800          19.600
 125568317.774 6  97845541.83142  23894859.086    23894882.855
        38.700          16.300
 119990772.145 7  93499445.48045  22833419.602    22833423.500
        45.900          33.200
 106857521.889 8  83265777.91347  20334236.203    20334242.387
        52.600          44.000
 105783682.064 8  82428938.78047  20129911.586    20129915.250
        51.100          43.500
 106600696.196 8  83065637.51147  20285372.336    20285380.512
        52.700          45.500
 15  3 15  1 37  0.0000000  0 11G07G16G28G27G30G09G32G19G04G11G01
 106519023.832 8  83001831.12747  20269862.594    20269866.434
        53.200          44.600
 127338148.769 6  99224598.33643  24231661.070    24231685.426
        41.300          21.300
 131788537.919 6 102692374.07443  25078521.641    25078525.773
        38.600          19.300
 130657698.306 6 101811377.78443  24863263.195    24863271.547
        38.600          19.000
 116376621.177 8  90683121.26246  22145725.141    22145731.617
        48.300          36.500
 126144028.143 5  98294129.73443  24004404.359    24004416.875
        35.300          18.300
 125523288.331 6  97810453.77242  23886290.430    23886315.020
        37.400          16.900
 120065753.129 7  93557872.21445  22847688.523    22847692.539
        46.100          33.100
 106881682.203 8  83284604.17347  20338833.414    20338839.598
        53.800          44.200
 105794316.345 8  82437225.27847  20131934.602    20131939.262
        51.000          43.200
 106567565.636 8  83039821.56747  20279067.742    20279076.211
        52.600          45.900
 15  3 15  1 37 30.0000000  0 11G07G16G28G27G30G09G32G19G04G11G01
 106494843.259 8  82982989.13847  20265260.766    20265265.543
        53.900          44.400
 127381080.139 6  99258050.56043  24239828.688    24239854.508
        38.100          19.600
 131730751.879 6 102647346.07543  25067524.828    25067528.844
        39.200          19.600
 130727002.207 6 101865380.76542  24876451.898    24876459.664
        39.300          17.800
 116301207.630 7  90624357.49245  22131373.445    22131380.391
        47.600          35.600
 126198826.84015  98336829.90852  24014832.609    24014844.656
        31.500          16.300
 125478356.589 6  97775441.79242  23877739.203    23877765.258
        38.100          16.300
 120140699.075 7  93616271.65545  22861951.063    22861954.434
        46.400          33.800
 106906433.324 8  83303890.80647  20343543.508    20343549.105
        51.900          44.400
 105805472.491 8  82445918.43147  20134057.867    20134061.766
        50.300          43.100
 106535005.037 8  83014449.74847  20272871.391    20272880.621
        52.200          45.900
 15  3 15  1 38  0.0000000  0 13G03G07G16G28G27G30G09G32G19G04G11G01
                                G17
 126901434.00715                  24148543.445
        34.000
 106471259.779 8  82964612.41447  20260773.383    20260777.867
        53.100          44.400
 127424190.090 6  99291642.29243  24248034.773    24248059.129
        41.600          19.900
 131672781.591 6 102602174.43943  25056494.383    25056497.930
        40.300          20.100
 130796158.077 6 101919268.39343  24889612.031    24889620.090
        38.100          18.300
 116226173.866 7  90565889.67446  22117095.258    22117101.852
        47.800          36.600
 126253579.46415  98379494.24852  24025251.461    24025263.098
        32.800          16.900
 125433526.521 5  97740519.92252  23869210.453    23869233.813
        35.100          15.600
 120215609.833 7  93674643.67745  22876206.633    22876209.184
        46.500          33.300
 106931775.375 8  83323637.90747  20348366.078    20348371.559
        52.100          44.500
 105817150.255 8  82455018.04147  20136280.063    20136283.961
        50.100          43.200
 106503016.585 8  82989523.76247  20266784.195    20266792.605
        52.200          45.500
 130422370.40215                  24818550.930
        30.500
 15  3 15  1 38 30.0000000  0 13G03G07G16G28G27G30G09G32G19G04G11G01
                                G17
 126837767.11215                  24136426.211
        35.700
 106448273.235 8  82946700.83847  20256399.125    20256403.902
        53.600          44.300
 127467477.19916                  24256271.055
        41.200
 131614625.888 6 102556858.42043  25045426.883    25045431.250
        38.900          19.300
 130865164.427 6 101973039.52343  24902742.781    24902751.309
        39.300          20.900
 116151521.258 8  90507718.83846  22102889.742    22102896.043
        49.300          36.400
 126308282.643 5  98422119.95542  24035662.016    24035673.125
        31.300          15.600
 125388799.895 5  97705667.51642  23860699.477    23860723.832
        35.400          14.800
 120290481.926 7  93732985.55445  22890453.734    22890456.227
        46.100          33.300
 106957705.951 8  83343843.60447  20353300.031    20353305.980
        52.600          43.700
 105829347.440 8  82464522.38947  20138601.508    20138605.465
        51.100          43.400
 106471600.149 8  82965043.50747  20260805.766    20260814.176
        52.400          45.400
 130375266.88015                  24809587.016
        32.600
 15  3 15  1 39  0.0000000  0 13G03G07G16G28G27G30G09G32G19G04G11G01
                                G17
 126773941.20716                  24124280.766
        41.100
 106425885.086 8  82929255.54247  20252138.922    20252143.113
        53.000          44.600
 127510942.583 6  99359349.80243  24264544.234    24264568.355
        37.900          20.900
 131556284.878 6 102511397.95643  25034324.180    25034329.133
        38.300          18.300
 130934021.062 6 102026694.03343  24915846.992    24915854.172
        39.300          18.600
 116077252.486 7  90449847.11146  22088756.438    22088763.441
        47.400          36.800
 126362933.782 5  98464705.16542  24046059.922    24046072.262
        33.000          17.400
 125344179.978 6  97670898.36942  23852207.688    23852233.625
        36.900          16.900
 120365314.491 7  93791296.63345  22904693.203    22904696.926
        44.300          32.100
 106984224.191 8  83364507.20847  20358346.711    20358352.543
        51.500          44.000
 105842063.327 8  82474430.91847  20141020.844    20141024.391
        49.600          42.800
 106440756.938 8  82941009.91747  20254936.438    20254945.551
        51.600          45.800
 130328368.805 6                  24800663.961
        36.300
 15  3 15  1 39 30.0000000  0 13G03G07G16G28G27G30G09G32G19G04G11G01
                                G17
 126709957.72516                  24112103.375
        38.900
 106404098.479 8  82912278.98247  20247992.914    20247997.223
        52.600          44.800
 127554588.850 5                  24272850.023
        32.200
 131497761.308 5 102465795.27543  25023186.383    25023192.918
        35.800          18.300
 131002730.339 6 102080233.61643  24928920.625    24928929.855
        39.700          19.900
 116003372.454 8  90392278.29346  22074697.500    22074704.504
        48.500          37.000
 126417532.620 5  98507249.55042  24056451.422    24056462.004
        35.500          17.400
 125299671.365 5  97636215.89152  23843737.570    23843763.156
        34.800          14.800
 120440108.607 7  93849577.74445  22918926.273    22918929.703
        45.000          33.400
 107011331.232 8  83385629.63047  20363504.320    20363510.445
        51.900          43.400
 105855299.142 8  82484744.59047  20143539.438    20143543.219
        51.400          43.500
 106410490.303 8  82917425.60747  20249176.906    20249185.375
        52.600          45.800
 130281677.717 5                  24791775.461
        31.800
 15  3 15  1 40  0.0000000  0 13G03G07G16G28G27G30G09G32G19G04G11G01
                                G17
 126645791.29816                  24099894.211
        36.300
 106382913.117 8  82895770.92647  20243961.648    20243965.840
        53.700          44.400
 127598416.353 6  99427519.94043  24281190.508    24281214.746
        38.100          18.300
 131439053.518 5 102420049.02042  25012013.094    25012021.328
        34.700          17.400
 131071290.419 6 102133657.00643  24941966.688    24941976.801
        39.000          19.300
 115929882.149 7  90335013.15446  22060712.922    22060719.926
        47.900          36.200
 126472075.590 6  98549750.46443  24066830.828    24066842.172
        38.100          19.900
 125255276.34715                  23835290.055
        34.500
 120514861.134 7  93907826.46545  22933151.133    22933154.738
        46.000          32.400
 107039024.521 8  83407208.85647  20368774.125    20368779.840
        51.700          43.300
 105869051.988 8  82495461.15447  20146156.523    20146160.246
        50.700          43.200
 106380799.783 8  82894290.22247  20243526.875    20243534.875
        52.900          45.600
 130235191.988 5                  24782929.219
        33.900
 15  3 15  1 40 30.0000000  0 12G07G16G28G27G30G09G32G19G04G11G01G17
 106362328.529 8  82879730.99547  20240044.508    20240048.523
        53.800          44.600
 127642425.17016                  24289565.102
        40.200
 131380160.466 5 102374158.41843  25000806.391    25000814.742
        35.800          19.000
 131139699.621 6 102186962.79743  24954985.188    24954994.832
        39.000          18.600
 115856782.478 7  90278052.39546  22046802.969    22046808.801
        47.500          36.500
 126526558.264 6  98592204.37043  24077197.789    24077209.016
        38.100          19.000
 125210995.05315                  23826864.680
        33.900
 120589569.292 7  93966040.58945  22947367.852    22947371.340
        47.200          32.800
 107067301.236 8  83429242.70747  20374155.438    20374160.918
        51.400          43.200
 105883319.433 8  82506578.68547  20148871.555    20148875.512
        50.300          43.100
 106351684.786 8  82871603.28447  20237986.547    20237994.781
        53.100          45.700
 130188909.203 5 101445922.16442  24774122.414    24774130.063
        34.700          14.800
 15  3 15  1 41  0.0000000  0 13G03G07G16G28G27G30G09G32G19G04G11G01
                                G17
 126517038.46915  98584732.38653  24075384.414    24075398.805
        32.300          19.300
 106342346.363 8  82864160.49647  20236241.875    20236246.652
        52.900          44.300
 127686620.393 5                  24297975.133
        32.300
 131321082.608 6 102328123.75743  24989565.953    24989571.316
        37.100          18.600
 131207958.231 6 102240151.25243  24967974.438    24967984.961
        38.700          19.600
 115784076.667 8  90221398.54546  22032966.898    22032973.258
        48.900          37.200
 126580979.235 6  98634610.21542  24087554.797    24087565.438
        36.900          17.400
 125166831.75815                  23818460.977
        33.100
 120664232.246 7  94024219.50145  22961575.445    22961579.285
        46.100          32.800
 107096160.994 8  83451730.86747  20379646.938    20379652.652
        51.300          43.900
 105898101.122 8  82518096.93947  20151683.891    20151688.141
        51.300          43.400
 106323146.916 8  82849366.07347  20232555.609    20232564.371
        51.800          45.800
 130142829.465 5 101410016.07342  24765353.313    24765361.547
        34.100          15.600
 15  3 15  1 41 30.0000000  0 12G07G16G28G27G30G09G32G19G04G11G01G17
 106322971.169 8  82849062.96447  20232554.523    20232559.652
        53.700          44.700
 127730995.802 5                  24306419.078
        32.600
 131261824.012 6 102281948.33743  24978289.266    24978294.570
        37.300          18.600
 131276069.825 6 102293225.15243  24980936.336    24980946.977
        38.100          19.900
 115711770.840 8  90165056.37846  22019207.281    22019214.051
        48.200          36.900
 126635339.462 6  98676968.66942  24097896.961    24097910.355
        36.800          16.300
 125122793.83915                  23810081.352
        33.900
 120738852.034 7  94082364.79145  22975774.945    22975779.137
        43.900          32.400
 107125605.940 8  83474675.02747  20385250.422    20385256.723
        51.400          43.800
 105913399.401 8  82530017.72147  20154595.625    20154599.582
        50.900          43.500
 106295190.747 8  82827582.12947  20227236.320    20227244.438
        52.100          46.400
 130096955.93815                  24756623.391
        32.300
 15  3 15  1 42  0.0000000  0 12G03G07G28G27G30G09G32G19G04G11G01G17
 126387675.03714                  24050769.250
        29.400
 106304202.382 8  82834437.95047  20228983.266    20228987.516
        53.300          44.500
 131202383.330 6 102235630.94442  24966978.383    24966983.277
        37.500          17.400
 131344032.689 6 102346183.12543  24993868.836    24993879.359
        39.000          19.000
 115639865.970 7  90109026.64146  22005524.211    22005531.215
        47.200          36.400
 126689634.992 6  98719276.81643  24108230.359    24108242.465
        38.600          19.900
 125078881.737 5                  23801725.227
        35.200
 120813425.715 7  94140474.13145  22989965.766    22989970.250
        43.300          32.500
 107155633.418 8  83498073.09947  20390964.063    20390970.363
        51.200          43.200
 105929211.273 8  82542338.71047  20157604.430    20157608.211
        50.500          43.200
 106267815.645 8  82806250.96547  20222026.359    20222034.945
        51.900          45.800
 130051286.696 5 101338684.56942  24747934.688    24747940.754
        35.300          16.900
 15  3 15  1 42 30.0000000  0 12G07G16G28G27G30G09G32G19G04G11G01G17
 106286037.851 8  82820283.79547  20225526.234    20225531.129
        52.800          44.100
 127820392.80415                  24323414.844
        31.000
 131142757.744 6 102189169.55542  24955632.000    24955636.074
        37.300          16.900
 131411843.916 6 102399022.92843  25006773.039    25006783.504
        38.600          19.600
 115568361.661 8  90053309.03646  21991917.477    21991924.480
        48.800          36.700
 126743860.365 6  98761530.22443  24118548.695    24118561.152
        39.400          19.900
 125035095.963 6                  23793394.617
        37.600
 120887949.284 7  94198544.42745  23004147.805    23004151.703
        44.600          31.900
 107186239.351 8  83521921.91547  20396788.227    20396794.000
        51.600          43.100
 105945533.069 8  82555057.03247  20160710.781    20160714.211
        50.800          43.900
 106241019.594 8  82785371.00747  20216926.891    20216935.301
        51.700          45.600
 130005818.033 5 101303254.64742  24739282.438    24739287.742
        33.000          16.300
 15  3 15  1 43  0.0000000  0 13G03G07G16G28G27G30G09G32G19G04G11G01
                                G17
 126257709.30816                  24026050.359
        39.500
 106268480.682 8  82806602.90547  20222185.305    20222190.023
        50.500          44.400
 127865339.07516                  24331962.867
        37.900
 131082949.652 6 102142565.92942  24944249.984    24944255.289
        37.000          17.800
 131479505.197 6 102451745.92743  25019648.820    25019659.051
        37.800          19.000
 115497262.442 8  89997907.07046  21978388.016    21978394.199
        49.100          37.100
 126798015.349 6  98803728.79343  24128856.133    24128866.832
        40.300          18.300
 124991440.531 5                  23785084.938
        34.300
 120962423.325 7  94256576.14445  23018319.828    23018323.434
        44.100          31.500
 107217424.511 8  83546222.07647  20402722.602    20402727.965
        51.100          43.900
 105962365.243 8  82568173.06147  20163913.438    20163917.160
        51.700          43.400
 106214805.521 8  82764944.54247  20211938.523    20211947.285
        51.900          46.000
 129960550.895 5 101267981.71942  24730667.430    24730673.496
        34.800          15.600
 15  3 15  1 43 30.0000000  0 13G03G07G16G28G27G30G09G32G19G04G11G01
                                G17
 126192510.44717                  24013650.078
        44.000
 106251529.225 8  82793393.99947  20218959.664    20218964.148
        53.100          44.400
 127910454.580 5                  24340550.344
        34.100
 131022956.734 6 102095818.22342  24932834.844    24932839.680
        37.600          17.800
 131547014.215 6 102504350.24943  25032495.773    25032504.770
        37.600          19.600
 115426568.304 8  89942820.75346  21964935.031    21964942.152
        48.500          37.100
 126852095.118 6  98845868.73543  24139144.930    24139157.621
        38.700          20.400
 124947916.395 5  97362137.28142  23776802.680    23776829.203
        33.400          16.300
 121036844.138 7  94314566.37145  23032480.953    23032485.672
        44.900          31.600
 107249184.857 8  83570970.43647  20408766.094    20408772.219
        51.200          43.100
 105979703.982 8  82581683.81747  20167212.734    20167216.457
        51.400          43.300
 106189171.819 8  82744970.31447  20207061.102    20207069.395
        52.200          46.600
 129915482.595 5 101232863.83542  24722090.211    24722096.805
        35.300          17.400
 15  3 15  1 44  0.0000000  0 12G07G16G28G27G30G09G32G19G04G11G01G17
 106235183.924 8  82780657.43047  20215848.922    20215853.641
        52.400          44.500
 127955756.02615                  24349168.984
        34.300
 130962778.922 6 102048926.53842  24921383.461    24921387.535
        37.900          17.800
 131614370.236 6 102556835.34742  25045312.211    25045322.441
        37.000          17.400
 115356281.323 7  89888051.70846  21951559.836    21951566.957
        46.800          37.500
 126906096.728 6  98887947.77543  24149422.844    24149434.480
        39.400          19.900
 124904526.187 5  97328326.91542  23768547.516    23768572.457
        35.100          17.400
 121111209.685 7  94372513.52445  23046632.500    23046637.395
        46.200          32.100
 107281518.928 8  83596165.85547  20414919.648    20414925.246
        51.400          44.100
 105997547.863 8  82595588.18247  20170608.648    20170612.020
        50.400          43.400
 106164118.870 8  82725448.61447  20202293.086    20202301.730
        51.700          45.800
 129870612.047 5 101197899.99142  24713551.766    24713558.184
        35.000          15.600
 15  3 15  1 44 30.0000000  0 12G03G07G28G27G30G09G32G19G04G11G01G17
 126061715.67016                  23988764.539
        37.700
 106219445.283 8  82768393.57547  20212854.359    20212858.727
        53.100          44.300
 130902416.316 6 102001890.85643  24909898.305    24909900.973
        39.400          18.300
 131681573.048 5 102609201.06542  25058100.438    25058111.195
        35.700          17.800
 115286403.666 8  89833601.61346  21938262.789    21938269.852
        48.200          37.700
 126960017.727 6  98929964.00043  24159681.914    24159694.840
        38.900          20.100
 124861272.229 5  97294622.69042  23760314.781    23760341.305
        35.200          16.900
 121185518.826 7  94430416.73745  23060773.539    23060777.438
        46.800          32.700
 107314424.945 8  83621806.94747  20421181.086    20421187.445
        51.400          44.100
 106015895.428 8  82609885.03047  20174100.109    20174103.305
        51.200          43.800
 106139647.181 8  82706379.85247  20197636.289    20197644.758
        51.800          45.800
 129825938.727 5 101163089.75842  24705047.258    24705056.902
        34.300          16.900
 15  3 15  1 45  0.0000000  0 13G03G07G16G28G27G30G09G32G19G04G11G01
                                G17
 125996122.39315                  23976280.430
        35.800
 106204315.273 8  82756603.98547  20209975.055    20209979.188
        52.100          44.500
 128046721.52714                  24366517.555
        29.600
 130841870.092 6 101954712.01542  24898376.203    24898378.637
        40.100          16.900
 131748623.537 5 102661448.11042  25070858.414    25070869.465
        35.800          17.800
 115216938.957 7  89779473.28646  21925043.523    21925051.172
        47.600          37.400
 127013856.662 6  98971916.26743  24169929.547    24169940.129
        40.500          20.100
 124818158.908 5  97261028.31443  23752110.227    23752135.988
        34.800          18.300
 121259771.244 7  94488275.75145  23074903.344    23074906.891
        45.000          32.000
 107347902.845 8  83647893.65847  20427551.586    20427557.535
        51.500          43.400
 106034746.504 8  82624574.21747  20177687.109    20177690.422
        51.100          43.500
 106115758.647 8  82687765.49447  20193090.492    20193099.137
        52.800          46.000
 129781462.570 6 101128433.30643  24696586.477    24696593.070
        37.300          18.600
 15  3 15  1 45 30.0000000  0 12G07G16G28G27G30G09G32G19G04G11G01G17
 106189794.400 8  82745289.04447  20207212.086    20207216.512
        52.500          44.700
 128092585.19915                  24375245.641
        35.800
 130781140.514 6 101907390.34442  24886819.977    24886822.293
        40.400          17.800
 131815521.452 5 102713576.23342  25083589.078    25083600.129
        35.500          17.400
 115147889.342 8  89725668.41946  21911904.570    21911911.281
        48.500          37.800
 127067611.147 6  99013802.74243  24180158.289    24180169.691
        39.800          20.600
 124775188.921 6  97227545.82842  23743934.133    23743959.602
        36.600          17.800
 121333965.282 7  94546089.27245  23089021.828    23089025.316
        44.300          32.400
 107381950.895 8  83674424.64147  20434031.063    20434036.660
        51.300          43.500
 106054099.481 8  82639654.49647  20181369.609    20181373.918
        51.200          43.600
 106092453.749 8  82669605.91447  20188655.727    20188663.902
        51.700          46.100
 129737182.942 6 101093929.86343  24688160.570    24688167.223
        38.900          19.000
 15  3 15  1 46  0.0000000  0 12G07G16G28G27G30G09G32G19G04G11G01G17
 106175885.233 8  82734450.75247  20204564.805    20204569.289
        51.900          44.500
 128138850.07614                  24384007.875
        26.400
 130720229.922 6 101859927.64443  24875229.164    24875231.539
        40.000          18.300
 131882268.693 5 102765586.99042  25096292.781    25096302.250
        35.000          17.800
 115079259.292 8  89672190.48346  21898844.914    21898850.922
        49.000          37.200
 127121280.690 6  99055623.05243  24190372.336    24190382.332
        39.000          21.300
 124732367.475 6  97194179.46643  23735783.555    23735809.258
        38.000          18.600
 121408101.957 7  94603858.09745  23103129.469    23103133.836
        44.000          31.400
 107416569.574 8  83701400.27147  20440618.469    20440624.418
        51.500          43.500
 106073955.094 8  82655126.44747  20185147.586    20185151.895
        50.300          43.200
 106069735.248 8  82651903.26047  20184332.453    20184340.570
        52.600          46.200
 129693100.970 6 101059580.44843  24679771.133    24679778.371
        37.800          19.600
 15  3 15  1 46 30.0000000  0 11G07G28G27G30G09G32G19G04G11G01G17
 106162587.321 8  82724088.76647  20202034.180    20202038.840
        51.000          44.500
 130659136.998 6 101812322.80543  24863602.164    24863605.711
        39.100          18.600
 131948497.95115 102817479.22752  25108964.891    25108975.121
        34.800          17.400
 115011049.905 8  89619040.32746  21885864.836    21885871.254
        49.500          38.300
 127174861.723 6  99097374.33643  24200567.273    24200578.793
        38.300          19.900
 124689695.877 6  97160930.14642  23727662.844    23727688.664
        37.200          17.800
 121482178.543 7  94661580.09345  23117225.898    23117230.734
        45.000          33.000
 107451756.167 8  83728818.43347  20447314.016    20447320.258
        51.100          42.900
 106094310.509 8  82670987.84647  20189021.867    20189024.828
        50.700          43.700
 106047602.461 8  82634657.01347  20180121.047    20180129.281
        52.000          46.600
 129649215.074 6 101025383.82243  24671421.273    24671426.813
        38.000          20.400
 15  3 15  1 47  0.0000000  0 11G07G28G27G30G09G32G19G04G11G01G17
 106149901.944 8  82714204.06847  20199620.273    20199624.406
        52.400          44.200
 130597862.834 6 101764576.77442  24851942.742    24851945.879
        39.200          17.400
 132014941.83016 102869253.57853  25121608.906    25121619.371
        37.000          19.300
 114943264.086 8  89566220.23746  21872965.352    21872971.711
        49.100          37.600
 127228352.397 6  99139055.17043  24210746.164    24210758.211
        39.000          20.400
 124647176.299 6  97127798.79542  23719570.531    23719595.590
        38.000          17.400
 121556194.574 7  94719254.89145  23131309.805    23131314.816
        45.900          32.600
 107487509.950 8  83756678.55547  20454118.141    20454123.680
        52.200          43.500
 106115165.245 8  82687238.33547  20192990.531    20192994.254
        51.000          44.100
 106026056.630 8  82617868.13147  20176020.508    20176029.211
        53.400          46.300
 129605524.833 6 100991339.69343  24663105.531    24663112.652
        37.900          20.100
 15  3 15  1 47 30.0000000  0 12G07G16G28G27G30G09G32G19G04G11G01G17
 106137829.452 8  82704796.94547  20197323.102    20197327.527
        52.300          44.900
 128277969.99315                  24410516.148
        31.000
 130536407.601 6 101716689.64042  24840246.406    24840251.711
        38.900          17.800
 132081233.992 5 102920909.71242  25134223.969    25134234.434
        34.800          17.800
 114875904.012 8  89513731.89746  21860147.023    21860154.145
        49.100          37.700
 127281749.911 6  99180663.47943  24220908.219    24220919.621
        38.800          22.000
 124604811.871 6  97094788.24442  23711506.828    23711534.699
        36.900          16.900
 121630148.352 7  94776881.18645  23145383.273    23145387.055
        46.300          31.700
 107523828.956 8  83784979.11447  20461029.094    20461034.809
        52.100          42.700
 106136517.776 8  82703876.71147  20197053.188    20197056.734
        49.800          43.900
 106005098.099 8  82601536.89347  20172032.219    20172040.512
        53.900          46.200
 129562029.109 6 100957447.12143  24654829.195    24654836.199
        38.600          18.600
 15  3 15  1 48  0.0000000  0 11G07G28G27G30G09G32G19G04G11G01G17
 106126370.285 8  82695867.74647  20195142.484    20195146.910
        52.400          44.500
 130474770.959 6 101668661.19142  24828517.586    24828522.012
        38.300          16.900
 132147373.990 5 102972447.25543  25146810.398    25146819.926
        35.700          18.600
 114808971.867 8  89461576.99646  21847410.117    21847416.711
        48.500          38.000
 127335052.004 6  99222197.44443  24231050.813    24231062.098
        39.000          19.900
 124562605.688 6  97061900.97243  23703476.852    23703501.266
        38.900          19.000
 121704038.402 7  94834457.82945  23159444.234    23159447.371
        45.800          31.200
 107560711.486 8  83813718.78147  20468047.508    20468053.398
        51.100          43.400
 106158365.794 8  82720901.17247  20201210.477    20201214.434
        50.700          43.200
 105984727.263 8  82585663.58347  20168156.070    20168163.660
        52.800          46.300
 129518727.812 6 100923706.04143  24646588.734    24646596.148
        38.400          21.500
 15  3 15  1 48 30.0000000  0 11G07G28G27G30G09G32G19G04G11G01G17
 106115524.778 8  82687416.71947  20193078.977    20193083.051
        51.500          44.300
 130412953.940 6 101620492.13642  24816753.625    24816759.281
        37.100          17.400
 132213361.995 6 103023866.32642  25159367.906    25159376.961
        37.800          16.900
 114742469.983 8  89409757.36346  21834755.469    21834761.477
        49.300          38.500
 127388256.120 6  99263655.03843  24241175.961    24241187.656
        38.400          21.100
 124520560.524 6  97029139.19042  23695474.344    23695499.754
        39.900          17.400
 121777863.526 7  94891983.89145  23173492.539    23173496.086
        45.000          31.200
 107598156.007 8  83842896.37147  20475172.914    20475178.688
        51.100          43.300
 106180708.107 8  82738310.80547  20205462.352    20205465.781
        50.100          43.600
 105964944.646 8  82570248.63347  20164391.250    20164399.484
        52.500          46.600
 129475619.298 6 100890115.14043  24638384.641    24638392.934
        39.300          21.300
 15  3 15  1 49  0.0000000  0 11G07G28G27G30G09G32G19G04G11G01G17
 106105293.209 8  82679444.08847  20191131.914    20191135.578
        52.500          44.600
 130350956.265 6 101572182.33442  24804955.984    24804959.766
        38.100          17.400
 132279197.615 5 103075166.67042  25171897.188    25171904.953
        35.600          17.400
 114676400.316 8  89358274.53046  21822182.727    21822189.672
        49.600          38.800
 127441359.693 6  99305034.25343  24251281.547    24251293.418
        36.900          19.900
 124478678.802 6  96996504.69243  23687505.641    23687529.117
        38.400          19.300
 121851622.177 7  94949458.16045  23187527.352    23187531.895
        43.700          30.700
 107636160.441 8  83872510.25347  20482404.844    20482411.086
        51.300          42.900
 106203543.240 8  82756104.44847  20209807.328    20209811.461
        50.500          43.500
 105945750.454 8  82555292.19447  20160738.664    20160746.898
        53.600          46.600
 129432702.359 6 100856673.60543  24630218.289    24630224.707
        37.600          19.300
 15  3 15  1 49 30.0000000  0 11G07G28G27G30G09G32G19G04G11G01G17
 106095676.447 8  82671950.52947  20189301.141    20189305.918
        50.300          44.500
 130288778.331 6 101523732.05542  24793123.383    24793128.688
        37.000          16.900
 132344881.067 6 103126348.44342  25184395.477    25184404.355
        36.500          16.300
 114610765.442 8  89307130.49246  21809693.805    21809699.461
        49.400          38.900
 127494360.787 6  99346333.61543  24261367.242    24261379.055
        36.200          20.100
 124436963.723 6  96964000.04643  23679566.266    23679590.563
        40.400          19.000
 121925313.546 7  95006879.99345  23201551.016    23201555.090
        43.200          30.300
 107674723.555 8  83902559.46447  20489743.414    20489749.246
        51.400          43.100
 106226869.970 8  82774281.16347  20214246.727    20214250.332
        49.500          43.400
 105927145.417 8  82540794.83047  20157198.313    20157206.488
        53.100          46.400
 129389976.994 6 100823381.25743  24622086.258    24622094.668
        38.900          19.900
 15  3 15  1 50  0.0000000  0 11G07G28G27G30G09G32G19G04G11G01G17
 106086674.156 8  82664935.78147  20187589.227    20187593.301
        52.000          44.900
 130226419.925 6 101475141.17143  24781256.891    24781262.137
        36.400          18.600
 132410411.694 6 103177411.14842  25196866.617    25196875.203
        38.100          15.600
 114545566.989 8  89256326.51546  21797286.406    21797292.531
        49.100          39.000
 127547256.350 5  99387550.82943  24271432.891    24271444.410
        35.900          20.100
 124395417.373 6  96931626.84343  23671660.906    23671684.324
        37.900          18.600
 121998935.738 6  95064247.90144  23215560.336    23215565.289
        41.800          29.900
 107713843.018 8  83933042.20247  20497187.523    20497193.238
        51.100          43.600
 106250685.880 8  82792839.04947  20218778.828    20218782.316
        51.100          43.800
 105909129.259 8  82526756.33947  20153770.219    20153777.574
        52.400          46.700
 129347441.927 6 100790237.21543  24613993.625    24614000.980
        40.900          21.500
 15  3 15  1 50 30.0000000  0 11G07G28G27G30G09G32G19G04G11G01G17
 106078286.929 8  82658400.30447  20185992.602    20185997.086
        50.700          44.900
 130163881.545 6 101426410.01043  24769355.852    24769361.273
        37.500          19.000
 132475789.584 6 103228354.86042  25209308.719    25209316.484
        38.100          15.600
 114480807.349 8  89205864.47546  21784962.609    21784969.965
        48.300          38.200
 127600044.082 6  99428683.92843  24281478.125    24281490.172
        36.200          19.000
 124354042.542 6  96899387.17442  23663785.281    23663809.695
        37.400          17.800
 122072487.491 7  95121560.92644  23229556.820    23229561.949
        43.700          29.800
 107753517.367 8  83963957.31647  20504737.594    20504742.957
        51.800          43.400
 106274989.614 8  82811777.06147  20223403.430    20223407.035
        49.500          43.400
 105891702.565 8  82513177.17247  20150453.094    20150461.504
        53.200          46.300
 129305096.241 6 100757240.76443  24605936.297    24605942.832
        40.700          22.200
 15  3 15  1 51  0.0000000  0 11G07G28G27G30G09G32G19G04G11G01G17
 106070515.616 8  82652344.76047  20184513.336    20184517.762
        51.600          44.600
 130101163.982 6 101377539.20543  24757422.266    24757426.633
        37.600          19.600
 132541014.968 6 103279179.69042  25221719.656    25221728.594
        36.200          13.900
 114416489.089 8  89155746.37846  21772722.844    21772729.965
        48.000          38.800
 127652722.131 5  99469731.64542  24291502.664    24291513.832
        33.700          17.400
 124312842.732 6  96867283.99543  23655946.133    23655970.840
        39.000          19.000
 122145968.281 7  95178818.64945  23243540.125    23243544.785
        43.600          31.300
 107793745.171 8  83995303.70247  20512391.477    20512398.129
        51.000          42.100
 106299780.016 8  82831094.29647  20228120.656    20228124.203
        50.400          43.600
 105874866.081 8  82500057.90647  20147249.234    20147257.938
        53.700          45.800
 129262939.436 7 100724391.45843  24597914.516    24597919.703
        42.600          23.000
 15  3 15  1 51 30.0000000  0 11G07G28G27G30G09G32G19G04G11G01G17
 106063360.071 8  82646769.02847  20183151.813    20183156.121
        50.600          44.300
 130038267.329 6 101328528.91743  24745453.578    24745457.594
        37.700          21.100
 132606087.732 5 103329885.69442  25234102.578    25234111.047
        34.700          15.600
 114352614.246 8  89105973.79046  21760568.266    21760574.742
        48.500          39.200
 127705287.728 5  99510691.70942  24301506.164    24301516.512
        34.100          17.800
 124271820.384 6  96835318.95442  23648138.539    23648163.891
        38.200          17.400
 122219376.545 7  95236019.85844  23257510.039    23257513.820
        43.500          29.600
 107834524.390 8  84027079.75847  20520152.320    20520158.152
        51.900          43.000
 106325055.278 8  82850789.33747  20232930.672    20232934.336
        50.100          43.500
 105858619.822 8  82487398.55947  20144157.984    20144165.926
        53.500          46.200
 129220970.743 6 100691688.74443  24589926.695    24589933.348
        40.600          22.300
 15  3 15  1 52  0.0000000  0 12G07G16G28G27G30G09G32G19G04G11G01G17
 106056820.431 8  82641673.23247  20181907.609    20181912.094
        50.700          44.800
 128706403.27714                  24492027.930
        28.000
 129975191.727 6 101279379.14743  24733450.133    24733456.023
        38.300          21.300
 132671007.787 5 103380053.56442  25246456.180    25246465.469
        35.400          16.300
 114289184.828 8  89056548.28746  21748498.117    21748504.301
        48.700          38.500
 127757738.54715  99551562.31952  24311485.969    24311499.246
        35.000          17.400
 124230978.152 6  96803494.26643  23640368.695    23640390.293
        38.200          18.300
 122292710.698 7  95293163.33945  23271465.930    23271468.539
        42.600          30.400
 107875853.108 8  84059283.99147  20528016.727    20528022.910
        50.700          42.400
 106350813.699 8  82870860.86947  20237832.430    20237836.035
        49.800          43.500
 105842963.982 8  82475199.26947  20141178.703    20141186.527
        52.300          46.400
 129179188.827 6 100659131.55543  24581975.539    24581981.664
        39.000          20.100
 15  3 15  1 52 30.0000000  0 11G07G28G27G30G09G32G19G04G11G01G17
 106050897.641 8  82637058.08347  20180780.508    20180784.699
        50.500          44.900
 129911938.380 6 101230090.88043  24721413.867    24721418.410
        38.400          20.900
 132735775.495 5 103430521.81742  25258780.094    25258790.441
        35.000          14.800
 114226203.582 8  89007472.02546  21736512.977    21736519.922
        48.400          38.200
 127810072.611 5  99592341.96642  24321446.320    24321457.664
        35.900          16.900
 124190319.689 6  96771812.77643  23632629.313    23632652.141
        39.000          20.100
 122365970.337 7  95350248.74545  23285405.867    23285408.828
        43.600          30.800
 107917730.040 8  84091915.40447  20535985.742    20535991.691
        52.000          42.600
 106377054.114 8  82891307.97347  20242825.398    20242829.063
        49.700          43.700
 105827899.473 9  82463460.77047  20138311.609    20138319.961
        54.100          46.200
 129137593.477 6 100626719.77243  24574060.758    24574066.648
        39.200          21.100
 15  3 15  1 53  0.0000000  0 12G07G16G28G27G30G09G32G19G04G11G01G17
 106045591.359 8  82632923.32747  20179770.797    20179774.871
        50.600          44.300
 128803860.01614                  24510557.031
        24.600
 129848506.503 6 101180663.53043  24709342.023    24709348.500
        39.200          20.900
 132800390.270 5 103480870.80442  25271073.617    25271086.777
        33.500          15.600
 114163672.096 8  88958746.21146  21724614.008    21724620.484
        49.000          39.500
 127862287.351 5  99633028.60042  24331382.211    24331393.730
        35.700          17.800
 124149847.302 6  96740276.41242  23624926.547    23624950.727
        40.200          17.400
 122439153.805 7  95407274.79545  23299332.117    23299336.602
        43.000          30.600
 107960152.864 8  84124972.18747  20544058.586    20544063.891
        51.800          42.000
 106403774.272 8  82912128.91847  20247910.109    20247914.066
        49.800          43.300
 105813425.820 8  82452182.66847  20135557.430    20135565.664
        52.400          46.400
 129096183.090 6 100594452.12243  24566179.883    24566187.121
        39.600          21.700
 15  3 15  1 53 30.0000000  0 11G07G28G27G30G09G32G19G04G11G01G17
 106040902.250 8  82629269.48547  20178878.406    20178882.773
        51.100          44.600
 129784897.624 6 101131098.19143  24697238.633    24697244.406
        39.800          21.300
 132864852.682 5 103531101.13242  25283344.578    25283352.871
        35.200          16.900
 114101593.146 8  88910373.01746  21712800.258    21712807.320
        48.100          39.200
 127914381.062 6  99673620.93742  24341295.172    24341306.867
        37.600          15.600
 124109564.155 6  96708887.54343  23617260.250    23617284.195
        37.300          18.300
 122512260.600 7  95464241.09145  23313245.367    23313248.563
        44.900          30.600
 108003120.253 8  84158453.31147  20552234.742    20552240.516
        53.200          42.400
 106430973.015 8  82933322.77447  20253085.781    20253089.211
        50.100          43.700
 105799543.837 9  82441365.60847  20132916.008    20132923.949
        54.600          46.800
 129054957.490 6 100562328.45343  24558334.563    24558341.859
        38.900          22.600
 15  3 15  1 54  0.0000000  0 12G07G16G28G27G30G09G32G19G04G11G01G17
 106036830.772 8  82626096.91447  20178103.844    20178107.859
        52.000          44.700
 128901967.74115                  24529231.719
        33.100
 129721111.625 6 101081394.87643  24685100.227    24685105.063
        39.500          21.500
 132929162.689 5 103581212.61442  25295579.977    25295590.676
        35.400          16.300
 114039968.733 8  88862354.02646  21701074.031    21701080.156
        48.000          39.000
 127966351.193 6  99714116.93742  24351184.711    24351196.348
        37.800          16.900
 124069472.666 6  96677647.92343  23609631.398    23609654.641
        39.200          19.600
 122585289.336 7  95521146.56045  23327142.055    23327145.660
        44.100          30.100
 108046630.334 8  84192357.30147  20560514.469    20560520.125
        52.700          42.600
 106458648.900 8  82954888.43647  20258352.617    20258356.223
        49.800          43.400
 105786253.645 8  82431009.68047  20130387.055    20130395.113
        53.700          46.400
 129013915.541 6 100530347.88044  24550525.430    24550531.203
        39.800          24.600
 15  3 15  1 54 30.0000000  0 12G07G16G28G27G30G09G32G19G04G11G01G17
 106033376.414 8  82623405.21747  20177446.703    20177450.777
        50.800          45.100
 128951359.67715                  24538626.734
        30.500
 129657149.169 6 101031554.07043  24672930.250    24672933.445
        40.700          21.500
 132993320.131 5 103631205.27142  25307787.242    25307799.641
        33.800          14.800
 113978800.644 8  88814690.59346  21689433.852    21689440.328
        48.200          38.700
 128018195.072 5  99754514.60742  24361048.859    24361062.313
        35.700          16.300
 124029575.427 5  96646559.66842  23602038.719    23602062.020
        35.500          17.800
 122658238.580 7  95577990.09745  23341023.156    23341027.523
        43.900          30.900
 108090680.779 8  84226682.36747  20568897.328    20568902.574
        51.800          42.200
 106486799.734 8  82976824.19047  20263709.086    20263712.691
        50.500          43.000
 105773555.064 8  82421114.74347  20127970.102    20127978.453
        53.200          46.300
 128973056.546 6 100498509.86543  24542748.930    24542755.816
        38.500          22.300
 15  3 15  1 55  0.0000000  0 12G07G16G28G27G30G09G32G19G04G11G01G17
 106030539.171 8  82621194.38747  20176906.219    20176910.176
        51.000          44.300
 129000936.87316                  24548061.766
        37.200
 129593010.019 6 100981575.55943  24660724.250    24660727.973
        40.500          21.800
 133057324.958 5 103681079.04942  25319967.750    25319979.738
        32.500          15.600
 113918090.862 8  88767384.29446  21677880.977    21677888.039
        48.800          38.700
 128069910.544 6  99794812.24042  24370891.883    24370904.047
        36.000          14.800
 123989875.251 5  96615625.02542  23594484.563    23594507.332
        35.000          17.800
 122731106.978 7  95634770.63544  23354889.953    23354893.559
        45.800          29.900
 108135269.646 8  84261426.98047  20577382.133    20577387.613
        52.100          42.200
 106515423.208 8  82999128.23247  20269155.719    20269159.793
        50.000          43.200
 105761448.094 8  82411680.80747  20125666.328    20125674.680
        53.700          46.300
 128932379.112 6 100466813.31743  24535008.609    24535014.852
        39.000          22.900
 15  3 15  1 55 30.0000000  0 12G07G16G28G27G30G09G32G19G04G11G01G17
 106028319.562 8  82619464.82947  20176484.102    20176488.293
        50.500          44.600
 129050719.73815                  24557533.039
        35.200
 129528695.321 6 100931460.27843  24648484.688    24648489.641
        39.900          22.600
 133121177.449 5 103730834.11942  25332121.000    25332131.172
        32.500          15.600
 113857841.974 8  88720437.13546  21666416.078    21666422.906
        49.300          39.200
 128121495.627 6  99835008.22442  24380707.555    24380720.480
        37.200          16.900
 123950375.426 5  96584846.54742  23586965.484    23586989.313
        35.800          16.300
 122803893.862 7  95691487.65045  23368740.383    23368743.871
        46.000          31.100
 108180395.516 8  84296590.03447  20585969.297    20585974.719
        51.800          42.000
 106544518.447 8  83021799.88647  20274692.789    20274695.809
        49.900          43.100
 105749933.308 9  82402708.31147  20123475.109    20123483.637
        54.100          46.400
 128891882.529 6 100435257.70843  24527302.430    24527308.027
        39.700          22.300
 15  3 15  1 56  0.0000000  0 11G07G28G27G30G09G32G19G04G11G01G17
 106026718.183 8  82618217.00347  20176179.086    20176183.570
        50.000          44.500
 129464205.738 6 100881208.70243  24636212.492    24636216.977
        41.300          22.000
 133184878.224 5                  25344242.688
        33.900
 113798056.437 8  88673851.02046  21655039.953    21655046.313
        48.200          40.000
 128172948.416 5  99875101.11642  24390499.789    24390510.957
        35.900          16.300
 123911079.046 6  96554226.52943  23579487.289    23579510.766
        39.200          19.000
 122876598.392 7  95748140.50445  23382575.789    23382579.277
        44.400          30.600
 108226056.728 8  84332170.23247  20594658.203    20594663.684
        52.200          42.100
 106574084.046 8  83044838.05847  20280318.828    20280322.844
        50.000          43.200
 105739011.174 9  82394197.62547  20121396.859    20121404.215
        54.300          46.700
 128851566.621 6 100403842.88043  24519630.016    24519636.961
        37.900          22.300
 15  3 15  1 56 30.0000000  0 11G07G28G27G30G09G32G19G04G11G01G17
 106025734.762 8  82617450.69547  20175992.164    20175996.297
        50.600          44.100
 129399541.874 6 100830821.31543  24623907.016    24623912.438
        41.100          22.600
 133248426.989 5 103829998.34052  25356335.984    25356347.211
        33.400          14.800
 113738735.964 8  88627627.30246  21643750.938    21643757.941
        48.300          39.300
 128224266.321 6  99915088.89742  24400266.375    24400276.898
        36.700          16.900
 123871988.218 6  96523766.61143  23572050.484    23572071.555
        39.800          19.600
 122949219.745 7  95804728.54045  23396395.156    23396399.113
        44.300          30.300
 108272251.057 8  84368165.84447  20603448.711    20603453.547
        52.000          42.400
 106604118.328 8  83068241.41947  20286034.195    20286037.977
        51.300          43.900
 105728681.329 9  82386148.45647  20119431.164    20119439.047
        54.000          46.400
 128811430.383 6 100372568.01143  24511991.633    24511998.402
        38.600          22.500
 15  3 15  1 57  0.0000000  0 11G07G28G27G30G09G32G19G04G11G01G17
 106025369.102 8  82617165.77147  20175922.250    20175926.793
        51.000          44.600
 129334703.742 6 100780298.17343  24611567.852    24611573.977
        40.700          21.300
 133311823.452 5 103879398.07642  25368398.992    25368409.398
        33.400          14.800
 113679882.540 7  88581767.50846  21632551.602    21632558.195
        47.900          39.100
 128275447.09315  99954969.77152  24410003.758    24410016.801
        35.500          16.900
 123833106.075 6  96493469.33042  23564649.539    23564671.781
        38.100          16.900
 123021757.012 7  95861251.02145  23410198.664    23410201.801
        45.900          30.500
 108318976.363 8  84404575.20347  20612340.148    20612345.512
        52.800          42.200
 106634619.222 8  83092008.38747  20291838.648    20291842.020
        51.000          44.300
 105718943.692 9  82378560.74547  20117578.047    20117585.813
        54.100          46.400
 128771472.483 6 100341432.13543  24504387.188    24504394.191
        37.900          20.600
 15  3 15  1 57 30.0000000  0 12G07G16G28G27G30G09G32G19G04G11G01G17
 106025620.678 8  82617361.81247  20175970.469    20175974.484
        52.100          44.700
 129251825.63215                  24595809.203
        32.300
 129269691.162 6 100729639.05043  24599197.695    24599202.883
        40.400          20.400
 133375067.950 5 103928679.30042  25380436.156    25380444.566
        34.600          16.300
 113621497.766 8  88536272.90046  21621441.227    21621447.938
        48.800          39.400
 128326488.15215  99994741.82752  24419716.461    24419729.563
        33.200          16.900
 123794435.133 6  96463336.83743  23557291.094    23557312.984
        38.800          19.300
 123094208.279 7  95917706.52345  23423984.711    23423989.898
        45.600          30.100
 108366230.331 8  84441396.50647  20621332.336    20621337.348
        52.400          42.200
 106665584.488 8  83116137.19847  20297730.523    20297734.539
        51.600          43.400
 105709798.018 9  82371434.29947  20115837.172    20115845.348
        54.400          46.400
 128731691.350 6 100310433.98043  24496817.836    24496824.547
        38.800          22.500
 15  3 15  1 58  0.0000000  0 12G07G16G28G27G30G09G32G19G04G11G01G17
 106026490.581 8  82618039.66247  20176135.656    20176139.848
        52.900          44.500
 129302605.03415                  24605476.828
        34.700
 129204505.701 6 100678845.24043  24586794.820    24586798.016
        40.900          21.100
 133438161.17015 103977842.74152  25392442.563    25392450.270
        34.300          15.600
 113563584.837 8  88491145.95846  21610420.781    21610427.082
        48.600          39.700
 128377387.27015 100034403.00552  24429404.672    24429415.664
        35.300          17.400
 123755978.698 6  96433371.30543  23549972.969    23549994.332
        40.500          21.100
 123166573.207 7  95974094.72645  23437755.430    23437760.383
        45.200          30.200
 108414011.841 8  84478628.87347  20630424.961    20630430.031
        52.100          42.300
 106697013.325 8  83140627.22447  20303710.781    20303715.559
        50.400          43.100
 105701245.160 9  82364769.79047  20114210.016    20114217.488
        54.200          46.400
 128692087.365 6 100279573.87344  24489281.906    24489288.559
        38.900          24.100
 15  3 15  1 58 30.0000000  0 11G07G28G27G30G09G32G19G04G11G01G17
 106027977.201 8  82619198.06547  20176418.656    20176423.199
        51.900          44.300
 129139146.376 6 100627915.96943  24574356.711    24574359.848
        39.200          20.400
 133501101.52415 104026887.06552  25404418.016    25404427.602
        34.200          13.900
 113506144.004 8  88446386.89246  21599490.016    21599496.492
        48.500          40.000
 128428142.91315 100073952.72052  24439063.242    24439075.465
        31.900          16.300
 123717738.328 6  96403574.15943  23542694.828    23542716.895
        40.400          20.400
 123238849.650 7  96030413.98345  23451510.258    23451514.332
        45.500          30.500
 108462317.464 8  84516269.65047  20639617.148    20639622.629
        52.200          42.000
 106728902.288 8  83165475.79347  20309779.281    20309783.297
        51.200          43.600
 105693283.612 8  82358566.04647  20112694.867    20112703.219
        53.800          46.400
 128652657.983 6 100248849.82743  24481780.063    24481784.664
        40.000          23.500
 15  3 15  1 59  0.0000000  0 12G07G16G28G27G30G09G32G19G04G11G01G17
 106030080.570 8  82620837.05547  20176818.516    20176823.469
        49.800          44.300
 129404845.54314                  24624922.914
        28.600
 129073614.338 6 100576852.10343  24561886.594    24561889.496
        38.700          20.600
 133563889.34215 104075812.42452  25416365.500    25416376.434
        33.900          13.900
 113449177.439 8  88401997.38746  21588650.523    21588656.355
        49.100          39.900
 128478751.778 5 100113388.07442  24448693.852    24448704.902
        32.600          14.800
 123679716.821 6  96373947.69043  23535459.875    23535481.063
        37.700          20.900
 123311036.698 7  96086663.58745  23465246.688    23465250.059
        45.700          30.600
 108511145.288 8  84554317.32846  20648908.844    20648913.914
        52.900          41.800
 106761249.922 8  83190681.77547  20315935.227    20315939.418
        51.700          43.700
 105685913.296 9  82352822.98947  20111292.500    20111299.680
        54.200          46.700
 128613402.387 6 100218261.20143  24474307.328    24474314.508
        38.900          22.600
 15  3 15  1 59 30.0000000  0 11G07G28G27G30G09G32G19G04G11G01G17
 106032801.579 8  82622957.31247  20177336.828    20177341.371
        52.500          44.700
 129007910.854 6 100525654.58843  24549382.164    24549385.711
        38.200          19.300
 133626526.36015                  25428286.227
        32.000
 113392688.503 8  88357980.04946  21577900.961    21577907.145
        49.900          40.100
 128529212.935 5 100152708.30942  24458297.523    24458308.516
        32.800          15.600
 123641918.350 6  96344494.96943  23528265.539    23528288.074
        37.100          18.600
 123383134.306 7  96142843.49545  23478966.453    23478970.059
        45.500          30.100
 108560494.140 8  84592771.00447  20658299.336    20658304.992
        52.300          42.400
 106794055.323 8  83216244.45047  20322177.297    20322181.137
        51.800          43.100
 105679135.431 9  82347541.58147  20110002.547    20110010.488
        54.400          46.500
 128574320.885 6 100187808.19343  24466871.477    24466877.602
        38.800          23.800
 15  3 15  2  0  0.0000000  0 11G07G28G27G30G09G32G19G04G11G01G17
 106036139.567 8  82625558.33847  20177972.117    20177976.250
        52.500          44.000
 128942036.342 6 100474323.83343  24536846.125    24536850.844
        38.600          21.300
 133689012.28815                  25440176.758
        32.400
 113336678.716 8  88314336.08146  21567241.711    21567248.832
        48.700          39.600
 128579524.073 5                  24467868.570
        32.800
 123604345.488 6  96315218.25143  23521117.031    23521136.637
        39.500          20.400
 123455141.253 7  96198952.75444  23492668.234    23492672.543
        45.700          28.200
 108610362.090 8  84631629.16447  20667788.898    20667794.379
        52.800          42.300
 106827316.499 8  83242162.26847  20328507.430    20328511.094
        52.200          43.700
 105672949.494 9  82342721.43047  20108825.531    20108833.355
        54.100          46.400
 128535412.091 6 100157489.77643  24459467.758    24459473.414
        39.700          21.700
 15  3 15  2  0 30.0000000  0 11G07G28G27G30G09G32G19G04G11G01G17
 106040093.961 8  82628639.67747  20178725.055    20178728.309
        52.200          44.500
 128875990.212 6 100422859.33443  24524279.188    24524283.320
        37.800          19.000
 133751345.97715                  25452039.102
        32.300
 113281149.120 8  88271066.28746  21556674.695    21556681.758
        49.600          39.600
 128629681.781 4 100230937.20152  24477412.672    24477420.203
        28.900          14.800
 123566999.593 6  96286118.35643  23514008.344    23514029.473
        39.400          21.100
 123527056.091 7  96254990.23344  23506352.828    23506358.133
        44.600          29.300
 108660745.687 8  84670889.13047  20677376.797    20677382.336
        52.500          42.200
 106861030.520 8  83268432.95147  20334922.141    20334925.863
        51.200          43.100
 105667354.364 8  82338361.63247  20107760.555    20107768.086
        53.900          46.500
 128496674.241 6 100127304.57043  24452095.547    24452100.676
        40.000          21.800
 15  3 15  2  1  0.0000000  0 11G07G28G27G30G09G32G19G04G11G01G17
 106044664.629 8  82632201.23347  20179593.875    20179598.242
        51.300          44.100
 128809773.991 6 100371262.34143  24511678.984    24511682.297
        38.300          19.000
 133813528.411 5                  25463870.508
        31.000
 113226102.110 8  88228172.54746  21546199.484    21546206.313
        48.500          39.500
 128679684.698 5 100269900.35852  24486929.375    24486937.727
        31.600          12.600
 123529884.276 6  96257198.18943  23506944.094    23506965.633
        39.300          21.100
 123598877.941 7  96310955.25344  23520020.922    23520025.523
        44.500          29.500
 108711643.527 8  84710549.80647  20687062.063    20687067.836
        52.900          42.000
 106895196.207 8  83295055.57347  20341423.906    20341428.215
        51.300          42.500
 105662350.421 9  82334462.50647  20106808.484    20106816.484
        54.100          46.300
 128458106.541 6 100097251.92843  24444756.008    24444762.016
        40.600          23.200
 15  3 15  2  1 30.0000000  0 11G07G28G27G30G09G32G19G04G11G01G17
 106049851.598 8  82636243.02347  20180581.484    20180585.969
        52.700          44.600
 128743388.187 6 100319533.17543  24499046.328    24499049.172
        37.900          19.000
 133875559.88515                  25475675.797
        30.300
 113171539.712 8  88185656.41446  21535816.984    21535823.813
        50.000          39.200
 128729530.65414                  24496413.523
        25.300
 123493002.279 6  96228459.86443  23499925.766    23499945.605
        39.500          21.100
 123670606.118 7  96366847.29745  23533669.914    23533674.633
        45.000          30.000
 108763053.591 8  84750609.61147  20696845.305    20696850.785
        52.800          42.200
 106929811.809 8  83322028.79047  20348011.305    20348014.559
        51.600          43.300
 105657937.544 9  82331023.95547  20105968.453    20105975.867
        54.800          46.400
 128419708.390 6 100067331.41244  24437449.070    24437454.727
        40.800          25.300
 15  3 15  2  2  0.0000000  0 10G07G28G27G30G32G19G04G11G01G17
 106055654.475 8  82640764.74247  20181685.586    20181689.543
        52.200          44.500
 128676833.181 6 100267672.21043  24486379.875    24486384.125
        36.900          18.300
 133937440.410 5                  25487450.297
        30.100
 113117463.741 8  88143519.31946  21525527.094    21525533.629
        49.100          40.400
 123456356.047 6  96199905.31643  23492950.719    23492972.023
        39.000          22.000
 123742239.614 7  96422665.56044  23547301.602    23547305.500
        44.400          28.300
 108814973.489 8  84791066.70146  20706725.117    20706730.363
        53.900          41.700
 106964875.145 8  83349350.87847  20354683.617    20354687.223
        52.300          43.200
 105654115.266 8  82328045.60147  20105241.164    20105249.047
        53.500          46.500
 128381478.566 6 100037542.04643  24430173.945    24430179.953
        40.600          22.900
 15  3 15  2  2 30.0000000  0 10G07G28G27G30G32G19G04G11G01G17
 106062073.400 8  82645766.50447  20182907.109    20182911.301
        50.900          44.500
 128610110.074 6 100215680.21742  24473682.898    24473687.617
        38.300          15.600
 133999170.78915                  25499196.906
        31.600
 113063876.635 8  88101763.16146  21515329.258    21515335.793
        49.900          40.000
 123419949.235 6  96171537.36943  23486022.977    23486042.758
        39.700          22.500
 123813777.987 7  96478409.69444  23560915.188    23560919.496
        44.400          28.300
 108867401.706 8  84831919.86647  20716702.125    20716707.078
        52.700          42.000
 107000384.968 8  83377020.88247  20361440.852    20361444.398
        50.800          43.000
 105650883.964 8  82325527.75847  20104625.875    20104633.523
        53.200          46.400
 128343417.011 6 100007883.82243  24422931.164    24422937.699
        41.100          22.300
 15  3 15  2  3  0.0000000  0 10G07G28G27G30G32G19G04G11G01G17
 106069108.151 8  82651248.12147  20184245.602    20184249.910
        51.600          44.000
 128543219.698 6 100163557.85442  24460954.242    24460957.555
        39.900          17.400
 134060751.340 4                  25510916.094
        29.400
 113010780.299 8  88060389.42146  21505225.500    21505231.918
        49.600          40.000
 123383784.363 6  96143358.02843  23479140.250    23479160.266
        41.800          22.600
 123885220.653 7  96534079.24644  23574509.867    23574514.527
        44.000          28.600
 108920335.838 8  84873167.26346  20726775.250    20726780.672
        53.200          41.600
 107036339.202 8  83405037.18147  20368283.266    20368286.402
        51.000          43.200
 105648243.411 9  82323470.24747  20104123.727    20104131.902
        54.800          46.700
 128305522.380 6  99978355.67943  24415720.023    24415726.500
        41.300          22.900
 15  3 15  2  3 30.0000000  0 10G07G28G27G30G32G19G04G11G01G17
 106076757.912 8  82657208.96647  20185701.047    20185705.473
        51.300          44.700
 128476162.207 6 100111305.32842  24448194.336    24448196.828
        40.600          16.900
 134122181.859 4                  25522606.141
        28.600
 112958176.078 8  88019399.15446  21495215.266    21495221.801
        50.100          40.700
 123347863.842 6  96115369.10343  23472303.953    23472323.734
        41.600          21.800
 123956566.292 7  96589673.20144  23588086.805    23588091.406
        42.600          29.700
 108973773.556 8  84914807.05947  20736943.453    20736948.934
        53.100          42.000
 107072735.508 8  83433397.94847  20375208.531    20375211.961
        50.700          43.300
 105646192.715 8  82321872.35447  20103733.063    20103741.590
        53.300          46.500
 128267793.166 6  99948956.40443  24408540.383    24408545.980
        40.900          22.600
 15  3 15  2  4  0.0000000  0 10G07G28G27G30G32G19G04G11G01G17
 106085022.571 8  82663648.95647  20187274.211    20187278.871
        50.500          44.700
 128408938.651 6 100058923.34443  24435402.297    24435405.492
        40.600          18.600
 134183462.89114                  25534265.320
        26.800
 112906066.284 8  87978794.16046  21485299.109    21485305.645
        49.500          40.800
 123312190.763 6  96087572.98543  23465514.688    23465533.766
        41.700          22.000
 124027814.133 6  96645190.93944  23601645.109    23601649.652
        41.700          29.600
 109027712.893 8  84956837.72646  20747208.039    20747213.578
        52.500          41.700
 107109572.682 8  83462102.24647  20382218.469    20382222.016
        50.300          43.200
 105644732.032 9  82320734.21447  20103455.617    20103463.031
        54.200          46.800
 128230228.959 6  99919685.69643  24401392.555    24401397.625
        40.000          22.900
 15  3 15  2  4 30.0000000  0 11G03G07G28G27G30G32G19G04G11G01G17
 123357714.38516                  23474202.039
        37.500
 106093905.046 8  82670570.35047  20188964.383    20188968.574
        50.200          44.300
 128341553.094 6 100006415.18143  24422578.523    24422583.301
        39.900          20.900
 134244651.98114                  25545901.453
        29.400
 112854456.131 8  87938578.48346  21475478.141    21475484.324
        50.100          40.500
 123276771.190 6  96059974.42043  23458772.141    23458793.270
        41.900          22.200
 124098966.822 6  96700634.54644  23615185.234    23615189.484
        41.600          29.600
 109082155.113 8  84999260.24746  20757568.250    20757572.793
        52.100          40.500
 107146851.952 8  83491151.03547  20389312.961    20389316.449
        50.000          43.700
 105643864.317 9  82320058.12047  20103290.109    20103298.051
        54.600          47.200
 128192832.056 6  99890545.37444  24394276.047    24394281.059
        40.900          24.600
 15  3 15  2  5  0.0000000  0 11G03G07G28G27G30G32G19G04G11G01G17
 123288684.69916  96069195.38553  23461065.641    23461078.801
        41.400          21.500
 106103402.546 8  82677970.99147  20190771.930    20190776.297
        51.000          44.300
 128274003.964 6  99953779.53943  24409724.102    24409729.172
        39.900          20.900
 134305636.39115                  25557506.938
        32.200
 112803345.227 8  87898751.83646  21465751.070    21465758.309
        49.100          40.600
 123241605.442 7  96032573.60443  23452080.586    23452099.605
        42.700          21.700
 124170021.315 6  96756001.62644  23628706.398    23628710.355
        41.600          29.100
 109137095.569 8  85042071.00746  20768022.773    20768027.551
        53.400          40.900
 107184569.122 8  83520541.05047  20396490.125    20396493.145
        50.800          43.100
 105643586.982 9  82319842.06847  20103237.719    20103245.426
        54.300          46.700
 128155599.500 6  99861533.11544  24387190.203    24387196.035
        40.800          24.700
 15  3 15  2  5 30.0000000  0 11G03G07G28G27G30G32G19G04G11G01G17
 123219622.49617  96015378.58354  23447923.898    23447935.594
        44.500          27.000
 106113512.367 8  82685848.76547  20192695.438    20192699.688
        50.900          43.900
 128206289.696 6  99901015.24643  24396837.891    24396842.961
        41.000          20.600
 134366473.54415                  25569085.797
        33.500
 112752732.638 8  87859313.48646  21456120.508    21456126.750
        49.400          40.400
 123206693.884 7  96005370.84643  23445436.727    23445455.512
        42.000          21.700
 124240974.326 6  96811289.63344  23642208.586    23642212.426
        41.600          28.900
 109192529.517 8  85085266.30346  20778571.672    20778577.094
        53.200          41.100
 107222719.531 8  83550268.65547  20403749.523    20403753.246
        50.400          42.900
 105643897.000 9  82320083.68547  20103296.453    20103304.102
        54.100          47.300
 128118527.149 6  99832645.68144  24380135.727    24380141.559
        40.600          24.800
 15  3 15  2  6  0.0000000  0 11G03G07G28G27G30G32G19G04G11G01G17
 123150526.23517  95961532.50854  23434774.672    23434786.367
        43.800          29.700
 106124235.013 8  82694204.05547  20194736.227    20194740.711
        50.000          43.900
 128138411.786 6  99848123.43543  24383920.664    24383926.320
        41.600          20.400
 134427172.09515                  25580635.383
        31.000
 112702621.684 8  87820266.01746  21446584.594    21446590.777
        50.200          40.700
 123172040.467 6  95978369.21843  23438842.617    23438859.469
        41.700          22.000
 124311826.269 7  96866498.90444  23655690.594    23655695.488
        42.500          27.200
 109248456.022 8  85128845.40846  20789214.289    20789219.887
        52.500          41.100
 107261302.832 8  83580333.57747  20411091.633    20411095.473
        49.900          42.900
 105644795.321 8  82320783.72447  20103467.492    20103474.789
        53.800          46.700
 128081615.588 6  99803883.54044  24373111.000    24373117.008
        41.500          26.400
 15  3 15  2  6 30.0000000  0 10G03G07G28G30G32G19G04G11G01G17
 123081401.338 6  95907671.52753  23421621.195    23421634.238
        36.300          21.300
 106135570.747 8  82703037.09447  20196892.828    20196897.254
        51.300          44.000
 128070371.581 7  99795105.10443  24370973.586    24370978.246
        42.800          21.300
 112653014.415 8  87781611.03546  21437144.344    21437151.523
        48.800          40.800
 123137648.462 6  95951571.24843  23432295.461    23432314.891
        40.700          21.800
 124382576.897 7  96921629.21844  23669154.898    23669158.563
        43.500          29.000
 109304873.240 8  85172806.89546  20799949.680    20799955.102
        52.100          40.900
 107300317.370 8  83610734.52547  20418516.461    20418519.715
        51.900          43.100
 105646281.909 9  82321942.14847  20103749.758    20103757.758
        54.900          46.700
 128044864.138 6  99775246.18344  24366118.078    24366123.324
        41.000          25.600
 15  3 15  2  7  0.0000000  0 10G03G07G28G30G32G19G04G11G01G17
 123012252.39317  95853782.52155  23408461.289    23408474.625
        43.800          31.600
 106147516.875 8  82712345.76047  20199166.383    20199171.219
        50.300          43.700
 128002167.689 7  99741959.26043  24357995.945    24357999.785
        43.000          22.200
 112603910.513 8  87743348.27146  21427800.438    21427807.031
        48.800          40.700
 123103518.333 6  95924977.34943  23425800.383    23425818.934
        40.800          21.300
 124453223.570 7  96976678.53844  23682598.852    23682602.750
        42.600          28.000
 109361777.066 8  85217147.56246  20810778.219    20810783.582
        51.500          40.600
 107339759.038 8  83641468.30147  20426021.484    20426024.504
        50.800          43.000
 105648354.101 9  82323556.88747  20104144.813    20104152.168
        55.700          47.000
 128008269.749 6  99746731.16644  24359153.344    24359159.996
        39.400          24.700
 15  3 15  2  7 30.0000000  0 10G03G07G28G30G32G19G04G11G01G17
 122943077.85917                  23395297.813
        45.400
 106160073.405 8  82722130.05347  20201556.039    20201560.289
        50.800          44.700
 127933801.990 7  99688687.31543  24344985.820    24344990.305
        42.100          22.500
 112555312.607 8  87705479.80146  21418552.586    21418559.590
        49.500          40.900
 123069653.769 6  95898590.35143  23419355.758    23419374.777
        40.600          22.600
 124523766.538 6  97031647.04344  23696021.836    23696026.379
        41.700          28.600
 109419165.634 8  85261865.93146  20821698.773    20821704.605
        52.400          40.900
 107379626.773 8  83672534.07847  20433608.070    20433611.500
        51.400          42.500
 105651012.265 9  82325628.21647  20104650.539    20104657.953
        55.800          46.800
 127971832.465 7  99718338.57444  24352220.648    24352225.602
        42.100          25.600
 15  3 15  2  8  0.0000000  0 10G03G07G28G30G32G19G04G11G01G17
 122873881.794 6  95745967.94853  23382129.398    23382142.266
        40.200          19.900
 106173240.767 8  82732390.33047  20204061.516    20204065.531
        50.400          44.100
 127865276.114 6  99635290.57643  24331944.883    24331950.363
        41.900          22.300
 112507223.284 8  87668007.63546  21409401.594    21409408.715
        49.500          41.200
 123036058.312 6  95872412.98743  23412962.648    23412978.855
        41.900          22.600
 124594205.336 7  97086534.36744  23709425.352    23709430.773
        42.600          28.400
 109477037.604 8  85306960.98446  20832711.633    20832716.527
        51.800          40.700
 107419919.173 8  83703930.76347  20441275.313    20441278.918
        50.200          42.600
 105654256.733 9  82328156.40647  20105268.008    20105275.773
        55.100          46.900
 127935551.880 6  99690068.09444  24345316.305    24345321.258
        41.200          24.800
 15  3 15  2  8 30.0000000  0 11G03G07G28G27G30G32G19G04G11G01G17
 122804667.338 7                  23368959.164
        42.900
 106187017.211 8  82743125.21547  20206683.164    20206687.531
        52.400          43.900
 127796589.785 7  99581768.80443  24318874.641    24318879.711
        42.200          22.500
 134728425.88614                  25637954.234
        27.300
 112459643.137 8  87630932.22646  21400347.578    21400353.938
        49.000          40.600
 123002733.793 6  95846446.71643  23406619.930    23406637.074
        39.000          21.100
 124664538.489 7  97141339.38144  23722810.867    23722814.414
        42.200          28.300
 109535389.755 8  85352430.20246  20843815.586    20843820.715
        52.200          40.600
 107460633.733 8  83735656.40447  20449023.094    20449026.992
        50.900          43.100
 105658086.158 9  82331140.41147  20105996.336    20106003.984
        55.500          46.600
 127899426.337 6  99661918.45344  24338441.602    24338446.027
        41.400          24.000
 15  3 15  2  9  0.0000000  0 11G03G07G28G27G30G32G19G04G11G01G17
 122735438.216 7  95638080.80044  23355783.758    23355797.328
        43.000          25.600
 106201402.066 8  82754334.19347  20209420.039    20209424.758
        50.000          43.600
 127727743.670 6  99528122.52943  24305774.148    24305778.867
        41.800          23.200
 134788225.893 5                  25649332.664
        30.300
 112412573.831 8  87594254.85646  21391390.359    21391397.129
        49.600          41.300
 122969682.480 6  95820693.39043  23400330.648    23400346.621
        40.500          22.800
 124734764.963 7  97196061.26444  23736174.008    23736178.434
        42.500          29.300
 109594219.522 8  85398271.59846  20855010.563    20855015.691
        52.700          40.700
 107501767.631 8  83767708.80347  20456850.758    20456854.656
        50.400          43.100
 105662499.476 9  82334579.40047  20106836.484    20106843.781
        55.500          46.800
 127863454.230 7  99633888.31644  24331596.281    24331602.113
        42.300          24.700
 15  3 15  2  9 30.0000000  0 11G03G07G28G27G30G32G19G04G11G01G17
 122666196.605 7  95584127.76444  23342606.070    23342618.586
        42.300          25.600
 106216395.232 8  82766017.17847  20212273.578    20212277.887
        50.000          44.100
 127658739.175 7  99474352.81443  24292643.836    24292647.500
        42.300          22.300
 134847879.636 5                  25660684.289
        31.200
 112366017.675 8  87557977.34246  21382531.258    21382537.617
        49.200          41.900
 122936907.946 6  95795155.65843  23394091.234    23394109.492
        38.600          22.200
 124804885.027 7  97250700.21544  23749516.750    23749521.879
        42.600          28.000
 109653525.045 8  85444483.70446  20866296.172    20866301.184
        52.300          40.500
 107543319.827 8  83800087.14947  20464757.742    20464761.523
        50.200          43.000
 105667496.926 9  82338473.55247  20107787.039    20107794.805
        55.700          46.400
 127827635.400 7  99605977.63144  24324780.156    24324785.637
        42.100          24.600
 15  3 15  2 10  0.0000000  0 11G03G07G28G27G30G32G19G04G11G01G17
 122596946.942 7  95530168.98844  23329426.180    23329438.168
        43.000          29.700
 106231996.896 8  82778174.30847  20215242.172    20215247.008
        50.500          43.800
 127589578.098 7  99420461.08343  24279482.469    24279485.840
        42.500          23.900
 134907388.45214                  25672008.867
        28.900
 112319977.170 8  87522101.63746  21373770.047    21373776.816
        49.900          41.500
 122904413.937 6  95769836.48343  23387909.266    23387925.238
        40.800          22.600
 124874899.035 6  97305256.53744  23762840.141    23762845.094
        41.500          27.900
 109713305.247 8  85491065.69346  20877671.898    20877677.203
        52.700          41.000
 107585289.275 8  83832790.62247  20472744.586    20472747.840
        50.600          42.800
 105673078.737 9  82342823.04447  20108849.180    20108856.887
        54.900          46.400
 127791969.486 7  99578186.11744  24317992.734    24317999.387
        42.500          25.100
 15  3 15  2 10 30.0000000  0 10G03G07G28G30G32G19G04G11G01G17
 122527688.149 7  95476202.18144  23316246.289    23316257.398
        42.900          27.400
 106248205.560 8  82790804.43147  20218326.922    20218331.641
        51.000          44.000
 127520260.403 6  99366447.36544  24266291.359    24266295.609
        41.700          24.500
 112274453.291 8  87486628.50347  21365106.945    21365113.422
        50.000          42.200
 122872202.139 6  95744737.20243  23381778.891    23381794.043
        39.700          22.200
 124944805.344 6  97359728.93744  23776143.281    23776147.590
        41.700          28.500
 109773556.818 8  85538014.98646  20889137.000    20889142.773
        52.100          40.200
 107627673.197 8  83865817.07047  20480809.750    20480813.004
        51.100          42.400
 105679243.488 9  82347626.77747  20110022.211    20110029.801
        54.900          46.100
 127756455.006 7  99550512.56844  24311234.906    24311240.328
        43.500          26.700
 15  3 15  2 11  0.0000000  0 10G03G07G28G30G32G19G04G11G01G17
 122458423.403 7  95422200.24954  23303065.680    23303076.379
        44.300          28.900
 106265019.664 8  82803906.33247  20221526.688    20221530.586
        51.100          44.200
 127450786.517 6  99312311.89743  24253071.133    24253076.027
        40.800          22.900
 112229446.920 8  87451558.61146  21356542.055    21356548.355
        49.300          41.300
 122840274.724 6  95719859.49843  23375702.461    23375718.258
        39.800          21.700
 125014602.820 6  97414116.53544  23789426.102    23789429.648
        41.700          28.200
 109834276.886 8  85585329.33746  20900692.031    20900696.574
        52.700          40.300
 107670468.666 8  83899164.20047  20488953.406    20488956.953
        50.400          42.600
 105685989.942 9  82352883.78847  20111306.047    20111314.223
        55.200          46.400
 127721090.403 7  99522955.81344  24304505.797    24304510.809
        44.300          26.400
 15  3 15  2 11 30.0000000  0 10G03G07G28G30G32G19G04G11G01G17
 122389156.312 7  95368226.59145  23289883.906    23289894.547
        42.900          30.800
 106282437.983 8  82817479.04547  20224840.680    20224845.457
        49.900          43.800
 127381156.837 6  99258055.04043  24239820.969    24239824.633
        40.900          22.800
 112184959.007 8  87416892.72746  21348076.453    21348083.047
        49.000          40.800
 122808633.762 6  95695205.00143  23369679.891    23369695.922
        39.900          22.300
 125084290.545 7  97468418.60944  23802686.477    23802690.434
        42.000          28.500
 109895462.387 8  85633006.37046  20912334.875    20912340.590
        51.900          41.100
 107713673.248 8  83932830.11947  20497175.078    20497178.684
        50.300          42.100
 105693316.791 9  82358593.05247  20112699.906    20112708.141
        54.000          46.400
 127685873.783 7  99495514.39244  24297803.305    24297809.137
        43.000          25.600
 15  3 15  2 12  0.0000000  0 10G03G07G28G30G32G19G04G11G01G17
 122319889.698 7  95314253.22944  23276702.242    23276713.000
        43.700          29.200
 106300460.628 8  82831522.67047  20228270.719    20228275.613
        50.400          43.800
 127311372.530 6  99203677.72043  24226542.164    24226544.891
        39.400          22.800
 112140992.020 8  87382632.74346  21339710.242    21339716.777
        49.300          41.400
 122777282.709 6  95670776.36343  23363714.414    23363729.215
        39.800          22.600
 125153868.026 7  97522634.81544  23815926.656    23815930.379
        42.300          28.700
 109957111.682 8  85681044.79646  20924066.016    20924072.199
        51.900          40.100
 107757285.789 8  83966813.92947  20505473.938    20505477.777
        50.700          43.000
 105701224.044 9  82364754.58747  20114205.141    20114212.730
        55.100          46.600
 127650804.671 6  99468187.89444  24291129.320    24291134.801
        41.800          24.900
 15  3 15  2 12 30.0000000  0 10G03G07G28G30G32G19G04G11G01G17
 122250626.392 6                  23263521.742
        38.200
 106319085.824 8  82846035.80047  20231814.820    20231819.012
        51.000          44.500
 127241434.188 6  99149180.35344  24213232.805    24213236.469
        39.500          24.000
 112097546.813 8  87348779.35146  21331442.805    21331448.754
        49.600          41.100
 122746223.492 6  95646575.09443  23357803.625    23357818.719
        40.400          22.300
 125223334.078 7  97576764.16044  23829145.516    23829150.059
        43.200          27.200
 110019221.520 8  85729442.08046  20935885.914    20935890.691
        51.800          40.500
 107801303.210 8  84001113.23346  20513850.180    20513854.020
        51.800          41.800
 105709710.206 9  82371367.21647  20115819.906    20115827.438
        55.800          47.000
 127615881.312 7  99440974.95744  24284484.352    24284489.480
        43.700          24.900
 15  3 15  2 13  0.0000000  0 10G03G07G28G30G32G19G04G11G01G17
 122181367.918 7  95206307.01445  23250342.523    23250351.813
        43.700          32.600
 106338313.485 8  82861018.39047  20235474.086    20235478.336
        50.700          44.300
 127171343.557 6  99094564.29143  24199893.984    24199899.523
        39.000          22.200
 112054625.566 8  87315334.23747  21323275.445    21323281.805
        49.200          42.100
 122715459.388 6  95622603.78543  23351948.672    23351962.477
        40.100          22.500
 125292689.112 7  97630807.00344  23842343.195    23842347.914
        44.500          27.500
 110081790.167 8  85778196.88746  20947792.086    20947797.273
        52.100          39.800
 107845724.419 8  84035727.16947  20522303.734    20522307.281
        52.200          42.600
 105718775.171 9  82378430.86647  20117544.953    20117552.309
        54.700          46.500
 127581103.521 7  99413875.46543  24277866.695    24277871.590
        42.800          23.500
 15  3 15  2 13 30.0000000  0 10G03G07G28G30G32G19G04G11G01G17
 122112118.198 7  95152345.54944  23237163.938    23237174.930
        42.100          26.700
 106358141.718 8  82876468.95347  20239247.156    20239251.699
        50.500          44.100
 127101100.327 6  99039829.36243  24186528.352    24186531.430
        39.700          23.200
 112012228.886 8  87282297.86446  21315206.430    21315213.551
        49.100          41.100
 122684992.320 6  95598863.89743  23346149.664    23346165.461
        39.200          21.800
 125361931.489 7  97684762.06244  23855520.523    23855523.953
        43.600          28.300
 110144814.367 8  85827306.67046  20959785.031    20959790.863
        52.300          41.100
 107890546.477 8  84070653.47047  20530832.891    20530836.672
        53.000          42.800
 105728417.305 9  82385944.25647  20119379.641    20119387.465
        55.200          46.500
 127546469.599 7  99386888.05744  24271275.008    24271280.781
        42.600          26.100
 15  3 15  2 14  0.0000000  0 11G03G07G16G28G30G32G19G04G11G01G17
 122042879.444 6  95098393.21343  23223987.977    23223999.438
        36.400          19.600
 106378570.269 8  82892387.29947  20243134.719    20243138.734
        51.700          44.300
 131038174.32115                  24935732.289
        32.800
 127030706.225 6  98984976.85443  24173132.492    24173135.395
        40.400          22.000
 111970358.953 8  87249671.94946  21307239.531    21307245.949
        49.200          41.100
 122654825.544 6  95575358.00343  23340409.484    23340424.168
        40.200          22.600
 125431061.384 7  97738629.46544  23868675.945    23868679.434
        42.400          26.400
 110208292.400 8  85876770.07846  20971864.711    20971870.309
        52.700          40.500
 107935767.377 8  84105890.54147  20539438.000    20539441.664
        51.900          42.400
 105738636.474 9  82393907.28847  20121324.031    20121331.973
        55.700          46.600
 127511978.819 7  99360012.21844  24264712.242    24264717.078
        42.800          26.900
 15  3 15  2 14 30.0000000  0 11G03G07G16G28G30G32G19G04G11G01G17
 121973654.983 6  95044452.10344  23210815.531    23210825.996
        39.400          25.400
 106399597.453 8  82908772.12147  20247136.195    20247140.270
        52.300          44.500
 131095807.10315                  24946722.398
        30.700
 126960161.632 6  98930007.10343  24159707.203    24159711.805
        39.600          22.200
 111929016.521 8  87217457.07846  21299371.984    21299378.754
        49.200          41.300
 122624960.763 6  95552087.40143  23334724.094    23334739.832
        39.200          20.400
 125500077.526 7  97792408.23544  23881808.563    23881812.754
        42.000          27.700
 110272220.710 8  85926584.34346  20984029.578    20984035.000
        52.700          39.400
 107981384.752 8  84141436.55947  20548118.766    20548122.137
        52.800          43.100
 105749431.008 9  82402318.64547  20123378.383    20123385.680
        54.400          46.900
 127477629.341 7  99333246.47844  24258175.367    24258180.789
        42.600          26.800
 15  3 15  2 15  0.0000000  0 11G03G07G16G28G30G32G19G04G11G01G17
 121904445.679 6  94990519.04354  23197646.242    23197656.766
        41.300          29.600
 106421223.058 8  82925623.23347  20251251.391    20251255.465
        51.400          43.900
 131153873.56813                  24957747.461
        23.800
 126889468.147 6  98874921.29743  24146255.359    24146259.375
        40.300          21.700
 111888203.661 8  87185654.85346  21291605.961    21291612.203
        50.600          41.100
 122595401.553 6  95529054.87043  23329098.578    23329114.492
        39.600          22.200
 125568980.120 6  97846098.56344  23894920.430    23894924.621
        41.500          25.900
 110336598.147 8  85976748.58246  20996280.336    20996285.641
        52.300          39.400
 108027396.977 8  84177290.26047  20556874.727    20556877.980
        53.000          42.300
 105760800.785 9  82411178.25547  20125541.867    20125549.926
        55.000          46.300
 127443421.063 7  99306590.75144  24251666.570    24251671.113
        43.400          26.400
 15  3 15  2 15 30.0000000  0 10G03G07G28G30G32G19G04G11G01G17
 121835257.34617  94936608.30156  23184480.219    23184489.980
        46.700          36.300
 106443445.617 8  82942939.51347  20255479.547    20255483.738
        50.000          43.700
 126818626.450 6  98819720.01043  24132775.242    24132779.434
        41.000          23.800
 111847921.549 8  87154266.20346  21283940.969    21283947.094
        49.600          41.300
 122566150.116 7  95506262.14743  23323533.836    23323547.758
        42.000          22.300
 125637768.382 7  97899699.76644  23908009.992    23908014.652
        42.000          26.100
 110401421.178 8  86027260.04446  21008615.930    21008621.117
        52.700          39.900
 108073801.644 8  84213449.74847  20565705.242    20565708.379
        51.600          42.400
 105772744.515 9  82420485.08647  20127814.594    20127822.242
        54.500          46.600
 127409352.180 7  99280043.63243  24245182.930    24245188.410
        42.000          23.800
 15  3 15  2 16  0.0000000  0 10G03G07G28G30G32G19G04G11G01G17
 121766092.550 7  94882712.82845  23171318.461    23171328.691
        43.500          30.900
 106466263.060 8  82960719.33447  20259822.063    20259825.844
        51.300          43.600
 126747636.667 6  98764403.33543  24119265.945    24119269.727
        40.800          22.800
 111808170.761 8  87123291.56347  21276376.492    21276382.031
        50.200          42.100
 122537208.216 6  95483710.60143  23318025.719    23318039.289
        41.900          21.500
 125706440.730 7  97953210.64644  23921077.820    23921082.188
        42.700          24.600
 110466686.981 8  86078116.51746  21021034.961    21021040.441
        52.600          39.800
 108120595.715 8  84249912.67846  20574609.617    20574613.223
        50.300          41.600
 105785260.383 9  82430237.74747  20130196.422    20130204.012
        54.700          46.900
 127375420.668 6  99253603.55543  24238725.805    24238731.051
        40.900          23.800
 15  3 15  2 16 30.0000000  0 10G03G07G28G30G32G19G04G11G01G17
 121696951.09417  94828840.51056  23158162.438    23158172.316
        46.300          37.300
 106489676.152 8  82978963.28947  20264277.164    20264281.766
        50.400          44.000
 126676501.069 6  98708973.02843  24105730.008    24105733.262
        40.100          22.300
 111768954.310 8  87092733.29046  21268913.414    21268919.773
        50.000          41.600
 122508579.967 6  95461403.45443  23312576.914    23312590.426
        41.700          22.600
 125774998.235 6  98006632.05943  23934123.281    23934129.172
        40.800          23.500
 110532394.616 8  86129317.28046  21033539.469    21033544.070
        52.700          39.700
 108167778.867 8  84286678.78647  20583588.148    20583592.281
        51.000          42.000
 105798349.073 9  82440436.75847  20132686.750    20132694.223
        54.100          46.500
 127341627.536 6  99227271.29844  24232294.844    24232299.621
        40.900          24.700
 15  3 15  2 17  0.0000000  0 10G03G07G28G30G32G19G04G11G01G17
 121627837.93916  94774996.11555  23145011.781    23145022.832
        40.800          31.600
 106513682.413 8  82997669.45347  20268845.852    20268850.160
        51.100          44.200
 126605219.465 6  98653428.95743  24092164.539    24092167.969
        40.400          21.500
 111730271.762 8  87062591.04346  21261552.258    21261558.793
        49.600          41.400
 122480266.453 7  95439341.50943  23307187.969    23307202.008
        42.200          22.500
 125843439.348 7  98059962.74443  23947147.852    23947152.277
        43.400          22.600
 110598539.785 8  86180858.97946  21046126.547    21046131.793
        52.900          39.800
 108215347.297 8  84323745.10646  20592640.328    20592643.699
        50.300          41.900
 105812007.999 8  82451080.12047  20135286.352    20135293.473
        53.000          46.300
 127307970.091 6  99201044.82644  24225889.383    24225894.570
        40.700          25.600
 15  3 15  2 17 30.0000000  0 10G03G07G28G30G32G19G04G11G01G17
 121558756.585 6  94721168.18043  23131865.250    23131877.531
        40.300          21.700
 106538280.990 8  83016837.16147  20273526.164    20273531.176
        50.500          44.200
 126533793.339 6  98597772.24043  24078572.797    24078576.051
        40.100          21.800
 111692125.150 8  87032866.40947  21254292.992    21254299.703
        50.400          42.000
 122452270.825 7  95417527.27543  23301861.008    23301874.461
        42.600          23.900
 125911763.763 7  98113202.52444  23960148.617    23960153.336
        43.600          25.800
 110665120.503 8  86232740.06346  21058796.672    21058801.449
        53.100          39.900
 108263299.551 8  84361110.50947  20601765.398    20601769.004
        50.800          42.300
 105826236.865 9  82462167.58947  20137993.500    20138001.090
        54.400          46.400
 127274447.445 6  99174923.34343  24219510.313    24219515.090
        40.400          23.600
 15  3 15  2 18  0.0000000  0 10G03G07G28G30G32G19G04G11G01G17
 121489709.305 7  94667363.72054  23118726.609    23118737.660
        42.800          28.500
 106563470.379 8  83036465.24647  20278319.477    20278324.547
        50.000          43.400
 126462223.459 6  98542003.53043  24064952.141    24064956.508
        40.400          22.600
 111654515.561 8  87003560.23146  21247136.477    21247143.129
        49.400          41.300
 122424595.222 6  95395962.44344  23296592.375    23296607.410
        40.500          24.400
 125979970.642 7  98166350.71844  23973129.430    23973133.504
        43.800          25.300
 110732134.014 8  86284958.38246  21071548.336    21071553.641
        52.300          39.600
 108311632.810 8  84398772.80247  20610962.742    20610966.816
        50.700          42.400
 105841034.164 8  82473697.98147  20140809.797    20140817.270
        53.600          46.700
 127241058.224 6  99148905.89044  24213156.461    24213161.883
        40.800          26.700
 15  3 15  2 18 30.0000000  0 10G03G07G28G30G32G19G04G11G01G17
 121420700.019 7  94613591.53946  23105594.953    23105605.711
        46.800          37.000
 106589249.723 8  83056553.03147  20283225.398    20283229.883
        50.800          43.200
 126390511.141 6  98486123.86143  24051306.039    24051311.344
        40.900          21.300
 111617444.487 8  86974673.68346  21240081.859    21240088.688
        49.300          41.900
 122397242.601 7  95374649.23444  23291387.703    23291402.621
        42.400          24.700
 126048059.999 7  98219407.33444  23986086.008    23986090.082
        43.600          24.600
 110799578.051 8  86337512.18946  21084382.438    21084387.977
        52.400          39.400
 108360345.477 8  84436730.74046  20620232.609    20620236.449
        50.100          41.800
 105856399.117 9  82485670.70447  20143733.563    20143740.977
        54.600          46.100
 127207801.683 6  99122991.76444  24206828.266    24206833.453
        40.800          26.400
 15  3 15  2 19  0.0000000  0 10G03G07G28G30G32G19G04G11G01G17
 121351729.43616                  23092470.188
        37.500
 106615617.661 8  83077099.46247  20288243.094    20288247.578
        52.100          44.000
 126318657.461 6  98430134.01243  24037633.211    24037636.582
        40.700          23.600
 111580913.168 8  86946207.73047  21233130.844    21233136.793
        51.900          42.500
 122370215.541 7  95353589.72444  23286245.867    23286258.734
        43.500          25.900
 126116031.428 7  98272372.04544  23999020.586    23999025.012
        42.700          25.700
 110867450.017 8  86390399.44446  21097298.219    21097303.289
        52.700          39.400
 108409435.232 8  84474982.51647  20629574.023    20629577.512
        50.500          42.000
 105872330.738 9  82498084.98947  20146765.164    20146772.637
        54.100          46.700
 127174676.919 7  99097180.31344  24200524.164    24200530.055
        43.000          25.700
 15  3 15  2 19 30.0000000  0 10G03G07G28G30G32G19G04G11G01G17
 121282799.117 7  94506131.54144  23079352.992    23079363.867
        43.200          27.900
 106642572.548 8  83098103.25947  20293372.547    20293377.090
        50.400          43.700
 126246662.768 6  98374034.28843  24023933.648    24023936.902
        40.900          23.000
 111544922.419 8  86918163.00247  21226281.867    21226287.758
        50.000          42.200
 122343516.010 6  95332785.42844  23281162.984    23281177.199
        41.400          25.100
 126183883.883 7  98325244.04144  24011930.641    24011937.117
        42.800          24.400
 110935746.852 8  86443617.75446  21110294.766    21110300.422
        52.800          39.900
 108458899.466 8  84513526.08547  20638987.000    20638990.254
        52.000          42.400
 105888827.320 8  82510939.51147  20149904.094    20149911.742
        53.900          46.000
 127141681.990 7  99071470.03944  24194247.383    24194251.281
        44.100          27.600
