     2.11           OBSERVATION DATA    G (GPS)             RINEX VERSION / TYPE
teqc  2019Feb25     NOAA/NOS/NGS/CORS   20210102 09:34:58UTCPGM / RUN BY / DATE
Linux 2.4.21-27.ELsmp|Opteron|gcc|Linux 64|=+               COMMENT
teqc  2019Feb25     NOAA/NOS/NGS/CORS   20210102 09:34:57UTCCOMMENT
teqc  2020Oct7      UNAVCO Archive Ops  20210102 00:15:57UTCCOMMENT
BIT 2 OF LLI FLAGS DATA COLLECTED UNDER A/S CONDITION       COMMENT
RINEX file created by UNAVCO GPS Archive.                   COMMENT
For more information contact archive-gps@unavco.org         COMMENT
Monument ID: 24127                                          COMMENT
UNAVCO 4-char name:   CN00                                  COMMENT
4-char name from Log or data file: CN00                     COMMENT
Monument location: 17.668525 -61.785578 -21.9               COMMENT
Visit ID: 129746                                            COMMENT
                                                            COMMENT
Barbuda__ATG2012                                            COMMENT
                                                            COMMENT
doi:10.7283/T5FN14GQ                                        COMMENT
End of DB comments                                          COMMENT
input file: cn00202101010000a.tgd                           COMMENT
 SNR is mapped to RINEX snr flag value [0-9]                COMMENT
  L1 & L2: min(max(int(snr_dBHz/6), 0), 9)                  COMMENT
CN00                                                        MARKER NAME
UNAVCO Community    UNAVCO                                  OBSERVER / AGENCY
5235K51839          TRIMBLE NETR9       5.45                REC # / TYPE / VERS
5240354581          TRM59800.00     SCIT                    ANT # / TYPE
  2874042.8770 -5356829.4800  1923453.5060                  APPROX POSITION XYZ
        0.0083        0.0000        0.0000                  ANTENNA: DELTA H/E/N
     1     1                                                WAVELENGTH FACT L1/2
     7    L1    L2    C1    P2    P1    S1    S2            # / TYPES OF OBSERV
    30.0000                                                 INTERVAL
teqc.e windowed: start @ 2021 Jan  1 00:00:00.000           COMMENT
teqc.e windowed: delta = 86400.000 sec                      COMMENT
teqc.e edited: all SBAS satellites excluded                 COMMENT
teqc.e edited: all QZSS satellites excluded                 COMMENT
Forced Modulo Decimation to 30 seconds                      COMMENT
  2021     1     1     0     0    0.0000000     GPS         TIME OF FIRST OBS
                                                            END OF HEADER
 21  1  1  0  0  0.0000000  0 11G07G21G30G09G08G01G04G27G22G14G16
 112835681.821 8  87923904.51446  21471905.070    21471908.855
        50.100          40.300
 107005733.934 8  83381185.74247  20362511.984    20362515.629
        50.500          43.600
 126426522.657 6  98514204.44644  24058171.328    24058177.469
        40.600          25.600
 121885689.384 7  94975822.41144  23194053.492    23194060.711
        42.000          27.000
 112548716.230 8  87700294.80948  21417282.883    21417289.105
        48.700          50.700
 109175889.602 8  85072172.80746  20775470.711    20775478.508
        49.700          41.600
 124037591.208 6  96652613.70344  23603543.203    23603549.348
        39.000          25.300
 124484745.822 6  97001150.56346  23688643.148    23688650.066
        41.700          38.700
 127692636.898 6  99500838.56242  24299113.758    24299117.711
        37.300          17.800
 133927143.90114                  25485485.609
        29.900
 126450412.393 6  98532825.40243  24062693.086    24062696.203
        39.700          21.700
 21  1  1  0  0 30.0000000  0 11G07G21G30G09G08G01G04G27G22G14G16
 112760649.563 8  87865437.81846  21457626.914    21457630.875
        49.700          40.200
 107007709.379 8  83382725.05047  20362887.891    20362891.789
        50.300          43.400
 126325832.092 6  98435744.26344  24039010.547    24039017.086
        41.300          26.600
 121935451.423 7  95014598.01444  23203523.086    23203529.840
        43.000          26.100
 112605096.537 8  87744227.51448  21428011.734    21428018.004
        48.800          50.500
 109099758.245 8  85012849.68146  20760983.594    20760991.176
        50.200          41.700
 124113939.219 6  96712105.64044  23618071.875    23618077.711
        39.900          27.200
 124570193.188 6  97067732.92446  23704902.945    23704909.543
        41.500          38.200
 127640691.838 6  99460362.06243  24289229.125    24289232.320
        38.600          18.600
 133870312.87615                  25474671.227
        31.000
 126490001.163 6  98563673.75243  24070226.773    24070229.641
        39.800          20.900
 21  1  1  0  1  0.0000000  0 11G07G21G30G09G08G01G04G27G22G14G16
 112685987.973 8  87807259.96046  21443419.328    21443423.215
        50.200          40.700
 107010266.891 8  83384717.93547  20363374.883    20363378.574
        50.300          44.000
 126225269.857 6  98357384.09744  24019874.125    24019880.863
        41.300          24.800
 121985395.829 7  95053515.72444  23213027.063    23213034.281
        43.800          27.100
 112661598.074 8  87788254.67948  21438763.633    21438770.254
        48.200          50.600
 109024062.544 8  84953866.02747  20746579.000    20746586.793
        50.700          42.000
 124190229.632 6  96771552.69944  23632589.352    23632595.207
        40.900          24.900
 124655554.557 6  97134248.27246  23721146.242    23721153.527
        40.100          37.700
 127588606.812 6  99419776.42743  24279318.023    24279321.555
        38.600          18.600
 133813355.66315                  25463832.734
        30.500
 126529656.530 6  98594574.01343  24077771.945    24077776.391
        39.200          19.600
 21  1  1  0  1 30.0000000  0 11G07G21G30G09G08G01G04G27G22G14G16
 112611699.530 8  87749372.86346  21429282.398    21429286.453
        49.900          40.200
 107013406.105 8  83387164.09347  20363971.883    20363975.797
        50.200          43.600
 126124838.374 6  98279125.82744  24000762.414    24000769.188
        39.700          25.300
 122035519.528 7  95092573.12444  23222565.859    23222571.941
        43.000          27.900
 112718218.939 8  87832374.83548  21449538.141    21449545.164
        49.100          50.700
 108948805.263 8  84895224.00046  20732258.102    20732265.727
        49.900          41.500
 124266459.691 6  96830952.72144  23647095.617    23647101.461
        40.000          26.800
 124740828.312 6  97200695.31946  23737373.344    23737379.891
        39.200          36.500
 127536383.656 6  99379083.22043  24269380.719    24269383.781
        39.200          20.900
 133756271.43015                  25452968.773
        32.600
 126569378.839 6  98625526.46643  24085330.984    24085335.359
        38.300          20.600
 21  1  1  0  2  0.0000000  0 11G07G21G30G09G08G01G04G27G22G14G16
 112537787.268 8  87691778.89546  21415217.031    21415221.508
        50.000          40.000
 107017127.100 8  83390063.57547  20364680.266    20364683.926
        51.000          43.500
 126024540.233 6  98200971.45544  23981676.555    23981683.594
        41.000          26.800
 122085819.870 7  95131768.20044  23232137.078    23232143.996
        43.200          28.000
 112774956.684 8  87876586.05348  21460334.969    21460341.750
        48.200          50.500
 108873989.544 8  84836926.06446  20718020.953    20718028.773
        50.800          41.400
 124342626.845 6  96890303.76644  23661589.758    23661595.430
        40.800          26.000
 124826013.222 6  97267073.14646  23753583.516    23753590.680
        39.200          36.500
 127484024.680 6  99338284.14043  24259416.453    24259420.559
        37.800          20.900
 133699060.13715                  25442081.547
        31.300
 126609169.583 6  98656532.20743  24092902.836    24092907.504
        39.700          21.100
 21  1  1  0  2 30.0000000  0 11G07G21G30G09G08G01G04G27G22G14G16
 112464253.929 8  87634480.19246  21401224.125    21401228.605
        48.500          39.600
 107021430.034 8  83393416.51847  20365498.922    20365502.680
        50.300          43.400
 125924378.060 6  98122923.01944  23962616.359    23962623.051
        39.600          26.100
 122136294.145 7  95171098.79444  23241742.742    23241749.195
        44.100          28.900
 112831809.345 7  87920886.81148  21471153.617    21471160.383
        47.100          50.100
 108799618.206 8  84778974.37747  20703868.469    20703876.531
        50.500          42.300
 124418728.614 6  96949603.82944  23676071.148    23676077.773
        41.200          26.100
 124911107.802 6  97333380.59846  23769776.719    23769783.730
        39.400          36.300
 127431531.873 6  99297380.75243  24249426.891    24249430.992
        37.700          21.300
 133641721.17815                  25431172.477
        30.700
 126649029.338 6  98687591.73043  24100488.719    24100492.395
        40.400          22.000
 21  1  1  0  3  0.0000000  0 11G07G21G30G09G08G01G04G27G22G14G16
 112391102.431 8  87577479.02546  21387304.227    21387308.258
        50.000          39.600
 107026314.466 8  83397222.59047  20366428.633    20366432.184
        50.000          44.100
 125824354.740 6  98044982.77344  23943582.359    23943588.840
        38.800          26.000
 122186939.604 7  95210562.79245  23251379.891    23251386.902
        44.300          30.100
 112888774.862 7  87965275.51948  21481993.797    21482000.430
        47.100          49.900
 108725694.411 8  84721371.44346  20689801.398    20689809.113
        50.700          41.900
 124494762.528 6  97008851.04144  23690539.508    23690546.289
        40.300          25.400
 124996111.023 6  97399616.86546  23785952.602    23785958.770
        41.200          37.500
 127378906.998 6  99256374.48443  24239412.820    24239416.578
        37.300          21.500
 133584253.838 5                  25420236.023
        30.300
 126688959.571 6  98718706.17943  24108087.094    24108090.480
        40.000          21.700
 21  1  1  0  3 30.0000000  0 11G07G21G30G09G08G01G04G27G22G14G16
 112318334.900 8  87520777.05146  21373457.117    21373461.191
        49.600          40.400
 107031779.834 8  83401481.33247  20367468.156    20367472.004
        51.100          43.700
 125724472.390 6  97967152.40244  23924575.141    23924581.574
        38.800          25.500
 122237752.892 7  95250157.54945  23261049.383    23261055.984
        42.800          30.000
 112945850.340 7  88009749.90148  21492855.117    21492861.730
        47.000          50.200
 108652220.623 8  84664119.14646  20675819.828    20675827.727
        50.700          41.900
 124570725.598 6  97068043.03544  23704995.477    23705001.574
        40.000          25.600
 125081020.867 6  97465780.38046  23802110.625    23802116.906
        41.600          38.400
 127326152.728 6  99215267.39843  24229374.336    24229377.672
        38.300          21.500
 133526658.20514                  25409276.234
        29.900
 126728961.049 6  98749876.16143  24115699.391    24115702.574
        41.100          21.500
 21  1  1  0  4  0.0000000  0 11G07G21G30G09G08G01G04G27G22G14G16
 112245954.930 8  87464377.07846  21359683.648    21359687.512
        49.600          40.500
 107037826.522 8  83406193.04447  20368619.094    20368622.488
        50.200          43.700
 125624733.962 6  97889434.13944  23905596.016    23905602.254
        38.700          24.900
 122288731.784 6  95289881.36544  23270750.070    23270757.160
        41.800          28.900
 113003034.556 7  88054309.02048  21503736.664    21503742.852
        46.800          49.900
 108579200.261 8  84607220.18046  20661924.336    20661932.191
        49.500          41.700
 124646615.783 6  97127178.23043  23719437.039    23719443.133
        38.600          23.000
 125165836.678 6  97531870.63046  23818250.391    23818256.754
        41.600          37.500
 127273270.837 6  99174060.87343  24219310.930    24219314.078
        37.800          21.100
 133468934.73514                  25398292.102
        29.900
 126769035.211 6  98781102.78243  24123325.102    24123328.816
        40.100          19.600
 21  1  1  0  4 30.0000000  0 11G07G21G30G09G08G01G04G27G22G14G16
 112173964.879 8  87408280.93946  21345984.133    21345988.531
        49.600          40.200
 107044453.701 8  83411357.09247  20369880.266    20369883.457
        50.900          43.400
 125525141.917 6  97811829.94344  23886643.859    23886650.195
        38.400          24.200
 122339873.050 7  95329731.68344  23280482.289    23280489.055
        42.300          29.100
 113060325.069 7  88098950.96248  21514638.906    21514645.023
        47.600          49.800
 108506635.810 8  84550676.45647  20648115.766    20648123.555
        50.000          42.000
 124722430.177 6  97186254.39044  23733863.664    23733869.727
        39.500          26.800
 125250556.687 6  97597886.19245  23834371.734    23834378.535
        40.200          35.600
 127220263.413 6  99132756.48943  24209223.195    24209227.082
        39.200          22.000
 133411081.080 4                  25387281.781
        28.000
 126809182.987 6  98812386.76643  24130964.742    24130968.285
        40.000          22.900
 21  1  1  0  5  0.0000000  0 11G07G21G30G09G08G01G04G27G22G14G16
 112102367.241 8  87352490.57046  21332359.289    21332364.129
        50.000          40.500
 107051660.829 8  83416973.03747  20371251.797    20371255.063
        50.300          44.000
 125425698.697 6  97734341.74044  23867720.195    23867727.020
        39.200          25.300
 122391173.825 6  95369706.34644  23290244.039    23290250.996
        40.700          29.000
 113117719.716 7  88143674.05548  21525560.430    21525567.105
        46.600          49.800
 108434530.131 8  84494490.23847  20634394.383    20634402.277
        50.200          42.100
 124798166.452 6  97245269.63243  23748275.727    23748281.621
        38.900          22.500
 125335179.503 6  97663826.05846  23850474.750    23850481.625
        39.900          36.700
 127167132.846 6  99091356.14744  24199113.109    24199116.883
        39.900          25.300
 133353098.14915                  25376248.648
        30.100
 126849404.870 6  98843728.49243  24138618.609    24138622.672
        39.200          21.300
 21  1  1  0  5 30.0000000  0 11G07G21G30G09G08G01G04G27G22G14G16
 112031164.876 8  87297008.21046  21318810.430    21318814.461
        50.200          40.900
 107059447.729 8  83423040.75747  20372733.516    20372737.203
        50.800          43.600
 125326406.972 6  97656971.57044  23848825.430    23848833.102
        39.500          27.700
 122442631.355 6  95409803.13844  23300036.344    23300043.141
        40.800          28.600
 113175216.294 7  88188476.56848  21536501.641    21536508.484
        47.900          49.800
 108362886.059 8  84438663.70947  20620761.016    20620768.688
        50.000          42.300
 124873821.931 6  97304221.98243  23762672.773    23762678.707
        39.800          22.900
 125419703.940 6  97729689.24546  23866559.820    23866566.070
        40.300          36.400
 127113881.064 6  99049861.36943  24188979.781    24188983.734
        39.800          22.900
 133294985.554 5                  25365190.375
        31.500
 126889702.049 6  98875128.86543  24146286.773    24146290.855
        39.000          22.200
 21  1  1  0  6  0.0000000  0 11G07G21G30G09G08G01G04G27G22G14G16
 111960360.524 8  87241835.98446  21305337.195    21305340.754
        50.000          41.100
 107067814.249 8  83429560.13647  20374325.766    20374329.063
        50.500          43.600
 125227269.384 6  97579721.50244  23829960.969    23829967.816
        40.600          25.600
 122494242.898 6  95450019.92544  23309857.656    23309864.648
        40.600          29.200
 113232812.294 7  88233356.55448  21547462.172    21547468.926
        47.100          50.200
 108291706.481 8  84383199.12447  20607216.039    20607224.063
        50.600          42.000
 124949394.090 6  97363109.35644  23777053.602    23777059.551
        39.900          25.200
 125504128.683 6  97795474.75146  23882624.719    23882631.293
        40.400          36.000
 127060510.336 6  99008273.88143  24178823.727    24178827.387
        39.700          23.200
 133236742.60015                  25354107.117
        32.000
 126930075.924 6  98906588.99043  24153969.844    24153974.117
        38.700          22.000
 21  1  1  0  6 30.0000000  0 11G07G21G30G09G08G01G04G27G22G14G16
 111889956.607 8  87186975.79046  21291939.578    21291943.363
        49.700          41.300
 107076759.838 8  83436530.73747  20376027.672    20376031.215
        50.600          43.500
 125128288.558 6  97502593.59144  23811126.117    23811132.105
        40.400          25.300
 122546005.342 6  95490354.28944  23319707.125    23319715.090
        39.400          28.500
 113290506.148 7  88278312.79148  21558440.742    21558447.512
        47.100          49.800
 108220994.060 8  84328098.55347  20593759.961    20593767.770
        50.100          42.600
 125024880.372 6  97421929.83144  23791417.672    23791424.145
        40.400          26.100
 125588452.361 6  97861181.50646  23898671.250    23898677.285
        40.300          37.100
 127007022.630 6  98966595.28344  24168645.461    24168647.980
        40.000          25.600
 133178369.05414                  25342999.828
        29.600
 126970527.127 6  98938109.41843  24161666.938    24161671.535
        39.200          21.700
 21  1  1  0  7  0.0000000  0 11G07G21G30G09G08G01G04G27G22G14G16
 111819956.142 8  87132429.98846  21278619.133    21278622.691
        48.700          40.600
 107086284.154 8  83443952.29147  20377840.344    20377843.777
        50.700          43.800
 125029467.208 6  97425589.93444  23792320.773    23792326.766
        40.800          26.200
 122597916.257 6  95530804.34744  23329585.750    23329593.418
        40.600          28.700
 113348295.874 7  88323343.74948  21569437.883    21569444.641
        46.900          50.000
 108150751.950 8  84273364.44747  20580393.148    20580401.098
        50.700          42.000
 125100278.600 6  97480681.69044  23805766.398    23805772.488
        41.800          25.500
 125672673.920 6  97926808.69646  23914698.398    23914704.211
        40.400          36.100
 126953420.486 6  98924827.48244  24158445.086    24158448.352
        41.000          25.300
 133119865.31214                  25331865.906
        29.900
 127011056.835 6  98969690.98543  24169379.945    24169383.691
        40.900          22.900
 21  1  1  0  7 30.0000000  0 11G07G21G30G09G08G01G04G27G22G14G16
 111750361.924 8  87078200.72646  21265375.250    21265379.563
        50.000          41.400
 107096387.047 8  83451824.67947  20379762.609    20379766.453
        50.800          43.900
 124930808.087 6  97348712.70744  23773546.375    23773552.395
        41.500          26.500
 122649972.821 6  95571367.90844  23339491.664    23339499.250
        40.200          26.500
 113406179.267 7  88368447.68548  21580452.836    21580459.250
        47.900          50.200
 108080982.972 8  84218999.02447  20567116.852    20567124.438
        51.000          42.800
 125175586.362 6  97539363.03144  23820096.547    23820102.766
        40.900          24.400
 125756792.252 6  97992355.44246  23930704.914    23930711.227
        39.400          36.500
 126899706.036 6  98882972.15943  24148223.141    24148226.273
        39.100          22.300
 133061230.16514                  25320707.109
        28.300
 127051666.371 6  99001334.79343  24177108.328    24177111.500
        40.900          21.700
 21  1  1  0  8  0.0000000  0 11G07G21G30G09G08G01G04G27G22G14G16
 111681176.045 8  87024289.65246  21252209.586    21252213.801
        49.300          41.400
 107107067.129 8  83460146.83747  20381795.172    20381798.758
        51.900          44.100
 124832313.204 6  97271963.43444  23754803.086    23754809.215
        40.700          25.300
 122702171.553 6  95612042.24544  23349425.281    23349431.770
        41.000          28.400
 113464153.664 8  88413622.53948  21591484.852    21591491.363
        48.900          50.000
 108011689.191 8  84165003.87447  20553930.672    20553938.277
        51.000          43.200
 125250800.426 6  97597971.37644  23834409.422    23834415.570
        40.500          25.100
 125840805.279 6  98057820.14146  23946692.109    23946698.898
        40.400          37.500
 126845881.150 6  98841030.78644  24137980.219    24137984.109
        39.300          25.000
 133002462.59715                  25309525.148
        30.800
 127092356.056 6  99033041.02243  24184850.758    24184854.500
        41.200          21.100
 21  1  1  0  8 30.0000000  0 11G07G21G30G09G08G01G04G27G22G14G16
 111612401.358 8  86970698.99646  21239122.391    21239126.430
        50.200          41.100
 107118324.157 8  83468918.55047  20383937.305    20383940.813
        50.500          43.700
 124733985.339 6  97195344.34244  23736091.219    23736098.316
        40.800          26.600
 122754509.829 7  95652825.31144  23359385.203    23359391.746
        42.000          28.700
 113522217.439 7  88458867.02748  21602533.961    21602540.504
        47.800          49.700
 107942873.676 8  84111381.40047  20540835.289    20540843.215
        50.400          42.800
 125325918.544 6  97656504.98843  23848703.359    23848709.781
        38.700          22.500
 125924712.127 6  98123202.09546  23962659.391    23962666.168
        39.800          38.300
 126791948.038 6  98799005.09744  24127717.602    24127720.641
        40.600          24.400
 132943563.499 5                  25298317.555
        31.200
 127133127.141 6  99064810.71643  24192609.602    24192613.176
        40.000          21.500
 21  1  1  0  9  0.0000000  0 11G07G21G30G09G08G01G04G27G22G14G16
 111544040.957 8  86917431.14846  21226113.680    21226117.738
        50.000          41.200
 107130158.005 8  83478139.74747  20386189.430    20386192.676
        50.000          43.300
 124635827.645 6  97118857.82644  23717412.359    23717419.387
        40.900          24.400
 122806985.262 7  95693715.27144  23369371.508    23369377.215
        43.200          28.200
 113580368.980 8  88504179.91648  21613599.961    21613606.488
        48.300          49.900
 107874539.533 8  84058134.03747  20527831.820    20527839.684
        51.000          42.600
 125400938.820 6  97714962.31943  23862979.539    23862985.699
        38.900          22.200
 126008512.055 6  98188500.71846  23978606.086    23978612.891
        39.900          37.500
 126737908.917 6  98756896.78643  24117434.250    24117437.547
        39.600          22.800
 132884532.69615                  25287083.820
        31.000
 127173981.027 6  99096644.89243  24200384.008    24200387.469
        40.100          21.700
 21  1  1  0  9 30.0000000  0 11G07G21G30G09G08G01G04G27G22G14G16
 111476097.162 8  86864487.93546  21213184.438    21213188.414
        50.300          40.900
 107142567.874 8  83487809.77947  20388550.422    20388554.004
        50.000          43.400
 124537842.452 6  97042505.74544  23698765.844    23698773.070
        40.500          24.800
 122859594.866 7  95734709.74144  23379382.352    23379388.961
        43.700          29.400
 113638605.946 7  88549559.34948  21624682.383    21624688.883
        47.600          49.900
 107806689.216 8  84005263.67847  20514920.047    20514928.367
        50.800          42.800
 125475858.365 6  97773341.18943  23877236.797    23877242.402
        38.900          22.300
 126092203.596 6  98253714.90946  23994531.906    23994539.168
        39.500          37.800
 126683766.421 6  98714707.93344  24107131.406    24107134.125
        41.500          24.400
 132825369.466 5 103500290.41152  25275824.875    25275828.574
        33.000          15.600
 127214918.386 6  99128544.10743  24208173.547    24208177.809
        38.300          21.300
 21  1  1  0 10  0.0000000  0 11G07G21G30G09G08G01G04G27G22G14G16
 111408572.405 8  86811871.23446  21200334.977    21200339.039
        49.100          41.300
 107155552.906 8  83497927.99747  20391021.688    20391025.227
        50.700          43.500
 124440032.163 6  96966289.90544  23680154.438    23680160.156
        40.100          26.800
 122912335.356 7  95775806.21644  23389418.641    23389425.031
        44.100          29.300
 113696925.983 7  88595003.51848  21635779.977    21635787.059
        47.200          49.500
 107739325.127 8  83952772.20347  20502101.117    20502109.086
        51.000          43.000
 125550674.874 6  97831639.73643  23891474.172    23891479.816
        39.000          23.500
 126175785.230 6  98318843.43546  24010437.086    24010443.953
        39.300          37.200
 126629522.628 6  98672440.12744  24096808.313    24096811.484
        40.800          24.500
 132766073.330 5 103454085.56652  25264541.609    25264544.258
        32.300          14.800
 127255940.281 6  99160509.18343  24215979.242    24215984.008
        38.800          22.000
 21  1  1  0 10 30.0000000  0 11G07G21G30G09G08G01G04G27G22G14G16
 111341469.815 8  86759583.51546  21187565.625    21187569.863
        49.300          40.900
 107169113.081 8  83508494.37247  20393601.914    20393605.598
        50.700          43.900
 124342399.760 6  96890212.71944  23661575.156    23661581.789
        40.300          27.500
 122965204.270 7  95817002.77944  23399478.070    23399485.781
        42.100          28.300
 113755327.611 7  88640511.27348  21646893.133    21646900.379
        47.900          49.900
 107672450.351 8  83900662.00647  20489375.219    20489383.004
        50.200          42.700
 125625385.897 6  97889856.10044  23905690.711    23905697.219
        40.200          24.600
 126259256.091 6  98383885.64146  24026321.188    24026327.816
        41.000          38.400
 126575179.939 6  98630095.23844  24086467.336    24086470.551
        38.800          25.000
 132706644.553 5 103407777.46352  25253231.984    25253236.055
        32.000          14.800
 127297047.647 6  99192540.88743  24223802.430    24223806.617
        38.500          22.000
 21  1  1  0 11  0.0000000  0 11G07G21G30G09G08G01G04G27G22G14G16
 111274791.700 8  86707626.54346  21174877.242    21174881.332
        49.600          40.900
 107183247.615 8  83519508.29547  20396291.680    20396295.332
        50.500          43.900
 124244947.832 6  96814276.17444  23643031.242    23643036.984
        39.900          27.100
 123018198.821 6  95858297.22444  23409563.070    23409569.871
        41.600          25.900
 113813808.432 7  88686080.73448  21658022.172    21658028.797
        47.800          49.600
 107606067.478 8  83848935.10547  20476743.305    20476750.957
        50.300          43.000
 125699989.113 6  97947988.43843  23919886.766    23919893.859
        39.900          22.800
 126342614.912 6  98448840.55146  24042183.602    24042190.777
        41.200          37.400
 126520740.167 6  98587674.72844  24076107.914    24076111.082
        40.700          25.700
 132647082.614 5 103361365.55342  25241898.383    25241903.379
        35.100          14.800
 127338241.371 6  99224639.88543  24231641.258    24231645.813
        40.200          21.300
 21  1  1  0 11 30.0000000  0 11G07G21G30G09G08G01G04G27G22G14G16
 111208540.779 8  86656002.44447  21162270.352    21162274.313
        50.000          42.000
 107197955.579 8  83530969.06747  20399090.852    20399094.195
        50.900          43.700
 124147678.952 6  96738482.27444  23624521.609    23624527.086
        40.900          25.800
 123071316.067 6  95899687.27744  23419670.945    23419677.832
        40.700          27.000
 113872366.530 7  88731710.40448  21669165.250    21669171.813
        47.900          49.200
 107540179.106 8  83797593.52147  20464205.023    20464212.992
        50.200          42.500
 125774481.881 6  98006034.74943  23934062.602    23934069.293
        40.500          23.500
 126425860.542 6  98513707.26046  24058025.688    24058031.898
        39.900          37.100
 126466205.666 6  98545180.40444  24065730.797    24065733.480
        41.500          25.600
 132587387.112 5 103314849.65242  25230539.391    25230544.211
        34.800          15.600
 127379522.947 6  99256807.31043  24239497.414    24239500.715
        41.100          21.800
 21  1  1  0 12  0.0000000  0 11G07G21G30G09G08G01G04G27G22G14G16
 111142719.634 8  86604713.23846  21149744.984    21149749.098
        49.300          40.900
 107213236.200 8  83542876.04447  20401998.375    20402001.957
        51.000          43.900
 124050595.617 6  96662832.94244  23606046.867    23606053.234
        40.400          26.700
 123124553.067 6  95941170.65644  23429801.516    23429808.840
        41.400          27.200
 113930999.452 7  88777398.38748  21680322.875    21680329.664
        47.100          49.300
 107474787.732 8  83746639.22347  20451761.305    20451769.230
        50.300          43.000
 125848861.971 6  98063993.23543  23948216.180    23948223.117
        38.100          22.300
 126508991.700 6  98578484.78046  24073844.633    24073851.332
        40.100          37.500
 126411578.986 6  98502614.22544  24055335.227    24055338.313
        40.300          25.600
 132527558.097 5 103268229.72042  25219153.609    25219160.020
        33.700          16.300
 127420893.079 6  99289043.75843  24247369.578    24247373.734
        39.600          22.200
 21  1  1  0 12 30.0000000  0 11G07G21G30G09G08G01G04G27G22G14G16
 111077330.638 8  86553760.77046  21137301.836    21137305.766
        49.900          40.900
 107229088.846 8  83555228.76447  20405014.742    20405018.711
        51.100          44.000
 123953700.587 6  96587330.35844  23587608.023    23587614.848
        41.300          26.100
 123177907.125 6  95982745.22944  23439955.195    23439961.824
        41.400          28.000
 113989705.646 7  88823143.45248  21691494.023    21691501.188
        46.900          49.500
 107409896.185 8  83696074.38547  20439412.984    20439420.766
        49.300          43.200
 125923126.938 6  98121862.00243  23962349.320    23962354.961
        38.800          22.900
 126592007.465 6  98643172.35846  24089641.227    24089648.711
        38.400          36.000
 126356862.429 6  98459978.05843  24044923.188    24044925.984
        39.100          23.500
 132467595.102 5 103221505.40642  25207742.242    25207749.078
        35.400          15.600
 127462352.769 6  99321349.99543  24255259.398    24255262.992
        39.200          22.200
 21  1  1  0 13  0.0000000  0 11G07G21G30G09G08G01G04G27G22G14G16
 111012376.554 8  86503147.20246  21124941.656    21124945.492
        49.500          40.800
 107245513.063 8  83568026.86447  20408140.281    20408144.102
        50.600          43.400
 123856996.712 6  96511976.68144  23569206.328    23569213.508
        40.800          27.100
 123231375.518 6  96024408.91444  23450130.094    23450136.719
        41.100          28.400
 114048483.243 7  88868944.15948  21702678.953    21702686.090
        45.800          48.800
 107345507.011 8  83645901.02547  20427159.859    20427167.910
        49.900          42.400
 125997274.428 6  98179639.22344  23976459.383    23976464.926
        38.300          24.600
 126674906.664 6  98707769.14646  24105415.789    24105423.734
        38.400          36.000
 126302058.015 6  98417273.37344  24034494.063    24034496.430
        40.200          24.300
 132407497.851 5 103174676.35442  25196306.891    25196311.605
        33.300          13.900
 127503902.882 6  99353726.68343  24263165.133    24263169.582
        39.800          22.000
 21  1  1  0 13 30.0000000  0 11G07G21G30G09G08G01G04G27G22G14G16
 110947859.550 8  86452874.19946  21112663.898    21112668.355
        49.300          41.300
 107262507.276 8  83581269.11447  20411374.078    20411377.848
        50.800          43.300
 123760486.379 6  96436773.84044  23550840.563    23550848.488
        40.400          25.900
 123284955.032 6  96066159.18544  23460325.563    23460332.121
        40.200          27.800
 114107329.778 7  88914798.59248  21713877.297    21713884.227
        46.700          49.000
 107281622.596 8  83596120.96547  20415003.297    20415011.098
        49.900          43.300
 126071301.945 6  98237322.97843  23990545.828    23990552.227
        36.900          22.000
 126757688.038 6  98772274.09146  24121169.945    24121176.301
        38.800          36.200
 126247167.677 6  98374501.80144  24024048.766    24024050.891
        40.700          25.300
 132347266.317 5 103127742.73242  25184844.742    25184849.074
        34.300          15.600
 127545544.328 6  99386174.56943  24271090.688    24271094.082
        40.100          22.300
 21  1  1  0 14  0.0000000  0 11G07G21G30G09G08G01G04G27G22G14G16
 110883782.811 8  86402944.27346  21100470.766    21100474.969
        48.500          41.100
 107280071.349 8  83594955.41147  20414716.594    20414720.297
        50.300          43.700
 123664172.414 6  96361724.01444  23532512.570    23532520.500
        40.500          27.300
 123338643.258 6  96107994.16244  23470541.695    23470548.555
        39.300          26.700
 114166243.808 7  88960705.61548  21725088.375    21725095.352
        46.000          49.000
 107218245.772 8  83546736.42147  20402942.859    20402950.914
        50.200          42.900
 126145207.450 6  98294911.64643  24004610.000    24004616.113
        37.400          21.500
 126840350.659 6  98836686.49145  24136899.406    24136906.457
        37.900          35.600
 126192194.377 6  98331665.54444  24013587.367    24013590.340
        41.400          25.000
 132286900.320 5 103080704.26842  25173357.438    25173360.617
        35.800          15.600
 127587278.443 6  99418694.62243  24279031.914    24279035.742
        40.000          21.800
 21  1  1  0 14 30.0000000  0 11G07G21G30G09G08G01G04G27G22G14G16
 110820148.303 8  86353358.94046  21088361.531    21088365.773
        49.400          41.100
 107298204.156 8  83609084.88147  20418166.984    20418170.504
        49.700          43.600
 123568057.313 6  96286829.15444  23514222.727    23514230.313
        40.900          27.900
 123392437.089 6  96149911.44344  23480778.438    23480785.395
        39.000          27.200
 114225223.285 7  89006663.63748  21736311.727    21736318.523
        45.900          48.600
 107155378.807 8  83497749.18247  20390979.906    20390987.746
        49.800          43.200
 126218988.271 6  98352403.16543  24018649.375    24018655.883
        39.200          22.800
 126922893.243 6  98901005.38545  24152607.164    24152613.895
        38.400          34.700
 126137140.227 7  98288766.25944  24003110.891    24003114.012
        42.300          26.100
 132226399.569 5 103033560.81342  25161845.117    25161848.297
        33.700          16.900
 127629105.891 6  99451287.43443  24286990.773    24286995.328
        38.700          21.100
 21  1  1  0 15  0.0000000  0 11G07G21G30G09G08G01G04G27G22G14G16
 110756958.871 8  86304120.41746  21076337.406    21076340.844
        48.800          41.500
 107316904.981 8  83623656.95847  20421725.891    20421729.301
        50.600          43.600
 123472143.844 6  96212091.41044  23495971.328    23495978.516
        40.800          26.500
 123446333.731 6  96191908.82344  23491034.875    23491041.637
        40.800          26.400
 114284265.962 7  89052670.90148  21747547.383    21747554.070
        46.500          48.900
 107093024.354 8  83449161.31047  20379114.281    20379122.254
        50.300          43.300
 126292642.219 6  98409795.80743  24032665.383    24032671.211
        37.900          22.000
 127005314.826 6  98965229.98345  24168291.453    24168298.133
        39.000          35.400
 126082007.531 6  98245805.77344  23992618.852    23992622.613
        41.800          24.700
 132165763.824 5 102986312.22742  25150306.125    25150310.656
        35.000          17.400
 127671027.565 6  99483953.64143  24294967.992    24294972.293
        38.900          22.300
 21  1  1  0 15 30.0000000  0 11G07G21G30G09G08G01G04G27G22G14G16
 110694216.832 8  86255230.52146  21064397.773    21064401.406
        48.800          41.100
 107336173.048 8  83638671.04747  20425392.695    20425396.129
        50.400          43.500
 123376434.664 6  96137512.86244  23477758.063    23477765.418
        40.200          28.200
 123500330.392 6  96233984.13944  23501309.773    23501316.488
        40.500          26.900
 114343370.424 7  89098726.30648  21758794.844    21758801.195
        46.200          48.800
 107031184.946 8  83400974.76247  20367346.672    20367354.422
        49.900          43.400
 126366166.997 6  98467087.80243  24046656.758    24046662.941
        39.400          22.000
 127087614.374 6  99029359.48245  24183952.438    24183959.352
        37.900          33.700
 126026798.570 7  98202785.87544  23982113.313    23982116.641
        42.200          25.100
 132104992.950 5 102938958.31542  25138741.813    25138746.434
        35.200          17.400
 127713045.151 6  99516694.63043  24302964.516    24302968.313
        40.500          22.500
 21  1  1  0 16  0.0000000  0 11G07G21G30G09G08G01G04G27G22G14G16
 110631924.586 8  86206691.11146  21052543.930    21052547.676
        49.400          41.300
 107356007.240 8  83654126.25847  20429166.797    20429170.070
        50.000          43.800
 123280932.406 6  96063095.54044  23459584.648    23459591.559
        41.800          28.700
 123554424.330 6  96276135.25044  23511603.320    23511610.762
        40.900          26.400
 114402534.260 7  89144827.99048  21770053.227    21770059.660
        46.500          48.800
 106969862.915 8  83353191.36347  20355677.383    20355685.141
        51.100          43.600
 126439560.127 6  98524277.17143  24060623.219    24060629.137
        37.900          21.500
 127169790.858 6  99093393.08445  24199590.203    24199596.867
        37.400          32.700
 125971515.658 6  98159708.32444  23971593.688    23971596.410
        40.900          24.000
 132044086.905 5 102891499.08443  25127151.094    25127157.141
        34.800          19.600
 127755159.044 6  99549510.63643  24310978.648    24310982.648
        40.300          21.800
 21  1  1  0 16 30.0000000  0 11G07G21G30G09G08G01G04G27G22G14G16
 110570085.143 8  86158504.52947  21040776.078    21040780.199
        49.600          42.100
 107376406.828 8  83670022.05047  20433048.906    20433052.125
        49.900          44.200
 123185639.778 6  95988841.56044  23441450.789    23441457.730
        40.600          28.300
 123608612.766 7  96318360.02144  23521915.789    23521922.098
        42.100          28.300
 114461755.929 7  89190974.74148  21781322.422    21781328.918
        45.900          48.300
 106909060.980 8  83305813.23447  20344107.109    20344115.129
        50.200          43.600
 126512819.540 6  98581362.43043  24074563.570    24074569.934
        39.300          20.900
 127251843.209 6  99157329.97945  24215202.813    24215210.938
        36.400          33.400
 125916161.426 6  98116575.18943  23961059.656    23961062.465
        40.800          21.700
 131983045.478 5 102843943.37252  25115535.578    25115541.191
        34.000          16.300
 127797370.345 6  99582402.53543  24319010.672    24319014.883
        39.200          22.300
 21  1  1  0 17  0.0000000  0 11G07G21G30G09G08G01G04G27G22G14G16
 110508700.876 8  86110672.63446  21029094.984    21029099.242
        49.600          41.600
 107397370.497 8  83686357.38847  20437037.750    20437041.574
        49.700          44.200
 123090559.313 6  95914752.90344  23423357.563    23423364.457
        41.000          28.600
 123662892.662 6  96360656.01544  23532244.508    23532251.242
        41.600          27.000
 114521033.112 7  89237164.73148  21792602.859    21792609.301
        47.200          48.600
 106848781.270 8  83258842.04447  20332636.219    20332644.270
        50.200          43.900
 126585942.752 6  98638341.50843  24088478.813    24088485.125
        39.500          22.200
 127333770.281 6  99221169.25945  24230794.609    24230800.633
        37.400          32.300
 125860738.241 7  98073388.39344  23950513.172    23950515.625
        42.000          24.400
 131921868.452 5 102796272.80652  25103894.547    25103898.977
        34.500          17.800
 127839680.033 6  99615371.10643  24327062.305    24327066.559
        40.500          22.200
 21  1  1  0 17 30.0000000  0 12G07G21G30G09G08G01G04G27G28G22G14G16
 110447773.836 8  86063197.01646  21017501.297    21017505.141
        50.000          41.700
 107418897.443 8  83703131.64147  20441134.500    20441137.871
        49.900          43.700
 122995693.787 6  95840831.72244  23405304.664    23405311.930
        40.400          27.100
 123717261.387 6  96403021.27444  23542590.875    23542596.984
        41.600          26.700
 114580364.041 7  89283396.61448  21803892.719    21803899.582
        47.000          48.600
 106789026.348 8  83212279.77947  20321265.313    20321273.332
        50.200          43.700
 126658927.406 6  98695212.67543  24102367.563    24102374.125
        38.800          19.600
 127415571.089 6  99284910.14945  24246360.453    24246366.844
        38.000          32.600
 134785448.68315                  25648827.703
        33.300
 125805248.028 6  98030149.30744  23939953.594    23939956.258
        41.200          26.100
 131860555.60115 102748496.67552  25092227.297    25092231.660
        33.200          17.400
 127882089.010 6  99648417.04543  24335131.531    24335136.496
        39.200          22.200
 21  1  1  0 18  0.0000000  0 11G07G21G30G09G08G01G04G27G22G14G16
 110387306.585 8  86016079.67947  21005994.984    21005998.500
        48.800          42.000
 107440986.599 8  83720343.98247  20445337.516    20445341.355
        49.800          43.400
 122901045.847 6  95767080.10344  23387294.055    23387300.855
        40.400          27.300
 123771716.111 6  96445453.53644  23552952.813    23552959.496
        41.600          27.800
 114639747.252 7  89329669.23048  21815192.984    21815199.938
        45.800          48.200
 106729798.628 8  83166128.33547  20309994.758    20310002.363
        49.700          43.600
 126731771.498 6  98751974.26443  24116229.414    24116235.699
        38.600          22.000
 127497244.786 6  99348551.97845  24261902.453    24261908.922
        38.700          33.700
 125749693.392 6  97986860.01044  23929382.016    23929384.484
        40.400          26.100
 131799106.956 5 102700614.66442  25080533.016    25080538.523
        33.300          16.900
 127924598.045 6  99681540.93343  24343221.461    24343226.238
        39.100          22.600
 21  1  1  0 18 30.0000000  0 11G07G21G30G09G08G01G04G27G22G14G16
 110327301.745 8  85969322.65847  20994576.102    20994579.840
        49.000          42.400
 107463637.156 8  83737993.77547  20449648.016    20449651.500
        50.200          43.900
 122806618.256 6  95693500.17844  23369325.852    23369332.098
        40.900          28.500
 123826254.068 6  96487950.63944  23563331.391    23563337.906
        41.000          26.400
 114699180.292 7  89375980.68748  21826502.883    21826509.488
        46.300          48.100
 106671100.481 8  83120389.53347  20298824.961    20298832.445
        49.900          43.900
 126804472.698 6  98808624.52243  24130063.898    24130070.121
        37.500          20.400
 127578790.333 6  99412093.95345  24277420.055    24277426.727
        36.300          31.600
 125694076.806 7  97943522.46644  23918798.172    23918801.527
        42.100          25.600
 131737522.455 5 102652626.76442  25068813.063    25068818.523
        31.600          16.900
 127967208.516 6  99714743.88543  24351329.930    24351334.320
        40.200          21.300
 21  1  1  0 19  0.0000000  0 11G07G21G30G09G08G01G04G27G22G14G16
 110267761.453 8  85922927.62646  20983245.961    20983249.957
        48.600          41.900
 107486847.679 8  83756079.90647  20454064.961    20454068.184
        49.600          43.600
 122712413.446 7  95620093.84544  23351399.633    23351405.789
        42.200          28.700
 123880872.261 6  96530510.27744  23573724.438    23573731.398
        41.300          26.500
 114758661.774 7  89422329.87647  21837821.969    21837828.313
        46.000          47.900
 106612934.242 8  83075065.19547  20287756.266    20287763.809
        50.100          44.300
 126877028.665 6  98865161.60843  24143871.109    24143876.668
        38.100          19.900
 127660206.632 6  99475535.21145  24292912.773    24292919.633
        37.300          33.000
 125638400.555 6  97900138.43243  23908203.578    23908206.488
        40.200          23.800
 131675801.79215 102604532.81852  25057067.938    25057073.602
        31.900          13.900
 128009920.811 6  99748026.17443  24359458.180    24359462.129
        39.300          21.700
 21  1  1  0 19 30.0000000  0 11G07G21G30G09G08G01G04G27G22G14G16
 110208688.318 8  85876896.60846  20972004.461    20972008.496
        48.600          41.600
 107510617.276 8  83774601.68747  20458588.172    20458591.438
        50.500          43.700
 122618434.308 7  95546863.38044  23333515.680    23333521.918
        42.200          28.400
 123935568.025 7  96573130.36144  23584133.336    23584139.914
        42.400          27.500
 114818189.708 7  89468715.28547  21849149.242    21849155.898
        45.800          47.500
 106555302.223 8  83030157.14447  20276789.141    20276796.965
        50.200          44.300
 126949437.171 6  98921583.76543  24157649.656    24157655.047
        37.700          19.600
 127741492.930 6  99538875.19145  24308380.578    24308387.766
        38.900          33.500
 125582667.209 6  97856709.89344  23897598.094    23897600.664
        41.900          26.500
 131613944.86215 102556332.71552  25045298.336    25045303.027
        31.800          15.600
 128052736.719 6  99781389.18243  24367605.328    24367609.797
        39.200          21.100
 21  1  1  0 20  0.0000000  0 11G07G21G30G09G08G01G04G27G22G14G16
 110150084.561 8  85831231.34446  20960852.805    20960856.578
        49.400          41.700
 107534944.786 8  83793558.19347  20463217.133    20463220.969
        49.800          43.900
 122524683.341 6  95473810.69644  23315675.664    23315682.039
        41.600          28.900
 123990338.556 6  96615808.70744  23594554.805    23594562.266
        41.700          27.000
 114877762.099 7  89515135.31947  21860486.039    21860492.215
        45.900          47.500
 106498206.748 8  82985667.16547  20265924.203    20265931.918
        51.400          44.100
 127021695.923 6  98977889.25743  24171400.000    24171405.813
        38.000          18.300
 127822648.120 6  99602112.98745  24323824.461    24323831.090
        38.100          33.900
 125526879.042 7  97813238.64444  23886981.414    23886984.668
        42.000          26.500
 131551951.762 5 102508026.38442  25033500.719    25033506.426
        33.500          15.600
 128095656.599 6  99814833.24843  24375772.477    24375777.496
        37.000          20.600
 21  1  1  0 20 30.0000000  0 11G07G21G30G09G08G01G04G27G22G14G16
 110091952.560 8  85785933.68547  20949790.617    20949794.629
        49.100          42.400
 107559828.755 8  83812948.30747  20467952.609    20467956.148
        49.300          44.100
 122431163.110 6  95400937.79144  23297879.305    23297885.492
        41.800          29.600
 124045180.769 7  96658542.89844  23604992.016    23604998.719
        42.000          28.100
 114937377.190 7  89561588.62947  21871830.430    21871836.867
        45.400          47.600
 106441649.841 8  82941596.86447  20255161.773    20255169.234
        52.100          44.000
 127093802.523 6  99034076.22043  24185121.336    24185127.543
        36.900          19.300
 127903671.058 6  99665247.76045  24339242.539    24339249.188
        38.800          32.900
 125471038.241 6  97769726.40243  23876355.375    23876358.168
        40.100          23.800
 131489822.164 5 102459613.86142  25021678.961    25021683.160
        34.300          14.800
 128138681.354 6  99848359.01043  24383959.828    24383964.965
        39.200          20.100
 21  1  1  0 21  0.0000000  0 11G07G21G30G09G08G01G04G27G22G14G16
 110034294.558 8  85741005.36446  20938818.320    20938822.828
        50.000          41.800
 107585267.987 8  83832771.08747  20472793.477    20472797.082
        50.200          43.500
 122337876.336 6  95328246.80344  23280127.227    23280133.668
        41.700          29.800
 124100091.939 6  96701330.80944  23615440.633    23615448.035
        41.100          26.500
 114997032.775 7  89608073.49647  21883182.063    21883188.855
        45.700          47.300
 106385633.897 8  82897948.08447  20244502.695    20244509.895
        52.400          44.000
 127165754.818 6  99090142.86243  24198813.578    24198820.082
        36.900          18.300
 127984560.855 6  99728278.77245  24354635.469    24354641.543
        37.900          33.100
 125415147.579 6  97726175.29144  23865719.141    23865722.535
        40.400          26.400
 131427555.920 5 102411094.70242  25009830.547    25009834.094
        35.700          15.600
 128181811.997 6  99881967.26643  24392167.477    24392171.398
        38.800          22.500
 21  1  1  0 21 30.0000000  0 11G07G21G30G09G08G01G04G27G22G14G16
 109977113.254 8  85696448.50647  20927937.266    20927941.418
        49.800          42.100
 107611261.834 8  83853026.03947  20477739.719    20477743.613
        49.300          44.000
 122244826.018 6  95255740.07344  23262420.008    23262427.090
        40.600          28.700
 124155069.739 6  96744170.66544  23625902.531    23625909.668
        40.000          27.000
 115056727.459 7  89654588.83547  21894541.977    21894548.379
        46.000          47.400
 106330161.506 8  82854722.84947  20233946.141    20233954.203
        51.900          44.300
 127237551.043 6  99146087.95143  24212476.203    24212482.246
        36.900          18.600
 128065316.934 6  99791205.57045  24370003.336    24370009.000
        39.400          33.200
 125359209.765 6  97682587.44844  23855075.141    23855078.223
        40.500          24.500
 131365153.262 5 102362469.28142  24997954.125    24997959.258
        35.400          15.600
 128225049.574 6  99915658.88043  24400395.914    24400399.574
        39.200          21.100
 21  1  1  0 22  0.0000000  0 11G07G21G30G09G08G01G04G27G22G14G16
 109920410.899 8  85652264.85147  20917147.148    20917151.262
        48.300          42.700
 107637809.218 8  83873712.31447  20482792.164    20482795.367
        49.100          43.700
 122152014.734 6  95183419.59644  23244758.273    23244765.477
        40.700          28.800
 124210111.174 6  96787060.08044  23636376.125    23636383.449
        39.900          27.200
 115116459.475 7  89701133.26847  21905908.508    21905915.535
        46.400          47.500
 106275234.830 8  82811922.85147  20223493.797    20223502.043
        49.800          44.600
 127309188.907 6  99201909.60443  24226108.063    24226114.465
        36.200          19.000
 128145938.515 6  99854027.58945  24385344.805    24385351.301
        39.100          34.400
 125303226.961 6  97638964.57644  23844421.875    23844424.453
        41.700          25.800
 131302614.204 5 102313737.61742  24986053.492    24986058.980
        33.400          16.300
 128268394.681 6  99949434.24143  24408643.227    24408648.328
        38.400          21.300
 21  1  1  0 22 30.0000000  0 11G07G21G30G09G08G01G04G27G22G14G16
 109864189.891 8  85608456.27147  20906448.781    20906452.824
        50.000          42.400
 107664908.258 8  83894828.44847  20487948.711    20487952.109
        49.900          44.000
 122059445.009 6  95111287.34944  23227142.516    23227150.113
        40.900          28.900
 124265213.466 6  96829996.93444  23646862.477    23646868.508
        40.900          27.600
 115176226.901 7  89747705.29347  21917282.000    21917288.648
        45.000          47.100
 106220855.920 8  82769549.69347  20213145.984    20213153.801
        51.800          44.300
 127380665.898 5  99257605.90442  24239709.539    24239716.090
        35.900          16.900
 128226424.335 6  99916743.81145  24400660.375    24400666.727
        39.200          33.100
 125247200.790 7  97595307.86344  23833760.719    23833762.980
        42.100          25.800
 131239938.577 5 102264899.50142  24974125.836    24974132.094
        33.000          15.600
 128311848.939 6  99983294.68043  24416913.031    24416917.781
        38.900          21.700
 21  1  1  0 23  0.0000000  0 11G07G21G30G09G08G01G04G27G22G14G16
 109808452.567 8  85565024.59147  20895842.125    20895846.238
        50.100          42.100
 107692558.305 8  83916373.94047  20493209.805    20493213.602
        48.500          43.600
 121967119.650 7  95039345.50944  23209574.453    23209580.766
        42.400          29.100
 124320373.742 6  96872978.97544  23657358.719    23657365.438
        41.400          27.300
 115236027.658 7  89794303.29347  21928661.156    21928668.195
        45.500          47.000
 106167026.897 8  82727605.00947  20202902.750    20202910.352
        50.900          44.500
 127451980.292 5  99313175.49142  24253279.133    24253286.664
        35.200          16.300
 128306773.710 6  99979353.71645  24415950.500    24415956.441
        38.400          33.900
 125191134.744 6  97551620.11244  23823091.945    23823093.840
        40.600          26.400
 131177126.260 5 102215954.95042  24962173.703    24962178.188
        33.200          16.300
 128355413.281 6 100017240.86643  24425203.070    24425207.629
        40.200          21.100
 21  1  1  0 23 30.0000000  0 11G07G21G30G09G08G01G04G27G22G14G16
 109753200.841 8  85521971.29646  20885328.203    20885332.348
        50.800          41.900
 107720757.905 8  83938347.65447  20498576.383    20498579.754
        50.300          43.700
 121875041.170 7  94967596.05444  23192052.461    23192058.809
        42.600          29.800
 124375589.246 6  96916004.05544  23667866.563    23667872.637
        41.500          26.200
 115295860.646 7  89840926.39547  21940047.602    21940053.445
        45.800          46.900
 106113750.032 8  82686090.58247  20192764.133    20192772.160
        51.200          44.300
 127523129.530 5  99368616.44342  24266819.875    24266826.434
        34.200          15.600
 128386985.558 6 100041856.44845  24431214.508    24431220.391
        38.700          33.000
 125135030.948 6  97507902.93844  23812415.266    23812417.711
        41.000          25.300
 131114177.31315 102166903.94352  24950194.875    24950199.863
        34.600          16.900
 128399088.075 6 100051273.19543  24433513.813    24433518.016
        39.100          19.300
 21  1  1  0 24  0.0000000  0 11G07G21G30G09G08G01G04G27G22G14G16
 109698436.897 8  85479298.10147  20874907.141    20874911.074
        50.500          42.300
 107749505.187 8  83960748.13047  20504046.641    20504050.070
        49.800          43.200
 121783212.118 7  94896040.96344  23174578.383    23174583.969
        43.000          29.200
 124430856.982 6  96959069.80944  23678383.031    23678389.820
        41.100          26.100
 115355723.623 7  89887572.86247  21951439.063    21951445.152
        45.700          46.700
 106061027.207 8  82645007.87947  20182731.773    20182739.449
        52.000          44.700
 127594111.451 5  99423926.94942  24280327.320    24280334.086
        32.400          16.300
 128467059.015 6 100104251.33445  24446452.039    24446458.031
        38.700          32.400
 125078891.521 6  97464157.98244  23801731.977    23801734.750
        39.200          25.200
 131051091.314 5 102117746.04843  24938190.234    24938194.574
        35.300          18.300
 128442874.147 6 100085392.19643  24441846.047    24441849.910
        39.300          19.900
 21  1  1  0 24 30.0000000  0 12G07G21G30G09G08G01G04G27G28G22G14G16
 109644163.137 8  85437006.85047  20864579.172    20864583.082
        48.400          42.500
 107778799.100 8  83983574.56747  20509621.133    20509624.918
        49.600          43.400
 121691635.330 7  94824682.45044  23157151.461    23157157.598
        42.400          29.100
 124486174.387 6  97002174.27043  23688909.500    23688916.461
        40.600          23.500
 115415615.106 7  89934241.54447  21962835.977    21962842.297
        45.900          46.800
 106008860.744 8  82604358.69447  20172804.773    20172812.461
        49.900          44.500
 127664924.040 5  99479105.53242  24293803.008    24293810.066
        33.300          15.600
 128546993.423 6 100166537.88545  24461663.148    24461669.250
        40.000          33.400
 134129074.367 4                  25523919.227
        28.900
 125022719.502 6  97420387.62043  23791042.391    23791045.520
        38.000          22.900
 130987868.671 5 102068481.72443  24926159.641    24926164.359
        35.700          18.300
 128486772.516 6 100119598.71843  24450200.313    24450203.852
        38.800          19.300
 21  1  1  0 25  0.0000000  0 12G07G21G30G09G08G01G04G27G28G22G14G16
 109590381.976 8  85395099.45747  20854344.664    20854348.984
        50.500          42.800
 107808638.316 8  84006825.90947  20515299.578    20515303.129
        49.800          43.500
 121600313.453 7  94753522.55644  23139773.516    23139779.906
        42.500          29.800
 124541538.756 6  97045315.35843  23699445.500    23699451.992
        41.300          23.500
 115475533.414 7  89980931.13647  21974238.094    21974244.703
        46.800          46.900
 105957252.624 8  82564144.58347  20162983.797    20162991.664
        51.600          44.400
 127735565.19515  99534150.60152  24307245.156    24307251.867
        31.000          14.800
 128626787.735 6 100228715.26545  24476847.117    24476853.469
        38.600          32.700
 134081058.312 5                  25514780.141
        32.600
 124966517.329 6  97376593.77943  23780347.602    23780350.445
        40.200          22.300
 130924509.249 5 102019110.78643  24914103.047    24914107.516
        35.700          19.600
 128530783.977 6 100153893.29842  24458575.000    24458579.422
        37.900          17.400
 21  1  1  0 25 30.0000000  0 12G07G21G30G09G08G01G04G27G28G22G14G16
 109537096.027 8  85353577.92947  20844204.922    20844208.949
        50.800          42.400
 107839022.193 8  84030501.66347  20521081.055    20521085.035
        49.500          43.400
 121509249.422 6  94682563.60744  23122444.063    23122450.816
        41.600          28.300
 124596947.486 6  97088491.00043  23709989.320    23709995.684
        40.500          23.500
 115535476.268 7  90027639.86747  21985644.719    21985651.359
        45.400          46.900
 105906205.275 8  82524367.44847  20153269.992    20153277.492
        52.300          45.000
 127806033.59615  99589061.02652  24320655.336    24320661.703
        30.100          12.600
 128706441.724 6 100290783.28845  24492004.844    24492011.359
        39.200          33.600
 134032889.577 5                  25505615.734
        31.900
 124910287.858 6  97332778.66743  23769648.430    23769651.051
        40.500          22.200
 130861013.294 6 101969633.42343  24902020.328    24902025.176
        36.600          18.300
 128574909.795 6 100188277.02343  24466971.930    24466976.066
        39.400          18.300
 21  1  1  0 26  0.0000000  0 11G07G21G30G09G08G01G27G28G22G14G16
 109484307.027 8  85312443.65047  20834159.633    20834163.488
        48.800          42.700
 107869948.370 8  84054599.98647  20526966.500    20526969.855
        49.500          44.100
 121418445.645 6  94611807.41444  23105164.742    23105171.941
        40.800          29.200
 124652397.678 6  97131698.91543  23720541.180    23720547.324
        39.400          22.300
 115595442.572 7  90074366.84247  21997055.688    21997062.301
        44.900          46.400
 105855720.446 8  82485028.62747  20143662.797    20143670.625
        49.900          44.300
 128785953.999 6 100352740.90545  24507135.297    24507141.934
        36.900          32.700
 133984566.69715                  25496419.828
        31.300
 124854032.809 6  97288943.61044  23758943.125    23758946.098
        41.400          25.500
 130797380.623 6 101920049.54643  24889911.203    24889915.688
        36.100          19.000
 128619151.117 6 100222750.76442  24475390.328    24475394.957
        37.100          17.800
 21  1  1  0 26 30.0000000  0 11G07G21G30G09G08G01G27G28G22G14G16
 109432017.133 8  85271698.27047  20824209.008    20824212.922
        50.300          42.200
 107901415.843 8  84079120.10647  20532954.234    20532957.938
        49.200          43.600
 121327904.858 6  94541256.14444  23087935.453    23087942.336
        41.100          28.800
 124707886.562 6  97174937.00744  23731099.773    23731107.344
        40.900          24.400
 115655430.287 7  90121110.52647  22008471.172    22008477.734
        46.000          46.900
 105805800.214 8  82446129.75247  20134163.422    20134171.258
        52.300          44.600
 128865324.113 6 100414587.75045  24522238.688    24522245.918
        36.800          32.000
 133936089.759 5                  25487194.664
        32.500
 124797755.065 6  97245090.88744  23748233.906    23748236.223
        40.900          25.700
 130733611.448 6 101870359.26643  24877775.844    24877780.902
        36.200          18.300
 128663508.842 6 100257315.17943  24483832.219    24483836.684
        39.200          18.300
 21  1  1  0 27  0.0000000  0 11G07G21G30G09G08G01G27G28G22G14G16
 109380228.849 8  85231343.75447  20814354.063    20814357.855
        48.600          42.400
 107933423.245 8  84104060.94147  20539045.266    20539048.719
        49.000          43.400
 121237629.973 6  94470912.08844  23070757.023    23070763.781
        41.600          29.800
 124763411.581 6  97218203.22943  23741666.547    23741672.902
        40.800          23.900
 115715438.042 7  90167869.81247  22019889.742    22019897.008
        46.700          47.300
 105756446.741 8  82407672.50647  20124771.617    20124779.531
        50.100          44.900
 128944551.341 6 100476323.21445  24537315.813    24537322.191
        37.500          32.400
 133887458.187 4                  25477939.313
        29.100
 124741457.173 6  97201222.41443  23737520.422    23737522.742
        39.600          23.900
 130669705.726 5 101820562.65642  24865613.867    24865619.293
        35.100          17.400
 128707983.453 6 100291970.68443  24492295.039    24492299.637
        38.100          18.300
 21  1  1  0 27 30.0000000  0 11G07G21G30G09G08G01G27G28G22G14G16
 109328944.170 8  85191381.66747  20804594.781    20804599.051
        48.600          42.700
 107965968.993 8  84129421.26647  20545238.531    20545241.773
        49.100          43.200
 121147623.296 7  94400777.01245  23053629.422    23053635.898
        42.500          31.200
 124818969.844 7  97261495.40244  23752238.734    23752245.063
        42.000          24.900
 115775464.083 7  90214643.35147  22031312.633    22031319.602
        46.000          47.100
 105707661.790 8  82369658.26647  20115488.313    20115496.164
        50.500          45.000
 129023634.730 6 100537946.59245  24552364.352    24552371.332
        37.400          33.300
 133838671.26614                  25468656.000
        28.000
 124685141.513 6  97157340.16143  23726803.531    23726805.867
        39.400          22.900
 130605663.394 5 101770659.58742  24853427.805    24853432.352
        33.900          16.900
 128752576.051 6 100326718.16742  24500780.852    24500784.594
        37.700          16.900
 21  1  1  0 28  0.0000000  0 12G07G21G30G09G08G01G04G27G28G22G14G16
 109278164.673 8  85151813.22447  20794931.883    20794935.934
        48.600          42.700
 107999051.386 8  84155199.75347  20551533.711    20551537.223
        49.300          43.200
 121057887.419 7  94330852.97745  23036553.266    23036559.664
        42.900          30.200
 124874558.412 6  97304811.18444  23762817.031    23762823.574
        40.100          26.000
 115835506.182 7  90261429.41047  22042738.570    22042745.598
        46.700          47.300
 105659447.191 8  82332088.45947  20106313.172    20106321.230
        50.200          45.100
 128155691.61915                  24387194.141
        31.000
 129102573.314 6 100599457.15245  24567386.023    24567392.633
        37.900          32.500
 133789728.17514                  25459341.789
        28.900
 124628810.539 6  97113445.95944  23716083.875    23716086.273
        40.900          25.900
 130541484.560 5 101720650.07642  24841215.328    24841219.105
        34.000          16.900
 128797287.480 6 100361558.19143  24509288.859    24509293.281
        37.300          19.300
 21  1  1  0 28 30.0000000  0 12G07G21G30G09G08G01G04G27G28G22G14G16
 109227893.120 8  85112640.57847  20785365.672    20785369.402
        48.400          42.000
 108032669.378 8  84181395.59247  20557931.297    20557934.578
        50.500          43.700
 120968425.413 7  94261142.33545  23019529.438    23019535.988
        42.800          30.800
 124930174.942 6  97348148.73744  23773400.672    23773407.023
        40.800          25.800
 115895563.511 7  90308227.31247  22054167.023    22054173.883
        46.800          47.000
 105611805.200 8  82294964.83347  20097247.109    20097255.125
        50.000          44.900
 128225075.07615                  24400398.430
        30.800
 129181366.770 6 100660854.64745  24582379.906    24582386.750
        38.800          32.700
 133740629.48615                  25449998.820
        30.700
 124572467.353 7  97069542.21544  23705362.625    23705364.695
        42.000          26.200
 130477169.390 5 101670534.40143  24828976.445    24828980.223
        35.900          18.600
 128842118.379 5 100396491.33642  24517819.313    24517824.258
        35.500          17.800
 21  1  1  0 29  0.0000000  0 12G07G21G30G09G08G01G04G27G28G22G14G16
 109178131.505 8  85073865.28847  20775896.344    20775899.984
        48.600          42.500
 108066820.888 8  84208007.15847  20564429.719    20564433.391
        50.200          43.200
 120879239.512 7  94191646.85345  23002557.734    23002564.344
        43.000          30.900
 124985816.452 6  97391505.74744  23783988.055    23783995.141
        39.700          24.700
 115955633.544 7  90355035.14147  22065598.031    22065604.539
        46.500          46.800
 105564737.424 8  82258288.64347  20088290.930    20088298.363
        50.900          44.900
 128294270.59715                  24413565.211
        30.800
 129260014.041 6 100722138.24945  24597346.523    24597352.605
        38.300          32.300
 133691374.18015                  25440625.430
        30.700
 124516113.872 7  97025630.47044  23694638.516    23694641.297
        42.400          27.300
 130412717.792 5 101620312.38643  24816712.281    24816715.336
        35.500          19.000
 128887069.598 6 100431518.23743  24526374.078    24526378.539
        37.400          18.300
 21  1  1  0 29 30.0000000  0 13G17G07G21G30G09G08G01G04G27G28G22G14
                                G16
 129728357.12215                  24686498.930
        30.700
 109128881.457 8  85035488.63047  20766524.758    20766528.184
        49.100          42.500
 108101504.171 8  84235033.10047  20571030.063    20571033.465
        49.500          43.400
 120790332.284 7  94122368.51544  22985638.859    22985645.668
        42.300          29.400
 125041479.969 6  97434879.92944  23794581.094    23794588.148
        39.600          24.700
 116015715.046 7  90401851.89847  22077030.961    22077037.652
        46.000          46.500
 105518245.513 8  82222061.18547  20079443.453    20079451.402
        50.600          44.700
 128363275.80315                  24426696.039
        31.000
 129338514.376 6 100783307.32945  24612284.703    24612291.133
        38.800          32.600
 133641961.522 5                  25431221.977
        31.200
 124459752.487 6  96981712.54844  23683913.438    23683916.590
        41.200          27.100
 130348129.675 5 101569983.98643  24804421.156    24804425.688
        34.400          18.300
 128932142.376 6 100466639.88142  24534951.828    24534955.523
        36.900          16.300
 21  1  1  0 30  0.0000000  0 13G17G07G21G30G09G08G01G04G27G28G22G14
                                G16
 129675417.31214                  24676425.063
        28.000
 109080145.238 8  84997512.33647  20757249.859    20757254.008
        51.100          42.800
 108136718.133 8  84262472.54747  20577730.625    20577734.613
        50.200          44.000
 120701706.678 7  94053309.60345  22968773.609    22968780.605
        42.300          30.000
 125097163.045 6  97478269.34044  23805176.563    23805183.773
        39.400          24.800
 116075806.407 7  90448676.32647  22088466.141    22088472.652
        46.800          46.800
 105472331.622 8  82186284.12747  20070706.289    20070714.324
        52.800          44.800
 128432089.17714                  24439790.445
        27.600
 129416867.189 6 100844361.45345  24627194.492    24627200.813
        39.600          34.000
 133592391.251 5 104097996.31942  25421790.305    25421794.266
        31.200          15.600
 124403386.171 6  96937790.77944  23673187.570    23673190.168
        40.900          25.800
 130283405.358 5 101519549.40943  24792103.336    24792109.559
        33.200          20.400
 128977337.134 5 100501856.49542  24543552.281    24543556.164
        35.700          16.300
 21  1  1  0 30 30.0000000  0 13G17G07G21G30G09G08G01G04G27G28G22G14
                                G16
 129622730.49614                  24666399.523
        27.600
 109031925.205 8  84959938.29847  20748074.094    20748077.930
        51.100          42.400
 108172461.179 8  84290324.27047  20584532.617    20584536.316
        50.300          44.000
 120613365.407 7  93984472.26845  22951962.984    22951969.648
        42.100          30.500
 125152863.182 6  97521672.04643  23815776.758    23815782.754
        39.500          22.900
 116135906.328 7  90495507.45247  22099902.523    22099909.461
        46.400          46.600
 105426997.677 8  82150958.97747  20062079.719    20062087.480
        51.800          44.900
 128500708.692 4                  24452848.031
        28.900
 129495071.837 6 100905300.12545  24642076.703    24642083.105
        39.500          34.400
 133542663.67014 104059247.54252  25412327.398    25412332.145
        29.600          14.800
 124347017.472 6  96893867.14944  23662460.883    23662462.688
        41.700          26.500
 130218545.153 5 101469008.93043  24779760.828    24779768.016
        33.700          19.000
 129022654.994 5 100537169.15242  24552175.164    24552179.652
        34.400          16.900
 21  1  1  0 31  0.0000000  0 13G17G07G21G30G09G08G01G04G27G28G22G14
                                G16
 129570296.813 5                  24656422.320
        31.000
 108984223.680 8  84922768.27147  20738996.922    20739000.820
        50.500          42.300
 108208732.001 8  84318587.25447  20591434.703    20591438.375
        50.700          44.200
 120525311.197 7  93915858.61345  22935207.023    22935213.621
        42.700          31.500
 125208577.711 6  97565085.99543  23826378.742    23826385.398
        40.900          23.000
 116196013.117 7  90542343.91747  22111340.922    22111347.324
        46.000          46.700
 105382245.546 8  82116087.19747  20053563.703    20053571.602
        52.200          44.800
 128569132.47614                  24465869.406
        28.600
 129573127.855 6 100966122.99045  24656930.633    24656936.242
        39.000          34.600
 133492777.97914                  25402832.578
        27.600
 124290649.099 7  96849943.78044  23651733.945    23651736.730
        42.000          27.600
 130153549.06715 101418362.60653  24767393.203    24767399.727
        34.700          19.600
 129068097.395 5 100572578.76742  24560823.359    24560827.523
        33.100          14.800
 21  1  1  0 31 30.0000000  0 13G17G07G21G30G09G08G01G04G27G28G22G14
                                G16
 129518115.38215                  24646491.672
        30.700
 108937041.879 8  84886003.22047  20730018.453    20730022.500
        51.100          42.600
 108245528.274 8  84347259.68247  20598436.781    20598440.156
        50.300          43.500
 120437546.319 7  93847470.42145  22918505.828    22918512.547
        43.300          31.300
 125264303.495 6  97608508.67843  23836982.531    23836989.566
        39.800          22.800
 116256124.607 7  90589184.02747  22122779.867    22122786.238
        45.500          46.500
 105338076.596 8  82081669.83647  20045158.477    20045166.527
        52.200          44.700
 128637358.07715                  24478853.211
        30.700
 129651034.142 6 101026829.18245  24671755.070    24671761.188
        36.600          33.700
 133442733.41614                  25393309.766
        28.900
 124234283.673 6  96806022.73144  23641008.109    23641010.453
        41.800          27.700
 130088417.030 5 101367610.36543  24754998.672    24755005.516
        34.200          19.000
 129113664.432 5 100608085.47942  24569492.828    24569497.543
        34.800          15.600
 21  1  1  0 32  0.0000000  0 13G17G07G21G30G09G08G01G04G27G28G22G14
                                G16
 129466187.04715                  24636610.086
        31.000
 108890382.504 8  84849645.26047  20721139.352    20721143.555
        51.200          42.800
 108282849.172 8  84376340.90847  20605539.016    20605542.207
        50.900          43.600
 120350074.147 7  93779310.30645  22901860.797    22901867.375
        43.900          30.900
 125320038.593 6  97651938.63344  23847588.977    23847595.645
        40.900          24.900
 116316239.840 7  90636027.06347  22134219.031    22134226.004
        46.200          46.500
 105294493.312 8  82047708.84547  20036864.953    20036872.813
        52.300          45.100
 128705384.43715                  24491798.172
        30.700
 129728790.707 6 101087418.69645  24686551.969    24686557.852
        37.400          33.600
 133392530.36814                  25383755.953
        28.900
 124177923.528 7  96762105.76744  23630282.742    23630285.285
        42.900          26.900
 130023149.944 5 101316752.86643  24742579.453    24742585.055
        32.900          20.900
 129159357.23715 100643690.31852  24578189.055    24578192.555
        34.600          15.600
 21  1  1  0 32 30.0000000  0 12G17G07G21G30G09G08G01G27G28G22G14G16
 129414510.38115                  24626778.563
        32.300
 108844247.099 8  84813695.58647  20712360.375    20712364.246
        51.000          43.600
 108320692.375 8  84405829.11447  20612740.086    20612743.684
        50.800          43.200
 120262896.707 7  93711379.87045  22885271.148    22885277.730
        43.100          30.800
 125375779.788 6  97695373.32143  23858195.891    23858202.680
        39.700          23.400
 116376356.917 7  90682871.54247  22145658.945    22145665.730
        46.300          46.500
 105251496.835 8  82014205.10547  20028682.859    20028690.688
        51.300          44.900
 129806396.358 6 101147890.60945  24701319.383    24701325.766
        37.900          32.600
 133342167.67115                  25374174.289
        30.800
 124121571.212 7  96718194.89144  23619559.672    23619561.961
        42.700          26.600
 129957747.369 5 101265789.84243  24730133.891    24730138.855
        35.700          22.000
 129205176.433 5 100679393.54042  24586908.109    24586912.051
        33.200          16.300
 21  1  1  0 33  0.0000000  0 12G17G07G21G30G09G08G01G27G28G22G14G16
 129363083.58015                  24616990.828
        32.500
 108798637.443 8  84778155.58447  20703681.133    20703685.020
        50.900          42.800
 108359056.270 8  84435723.05847  20620040.172    20620043.965
        50.900          43.800
 120176016.503 7  93643681.02345  22868738.430    22868744.793
        43.300          32.000
 125431524.316 6  97738810.61343  23868803.383    23868810.809
        38.000          23.500
 116436474.694 7  90729716.56947  22157099.242    22157105.824
        45.800          46.400
 105209088.748 8  81981159.85247  20020612.820    20020620.648
        52.200          45.000
 129883850.430 6 101208244.45045  24716058.469    24716064.938
        37.500          31.800
 133291645.54315                  25364558.328
        30.100
 124065229.502 7  96674292.30544  23608837.898    23608840.402
        43.300          27.900
 129892209.331 6 101214721.22543  24717662.375    24717667.609
        36.200          20.600
 129251122.926 5 100715195.90742  24595651.250    24595654.723
        33.700          14.800
 21  1  1  0 33 30.0000000  0 12G17G07G21G30G09G08G01G27G28G22G14G16
 129311909.79215                  24607252.391
        30.700
 108753555.428 8  84743026.75047  20695102.102    20695106.234
        49.000          42.900
 108397938.682 8  84466021.05547  20627439.594    20627443.332
        51.200          43.000
 120089436.164 7  93576215.83445  22852262.383    22852269.617
        43.400          31.600
 125487269.314 6  97782248.24843  23879411.125    23879418.629
        38.000          22.900
 116496590.912 7  90776560.36747  22168538.797    22168545.652
        45.200          46.600
 105167270.576 8  81948574.27947  20012655.320    20012663.059
        50.300          45.200
 129961152.307 6 101268479.63845  24730768.648    24730774.883
        36.700          33.100
 133240963.34615                  25354916.898
        30.500
 124008900.622 7  96630399.69944  23598119.203    23598121.668
        43.600          27.600
 129826535.943 6 101163547.17143  24705164.656    24705169.859
        36.400          20.600
 129297197.12015 100750987.90752  24604418.359    24604421.875
        32.900          14.800
 21  1  1  0 34  0.0000000  0 12G17G07G21G30G09G08G01G27G28G22G14G16
 129260986.07915                  24597562.133
        33.000
 108709003.617 8  84708311.04647  20686623.906    20686628.273
        50.900          42.900
 108437338.418 8  84496722.15247  20634936.852    20634940.758
        51.200          43.000
 120003158.723 7  93508986.68645  22835844.352    22835851.609
        43.400          30.900
 125543012.568 6  97825684.53943  23890019.406    23890025.934
        37.700          22.500
 116556704.306 7  90823401.97347  22179978.227    22179984.418
        45.300          46.600
 105126044.438 8  81916450.02647  20004810.117    20004817.797
        52.200          45.100
 130038301.606 6 101328595.97945  24745449.063    24745455.703
        37.300          32.300
 133190121.09015                  25345240.922
        31.200
 123952587.660 7  96586519.48744  23587402.539    23587405.305
        42.900          26.100
 129760727.748 6 101112268.06043  24692641.617    24692647.012
        36.400          21.700
 129343400.63815 100786990.58052  24613211.102    24613215.117
        33.900          15.600
 21  1  1  0 34 30.0000000  0 12G17G07G21G30G09G08G01G27G28G22G14G16
 129210313.026 5                  24587918.789
        33.200
 108664983.266 8  84674009.46047  20678247.766    20678251.637
        50.900          42.900
 108477253.884 8  84527825.11647  20642532.414    20642536.340
        50.400          43.100
 119917186.671 7  93441995.48045  22819484.664    22819491.359
        44.100          31.600
 125598751.338 6  97869117.34243  23900626.141    23900632.707
        38.400          22.800
 116616813.846 7  90870240.56947  22191416.281    22191422.926
        44.600          46.200
 105085411.816 8  81884788.26147  19997078.133    19997085.508
        52.600          45.000
 130115297.713 6 101388592.93545  24760101.063    24760108.141
        36.900          31.700
 133139117.980 5                  25335534.039
        31.600
 123896292.938 7  96542653.52944  23576690.297    23576692.902
        42.600          26.700
 129694784.876 6 101060884.03243  24680093.383    24680098.480
        37.400          20.600
 129389734.460 5 100823094.80842  24622027.789    24622032.645
        35.200          15.600
 21  1  1  0 35  0.0000000  0 12G17G07G21G30G09G08G01G27G28G22G14G16
 129159890.108 5                  24578323.813
        32.400
 108621496.281 8  84640123.49347  20669972.250    20669976.031
        51.600          42.800
 108517682.747 8  84559328.13647  20650226.078    20650229.637
        50.800          43.000
 119831522.363 7  93375244.09845  22803182.719    22803189.738
        43.400          31.300
 125654482.642 6  97912544.32643  23911231.297    23911238.152
        39.000          22.800
 116676917.115 7  90917074.29547  22202853.750    22202860.320
        45.000          46.700
 105045373.941 8  81853589.92447  19989459.117    19989466.535
        52.100          45.100
 130192139.628 6 101448469.75045  24774723.719    24774730.840
        37.300          32.300
 133087953.69215                  25325799.516
        32.400
 123840018.984 7  96498803.74644  23565981.508    23565984.387
        43.100          27.200
 129628707.255 6 101009394.97943  24667519.414    24667524.031
        37.700          21.500
 129436198.528 5 100859300.54942  24630869.766    24630875.129
        33.700          14.800
 21  1  1  0 35 30.0000000  0 12G17G07G21G30G09G08G01G27G28G22G14G16
 129109716.975 5 100605039.81652  24568776.328    24568778.898
        31.600          16.300
 108578544.927 8  84606654.88547  20661798.805    20661802.707
        51.500          43.300
 108558623.474 8  84591230.00647  20658016.758    20658020.637
        50.500          43.200
 119746168.601 7  93308734.69645  22786941.086    22786947.227
        44.600          31.500
 125710204.193 6  97955963.70043  23921834.758    23921841.336
        39.600          23.900
 116737013.193 7  90963902.42047  22214289.906    22214296.277
        45.400          46.000
 105005932.685 8  81822856.49147  19981953.672    19981961.215
        52.400          45.300
 130268827.191 6 101508226.27845  24789316.969    24789323.828
        38.000          33.000
 133036628.213 5                  25316030.703
        33.900
 123783768.558 6  96454972.28144  23555277.305    23555279.980
        41.600          27.600
 129562495.268 6 100957801.28143  24654920.703    24654925.219
        37.500          22.200
 129482793.70115 100895608.43552  24639736.984    24639741.660
        35.500          15.600
 21  1  1  0 36  0.0000000  0 12G17G07G21G30G09G08G01G27G28G22G14G16
 129059793.029 5 100566137.88042  24559276.516    24559280.230
        34.800          16.300
 108536130.455 8  84573604.64447  20653727.555    20653731.664
        51.200          43.100
 108600074.177 8  84623529.25547  20665904.766    20665908.176
        50.200          43.200
 119661127.921 7  93242469.25245  22770758.344    22770764.730
        45.000          32.400
 125765913.016 6  97999373.18444  23932435.750    23932442.762
        38.900          24.500
 116797100.480 7  91010723.68647  22225723.852    22225730.527
        44.800          45.800
 104967089.411 8  81792589.01747  19974562.156    19974569.605
        51.900          45.400
 130345359.546 6 101567861.88145  24803880.297    24803887.723
        36.200          30.700
 132985140.864 5                  25306234.008
        35.700
 123727544.298 6  96411161.23544  23544577.633    23544580.762
        41.100          27.200
 129496149.087 6 100906102.99343  24642295.258    24642300.414
        38.400          22.000
 129529521.332 5 100932019.63842  24648629.523    24648633.438
        35.500          15.600
 21  1  1  0 36 30.0000000  0 12G17G07G21G30G09G08G01G27G28G22G14G16
 129010118.154 5 100527430.18842  24549823.375    24549827.980
        34.300          14.800
 108494255.051 8  84540974.47247  20645758.719    20645762.895
        51.300          42.600
 108642032.900 8  84656224.38047  20673888.789    20673892.535
        50.900          42.900
 119576403.019 7  93176449.87445  22754635.906    22754642.477
        45.000          31.200
 125821606.723 6  98042770.89044  23943034.797    23943040.563
        39.400          24.800
 116857177.617 7  91057537.04147  22237155.961    22237162.660
        45.700          45.800
 104928845.704 8  81762788.74547  19967284.375    19967292.254
        53.000          45.700
 130421736.493 6 101627376.38445  24818414.633    24818421.855
        38.000          31.200
 132933491.348 5                  25296405.383
        34.000
 123671348.793 7  96367372.57844  23533884.695    23533887.063
        42.100          27.500
 129429668.912 6 100854300.26243  24629644.016    24629649.703
        37.900          22.300
 129576381.895 5 100968534.29442  24657546.023    24657550.719
        33.300          14.800
 21  1  1  0 37  0.0000000  0 12G17G07G21G30G09G08G01G27G28G22G14G16
 128960691.951 5 100488916.24342  24540417.156    24540422.082
        33.700          14.800
 108452920.641 8  84508765.83747  20637893.156    20637897.266
        49.100          43.000
 108684498.464 8  84689314.42747  20681969.883    20681973.516
        50.200          43.200
 119491996.794 7  93110678.80945  22738573.867    22738580.328
        44.700          32.400
 125877282.980 6  98086154.97744  23953629.172    23953635.832
        40.400          26.900
 116917243.415 7  91104341.55547  22248586.336    22248592.910
        45.700          45.700
 104891203.401 8  81733457.09147  19960121.594    19960129.098
        50.900          45.600
 130497957.597 6 101686769.43745  24832919.461    24832925.941
        37.900          31.900
 132881680.180 6                  25286546.336
        36.100
 123615185.053 7  96323608.64644  23523197.508    23523199.461
        43.600          28.100
 129363055.424 6 100802393.70543  24616967.633    24616973.359
        38.200          21.300
 129623376.426 5                  24666487.695
        31.900
 21  1  1  0 37 30.0000000  0 12G17G07G21G30G09G08G01G27G28G22G14G16
 128911513.692 6 100450595.49742  24531060.266    24531064.828
        36.200          14.800
 108412128.708 8  84476979.91547  20630131.000    20630134.879
        51.000          43.200
 108727468.244 8  84722797.38547  20690146.906    20690150.375
        50.900          43.300
 119407911.491 7  93045157.82645  22722573.242    22722579.359
        44.900          31.700
 125932938.728 6  98129523.10644  23964220.422    23964227.184
        39.700          26.200
 116977295.788 7  91151135.61947  22260013.719    22260020.348
        46.100          45.700
 104854163.460 8  81704594.80547  19953072.766    19953080.586
        52.200          45.300
 130574021.928 6 101746040.31045  24847393.703    24847399.340
        37.300          30.200
 132829706.431 5                  25276655.961
        34.800
 123559055.182 6  96279871.11744  23512516.148    23512518.422
        41.400          26.700
 129296308.340 6 100750383.02543  24604265.102    24604271.719
        37.700          20.100
 129670505.480 5 101041890.27942  24675457.438    24675462.418
        34.600          14.800
 21  1  1  0 38  0.0000000  0 12G17G07G21G30G09G08G01G27G28G22G14G16
 128862583.169 5 100412467.77742  24521747.797    24521753.941
        35.300          17.400
 108371881.010 8  84445618.05147  20622471.914    20622475.879
        49.100          43.500
 108770940.528 8  84756671.89147  20698419.383    20698422.879
        51.200          43.700
 119324149.738 7  92979888.94245  22706633.430    22706640.012
        45.000          32.400
 125988571.424 6  98172873.24844  23974806.539    23974812.973
        39.100          24.700
 117037333.403 7  91197918.16247  22271438.438    22271445.203
        45.300          45.100
 104817727.460 8  81676203.12147  19946139.188    19946147.191
        50.800          45.700
 130649929.047 6 101805188.71244  24861838.516    24861844.559
        36.000          29.300
 132777570.017 6                  25266734.375
        36.800
 123502962.181 7  96236162.30744  23501841.867    23501844.039
        42.400          28.000
 129229428.204 5 100698268.65843  24591538.367    24591544.414
        34.600          19.300
 129717769.85515 101078719.61552  24684452.516    24684456.516
        33.600          15.600
 21  1  1  0 38 30.0000000  0 12G17G07G21G30G09G08G01G27G28G22G14G16
 128813899.976 5 100374532.78842  24512483.922    24512489.762
        34.100          15.600
 108332179.378 8  84414681.70147  20614917.109    20614920.809
        50.000          43.200
 108814913.608 8  84790936.63447  20706787.125    20706790.805
        50.400          43.500
 119240714.171 7  92914874.23845  22690755.891    22690762.758
        44.500          31.600
 126044178.528 6  98216203.46944  23985387.992    23985394.359
        40.100          26.700
 117097355.420 7  91244688.57547  22282860.555    22282867.070
        44.600          44.900
 104781896.829 8  81648283.15147  19939320.992    19939328.695
        51.900          45.700
 130725678.582 6 101864214.33244  24876252.445    24876259.504
        36.800          29.400
 132725270.666 5 103422321.79342  25256782.414    25256786.695
        35.400          15.600
 123446908.670 6  96192484.29344  23491175.078    23491177.883
        41.200          26.700
 129162415.235 6 100646050.76743  24578786.539    24578791.363
        36.000          18.600
 129765170.516 5 101115655.20342  24693471.398    24693477.094
        33.700          16.300
 21  1  1  0 39  0.0000000  0 13G17G07G21G30G09G08G01G27G28G22G14G16
                                G03
 128765463.644 5 100336790.14642  24503267.086    24503272.133
        33.900          17.400
 108293025.787 8  84384172.41147  20607466.203    20607470.191
        51.400          42.900
 108859385.448 8  84825590.02047  20715250.078    20715253.457
        51.300          43.300
 119157607.507 7  92850115.81145  22674941.398    22674947.742
        44.700          31.800
 126099757.546 6  98259511.79544  23995964.969    23995971.035
        40.100          26.100
 117157359.817 7  91291445.26547  22294279.117    22294285.484
        44.900          45.300
 104746672.974 8  81620835.99847  19932618.141    19932626.008
        52.100          45.900
 130801270.172 6 101923116.86044  24890637.586    24890644.227
        37.100          27.700
 132672808.132 6 103381441.89342  25246798.461    25246803.531
        36.400          14.800
 123390897.460 6  96148839.23144  23480516.234    23480519.555
        41.500          26.700
 129095269.756 5 100593729.60342  24566008.695    24566012.871
        35.200          17.800
 129812708.243 5 101152697.49542  24702517.359    24702522.863
        33.400          16.300
 128384063.29015 100039555.56453  24430672.352    24430681.504
        31.900          21.300
 21  1  1  0 39 30.0000000  0 13G17G07G21G30G09G08G01G27G28G22G14G16
                                G03
 128717273.506 5 100299239.38342  24494096.688    24494101.934
        34.500          16.900
 108254421.527 8  84354091.16447  20600120.102    20600124.180
        51.100          42.700
 108904354.153 8  84860630.57547  20723807.078    20723810.523
        51.100          43.100
 119074832.273 7  92785615.65845  22659189.688    22659196.250
        43.900          31.900
 126155305.891 6  98302796.18744  24006534.516    24006541.590
        39.400          24.400
 117217345.659 7  91338187.48347  22305693.578    22305700.285
        44.500          44.800
 104712057.236 8  81593862.70647  19926030.969    19926038.844
        52.000          45.800
 130876703.273 6 101981895.87844  24904992.250    24904998.820
        39.000          29.400
 132620182.393 6 103340434.85142  25236784.352    25236789.059
        36.900          16.300
 123334930.815 6  96105228.92444  23469865.563    23469868.770
        39.700          24.400
 129027992.101 5 100541305.51942  24553206.719    24553210.605
        34.800          16.900
 129860383.531 5 101189847.11942  24711589.563    24711593.789
        33.500          14.800
 128320061.82915  99989684.54753  24418491.859    24418500.984
        30.300          20.400
 21  1  1  0 40  0.0000000  0 13G17G07G21G30G09G08G01G27G28G22G14G16
                                G03
 128669329.256 6 100261880.21243  24484973.508    24484978.488
        37.000          18.300
 108216368.766 8  84324439.65547  20592878.766    20592883.129
        51.400          43.300
 108949817.827 8  84896056.81247  20732458.367    20732462.305
        50.800          43.600
 118992391.163 7  92721375.86845  22643502.063    22643508.195
        44.600          33.000
 126210821.063 6  98346054.78144  24017099.148    24017105.945
        39.600          26.000
 117277311.390 7  91384914.02347  22317104.969    22317111.230
        45.100          45.000
 104678051.014 8  81567364.36447  19919559.430    19919567.699
        52.400          45.600
 130951977.426 6 102040551.07944  24919316.328    24919322.828
        37.800          27.900
 132567393.092 6 103299300.33942  25226738.844    25226742.910
        37.100          16.300
 123279011.842 6  96061655.77444  23459225.891    23459227.090
        41.300          27.100
 128960582.630 5 100488778.68642  24540378.977    24540383.746
        35.000          17.400
 129908197.523 5 101227104.85842  24720689.289    24720691.602
        33.500          15.600
 128255869.00915  99939664.28553  24406274.969    24406284.813
        30.500          21.300
 21  1  1  0 40 30.0000000  0 12G17G07G21G30G09G08G01G27G28G22G14G16
 128621630.663 6 100224712.45243  24475897.422    24475902.086
        37.100          18.600
 108178868.503 8  84295218.66747  20585742.828    20585747.063
        49.000          43.200
 108995774.201 8  84931866.98147  20741203.883    20741207.406
        50.800          43.900
 118910286.589 7  92657398.29745  22627878.180    22627884.461
        45.800          32.700
 126266300.315 6  98389285.37444  24027656.523    24027663.656
        39.900          26.100
 117337255.480 7  91431623.71447  22328512.008    22328518.480
        44.100          44.600
 104644655.419 8  81541341.82847  19913204.906    19913212.496
        50.800          45.800
 131027092.181 6 102099082.09544  24933610.727    24933616.961
        38.000          29.100
 132514440.154 5 103258038.37942  25216662.297    25216665.367
        35.300          16.900
 123223143.176 7  96018121.78444  23448593.953    23448595.453
        42.400          26.100
 128893041.578 5 100436149.33142  24527526.219    24527531.797
        35.100          17.800
 129956150.610 5 101264470.74742  24729813.938    24729818.113
        33.100          16.900
 21  1  1  0 41  0.0000000  0 13G17G07G21G30G09G08G01G27G28G22G14G16
                                G03
 128574176.175 6 100187734.95443  24466866.484    24466871.418
        37.000          19.300
 108141921.978 8  84266429.16247  20578712.227    20578716.168
        50.300          42.900
 109042220.922 8  84968059.23647  20750042.234    20750045.887
        50.800          43.200
 118828520.702 7  92593684.64045  22612318.375    22612324.648
        45.800          33.300
 126321740.608 6  98432485.61544  24038206.531    24038212.832
        38.800          24.700
 117397176.048 7  91478315.07547  22339914.633    22339921.141
        44.200          44.600
 104611871.304 8  81515795.76947  19906966.156    19906973.738
        51.400          45.700
 131102046.564 6 102157488.10744  24947873.617    24947880.586
        37.500          27.400
 132461322.931 6 103216648.41142  25206554.289    25206557.371
        36.300          15.600
 123167327.023 7  95974628.71244  23437972.469    23437974.414
        42.200          27.700
 128825368.831 5 100383417.34642  24514649.164    24514653.770
        35.000          15.600
 130004243.34815                  24738966.102
        32.000
 128126910.352 5  99839167.57843  24381738.258    24381745.090
        31.800          21.800
 21  1  1  0 41 30.0000000  0 13G17G07G21G30G09G08G01G27G28G22G14G16
                                G03
 128526965.884 6 100150947.62743  24457882.734    24457887.738
        37.900          20.400
 108105531.246 8  84238072.75347  20571787.078    20571791.277
        49.600          43.000
 109089156.209 8  85004632.19947  20758973.828    20758977.324
        51.300          43.200
 118747096.350 7  92530237.10645  22596823.688    22596830.090
        45.300          33.500
 126377139.727 6  98475653.76044  24048748.266    24048755.176
        39.200          24.400
 117457072.398 7  91524987.56247  22351312.258    22351318.809
        43.700          44.700
 104579700.151 8  81490727.33747  19900844.328    19900851.762
        50.900          45.600
 131176840.478 6 102215769.08645  24962106.313    24962113.195
        38.000          30.200
 132408041.172 6 103175130.10442  25196415.984    25196416.848
        36.600          16.300
 123111566.111 7  95931178.69544  23427360.469    23427363.500
        43.400          27.300
 128757565.110 6 100330583.26843  24501746.344    24501751.383
        36.900          19.300
 130052476.91615                  24748144.922
        31.800
 128062156.66715  99788710.40153  24369415.648    24369423.469
        31.500          23.000
 21  1  1  0 42  0.0000000  0 13G17G07G21G30G09G08G01G27G28G22G14G16
                                G03
 128479999.435 6 100114350.34243  24448945.039    24448950.645
        38.500          20.900
 108069698.038 8  84210150.77447  20564968.641    20564972.359
        50.600          43.100
 109136578.268 8  85041584.45047  20767998.016    20768001.570
        50.700          43.300
 118666016.266 7  92467057.83345  22581394.953    22581401.066
        45.600          33.100
 126432495.295 6  98518787.97244  24059282.750    24059289.188
        39.400          25.600
 117516943.148 7  91571640.10047  22362705.070    22362711.383
        44.100          43.800
 104548143.384 8  81466137.66647  19894839.188    19894846.660
        52.600          45.800
 131251473.577 6 102273924.73844  24976308.492    24976315.344
        37.600          28.700
 132354595.261 6 103133484.00042  25186245.703    25186246.680
        37.500          15.600
 123055863.461 7  95887774.05744  23416761.477    23416763.887
        42.800          26.400
 128689630.903 6 100277647.52142  24488818.789    24488823.777
        36.100          17.800
 130100852.048 5                  24757349.734
        32.000
 127997219.44415  99738109.92853  24357056.352    24357066.484
        32.200          22.900
 21  1  1  0 42 30.0000000  0 13G17G07G21G30G09G08G01G27G28G22G14G16
                                G03
 128433276.048 6 100077942.47843  24440053.508    24440058.902
        37.300          19.900
 108034423.740 8  84182664.30447  20558256.125    20558259.879
        50.500          43.200
 109184485.140 8  85078914.49147  20777114.008    20777117.699
        50.400          42.500
 118585282.886 7  92404148.72145  22566031.430    22566037.949
        45.500          34.200
 126487804.646 6  98561886.19544  24069807.414    24069814.180
        40.600          25.400
 117576786.969 7  91618271.65547  22374092.859    22374098.969
        45.000          43.800
 104517201.996 8  81442027.50147  19888951.297    19888958.855
        51.900          45.700
 131325945.593 6 102331954.87944  24990479.922    24990486.465
        37.900          28.400
 132300984.568 6 103091709.40342  25176043.438    25176046.004
        37.100          17.800
 123000221.584 7  95844416.76344  23406172.641    23406175.934
        42.500          28.100
 128621566.410 5 100224610.33243  24475865.664    24475872.137
        33.900          19.300
 130149368.89915                  24766583.766
        33.000
 127932101.909 5  99687369.12644  24344665.258    24344674.922
        33.500          24.200
 21  1  1  0 43  0.0000000  0 13G17G07G21G30G09G08G01G27G28G22G14G16
                                G03
 128386795.412 6 100041723.77443  24431209.102    24431213.863
        37.500          19.900
 107999710.036 8  84155614.66547  20551650.188    20551654.223
        50.800          43.400
 109232874.761 8  85116620.70547  20786322.453    20786325.992
        50.900          43.000
 118504898.621 7  92341511.65845  22550735.070    22550741.441
        45.300          33.100
 126543065.133 6  98604946.32043  24080323.563    24080329.406
        40.100          23.200
 117636602.394 7  91664881.07547  22385475.828    22385481.836
        46.100          44.400
 104486877.044 8  81418397.69247  19883180.430    19883188.309
        52.600          45.800
 131400255.867 6 102389858.98344  25004621.445    25004627.582
        37.700          28.700
 132247208.913 6 103049806.27242  25165810.641    25165813.727
        36.100          16.900
 122944643.243 7  95801109.01144  23395596.969    23395599.199
        43.000          28.100
 128553371.876 5 100171471.73343  24462888.625    24462895.375
        34.300          18.600
 130198029.22814                  24775841.719
        29.400
 127866805.823 5  99636489.14844  24332241.430    24332249.430
        34.600          28.000
 21  1  1  0 43 30.0000000  0 12G17G07G21G30G09G08G01G27G28G22G14G03
 128340556.942 6 100005693.80343  24422410.586    24422415.375
        39.500          20.600
 107965558.856 8  84129003.34847  20545151.203    20545155.324
        50.200          42.900
 109281745.306 8  85154701.65147  20795622.344    20795625.793
        51.600          42.600
 118424866.768 7  92279149.18345  22535505.555    22535511.762
        45.600          33.600
 126598274.915 6  98647966.92243  24090829.188    24090835.727
        40.000          23.200
 117696388.663 7  91711467.77547  22396852.336    22396858.895
        44.900          44.100
 104457170.370 8  81395249.63747  19877527.586    19877535.137
        52.000          45.800
 131474404.584 6 102447637.21144  25018731.492    25018737.559
        37.000          26.300
 132193269.063 5 103007775.25842  25155545.500    25155550.258
        35.700          16.900
 122889131.795 7  95757853.37044  23385033.555    23385035.785
        42.400          28.800
 128485048.446 5 100118232.73143  24449888.148    24449892.680
        35.900          19.600
 127801334.279 5  99585472.44644  24319782.391    24319790.066
        34.200          26.900
 21  1  1  0 44  0.0000000  0 12G17G07G21G30G09G08G01G27G28G22G14G03
 128294559.866 6  99969851.93543  24413656.852    24413662.488
        37.500          20.400
 107931971.014 8  84102831.00447  20538760.039    20538763.863
        50.000          43.000
 109331094.118 8  85193155.27447  20805012.992    20805016.520
        51.100          43.200
 118345189.122 7  92217062.70945  22520343.383    22520349.359
        44.900          33.200
 126653430.866 6  98690945.53643  24101324.938    24101332.156
        39.500          23.600
 117756143.819 7  91758030.25047  22408223.906    22408229.801
        43.700          44.100
 104428082.300 8  81372583.61747  19871992.219    19871999.797
        52.200          45.800
 131548390.976 5 102505288.97244  25032809.547    25032816.465
        35.200          25.300
 132139164.115 5 102965615.58842  25145249.461    25145254.770
        33.300          16.900
 122833689.155 6  95714651.34244  23374482.797    23374484.891
        41.500          27.600
 128416595.753 6 100064892.97543  24436862.313    24436866.969
        36.900          20.400
 127735688.361 6  99534319.86544  24307289.500    24307298.258
        36.200          29.400
 21  1  1  0 44 30.0000000  0 13G17G07G21G30G09G08G01G27G28G22G14G16
                                G03
 128248803.905 6  99934197.96143  24404950.539    24404955.207
        38.400          22.600
 107898948.085 8  84077098.84047  20532475.742    20532479.992
        50.100          43.200
 109380919.367 8  85231980.15147  20814494.422    20814497.898
        50.300          43.000
 118265868.433 7  92155254.38045  22505248.383    22505255.352
        45.100          32.900
 126708530.480 6  98733880.27543  24111810.180    24111816.887
        38.000          22.000
 117815866.976 7  91804567.77647  22419588.422    22419594.242
        44.100          44.300
 104399614.055 8  81350400.57347  19866574.922    19866582.770
        51.700          46.100
 131622214.674 5 102562813.95043  25046857.164    25046864.387
        35.100          23.600
 132084894.195 5 102923327.46542  25134920.641    25134927.711
        33.000          16.300
 122778318.311 7  95671505.25644  23363946.555    23363947.992
        42.700          29.200
 128348014.537 6 100011453.04443  24423810.859    24423816.191
        37.500          20.400
 130344872.03715                  24803787.344
        30.700
 127669869.895 6  99483032.83145  24294765.273    24294773.043
        36.900          30.900
 21  1  1  0 45  0.0000000  0 13G17G07G21G30G09G08G01G27G28G22G14G16
                                G03
 128203288.122 6  99898731.13643  24396288.383    24396294.227
        38.900          22.600
 107866491.340 8  84051807.87747  20526299.609    20526303.543
        49.200          43.200
 109431218.464 8  85271174.27047  20824066.141    20824069.680
        50.500          42.800
 118186907.074 7  92093726.07245  22490223.492    22490229.547
        45.800          34.200
 126763571.265 6  98776769.22643  24122284.133    24122291.270
        39.200          23.500
 117875556.592 7  91851079.17747  22430947.086    22430953.176
        44.100          44.300
 104371766.526 8  81328701.21447  19861275.758    19861283.512
        51.900          45.800
 131695875.182 6 102620211.74544  25060875.383    25060881.363
        36.900          27.200
 132030458.853 5 102880910.30242  25124562.617    25124568.781
        33.300          16.900
 122723021.653 7  95628416.98044  23353423.859    23353425.117
        43.600          28.500
 128279305.028 6  99957913.14143  24410736.305    24410740.965
        38.100          19.900
 130394110.65714                  24813154.891
        27.600
 127603881.698 6  99431613.55245  24282207.422    24282215.938
        36.400          30.200
 21  1  1  0 45 30.0000000  0 12G17G07G21G30G09G08G01G27G28G22G14G03
 128158011.897 6  99863450.95343  24387672.781    24387677.266
        40.100          22.500
 107834602.535 8  84026959.45147  20520231.031    20520235.375
        50.200          43.600
 109481989.617 8  85310736.21147  20833727.523    20833730.922
        50.500          42.600
 118108307.517 7  92032479.66445  22475265.570    22475272.359
        45.400          33.600
 126818550.766 6  98819610.38043  24132746.242    24132753.102
        39.600          23.000
 117935211.461 7  91897563.50147  22442299.109    22442305.484
        43.800          44.300
 104344540.816 8  81307486.38547  19856095.023    19856102.418
        50.900          45.700
 131769372.363 5 102677482.24344  25074860.633    25074867.816
        35.200          24.900
 131975858.141 5 102838364.29642  25114173.430    25114178.031
        34.100          15.600
 122667802.430 7  95585389.02144  23342915.695    23342918.008
        42.600          28.400
 128210467.747 6  99904273.66843  24397637.617    24397641.535
        40.000          21.100
 127537726.201 6  99380063.92045  24269619.188    24269627.234
        36.300          32.100
 21  1  1  0 46  0.0000000  0 12G17G07G21G30G09G08G01G27G28G22G14G03
 128112974.586 6  99828356.94944  24379102.320    24379107.270
        39.200          24.600
 107803282.794 8  84002554.44847  20514271.383    20514275.230
        49.800          43.300
 109533230.757 8  85350664.37947  20843478.836    20843481.742
        50.300          42.600
 118030072.446 7  91971517.28245  22460378.453    22460384.594
        45.700          33.500
 126873466.565 6  98862401.92343  24143196.680    24143203.371
        38.300          22.600
 117994830.001 7  91944019.51147  22453644.219    22453650.723
        45.100          44.300
 104317937.923 8  81286756.87147  19851032.250    19851040.031
        51.700          45.600
 131842705.907 5 102734625.25244  25088815.914    25088822.664
        35.900          27.500
 131921091.851 5 102795689.24442  25103752.625    25103755.895
        34.200          16.300
 122612663.078 7  95542423.32544  23332423.031    23332425.480
        42.200          28.600
 128141503.152 6  99850535.04243  24384514.148    24384517.707
        40.700          22.000
 127471404.900 6  99328385.12945  24256998.406    24257007.223
        36.400          31.000
 21  1  1  0 46 30.0000000  0 12G17G07G21G30G09G08G01G27G28G22G14G03
 128068175.433 6  99793448.54744  24370577.711    24370582.969
        41.100          24.400
 107772533.004 8  83978593.57747  20508420.078    20508423.563
        49.800          43.100
 109584939.206 8  85390956.67647  20853318.156    20853321.309
        50.100          42.800
 117952203.896 7  91910840.48745  22445560.766    22445566.918
        46.100          35.000
 126928315.713 6  98905141.52643  24153633.555    24153641.141
        40.400          23.600
 118054411.297 7  91990446.50847  22464982.148    22464988.109
        44.400          44.700
 104291958.375 8  81266513.07247  19846088.930    19846096.180
        51.900          45.600
 131915875.111 5 102791640.20744  25102739.227    25102746.805
        35.100          27.800
 131866159.73915                  25093298.594
        34.800
 122557606.004 6  95499521.71144  23321945.539    23321948.207
        41.900          28.000
 128072411.369 6  99796697.30143  24371366.305    24371370.250
        39.100          22.800
 127404919.949 6  99276578.76945  24244346.609    24244354.953
        38.000          32.100
 21  1  1  0 47  0.0000000  0 12G17G07G21G30G09G08G01G27G28G22G14G03
 128023614.048 6  99758725.39744  24362098.227    24362102.785
        41.100          24.800
 107742355.006 8  83955078.24847  20502677.250    20502681.172
        50.100          43.300
 109637113.018 8  85431611.60147  20863246.516    20863249.734
        50.800          42.100
 117874704.757 7  91850451.56445  22430813.070    22430819.484
        46.300          34.400
 126983096.180 6  98947827.62143  24164058.758    24164065.117
        40.200          22.200
 118113954.140 7  92036843.52447  22476312.547    22476318.699
        45.300          43.900
 104266603.431 8  81246755.97147  19841263.672    19841271.230
        52.200          45.900
 131988880.004 5 102848527.09744  25116631.469    25116639.215
        33.200          27.200
 131811062.024 5                  25082813.586
        35.400
 122502634.128 7  95456686.52144  23311485.094    23311487.512
        43.200          29.800
 128003193.197 6  99742761.08443  24358193.867    24358199.027
        38.300          22.500
 127338274.155 6  99224647.03545  24231663.906    24231672.078
        37.200          30.200
 21  1  1  0 47 30.0000000  0 12G17G07G21G30G09G08G01G27G28G22G14G03
 127979289.698 6  99724186.99944  24353662.891    24353668.004
        40.000          25.000
 107712749.966 8  83932009.38347  20497043.594    20497047.441
        50.400          43.400
 109689749.784 8  85472627.27146  20873262.789    20873266.285
        50.700          41.900
 117797577.417 7  91790352.35145  22416136.297    22416142.527
        45.800          34.100
 127037805.454 6  98990458.21443  24174469.094    24174475.332
        39.400          21.100
 118173457.385 7  92083209.68647  22487635.938    22487642.016
        44.600          43.800
 104241873.913 8  81227486.22547  19836558.102    19836565.641
        51.400          45.800
 132061720.321 5 102905285.76944  25130493.156    25130500.254
        33.900          27.600
 131755798.220 5                  25072297.016
        34.100
 122447750.085 7  95413919.74444  23301041.063    23301043.527
        42.800          28.700
 127933849.043 6  99688726.77643  24344997.914    24345003.402
        37.900          22.000
 127271470.066 5  99172591.99144  24218950.406    24218959.555
        35.000          28.300
 21  1  1  0 48  0.0000000  0 12G17G07G21G30G09G08G01G27G28G22G14G03
 127935201.504 6  99689832.52443  24345273.867    24345278.887
        40.700          23.000
 107683719.293 8  83909388.06947  20491519.023    20491523.137
        50.200          43.100
 109742847.661 8  85514002.24746  20883366.766    20883370.539
        49.700          41.600
 117720824.332 7  91730544.75245  22401530.883    22401536.711
        46.300          34.700
 127092440.920 6  99033031.31043  24184866.297    24184872.313
        38.300          20.600
 118232919.775 7  92129544.01447  22498951.406    22498957.742
        44.500          44.500
 104217770.619 8  81208704.44747  19831971.109    19831978.816
        51.600          45.800
 132134395.426 5 102961915.65044  25144323.219    25144329.879
        31.600          24.100
 131700368.868 5 102623690.28942  25061749.844    25061753.840
        35.400          15.600
 122392956.855 7  95371223.76644  23290613.984    23290616.402
        42.500          29.300
 127864379.534 6  99634594.73143  24331778.055    24331783.742
        37.700          22.900
 127204509.057 6  99120414.68745  24206209.414    24206217.168
        36.700          30.300
 21  1  1  0 48 30.0000000  0 12G17G07G21G30G09G08G01G27G28G22G14G03
 127891349.772 6  99655662.39544  24336929.336    24336934.832
        40.400          26.900
 107655265.158 8  83887216.01547  20486104.383    20486108.629
        49.600          43.300
 109796405.368 8  85555735.53547  20893558.516    20893562.422
        50.200          42.200
 117644448.701 7  91671031.27545  22386996.484    22387003.094
        45.800          35.400
 127147000.962 6  99075545.64443  24195248.508    24195254.680
        38.800          20.600
 118292340.718 7  92175846.04347  22510258.492    22510265.332
        44.000          44.300
 104194295.081 8  81190411.82947  19827504.023    19827511.488
        51.800          45.900
 132206906.067 5 103018417.42244  25158122.133    25158128.078
        33.500          26.600
 131644774.555 5 102580370.02742  25051170.656    25051174.977
        34.500          16.900
 122338258.152 7  95328601.40945  23280205.195    23280207.652
        43.200          30.200
 127794785.642 6  99580365.79343  24318534.297    24318540.887
        37.300          22.500
 127137394.215 6  99068117.49344  24193438.266    24193445.309
        36.100          29.500
 21  1  1  0 49  0.0000000  0 12G17G07G21G30G09G08G01G27G28G22G14G03
 127847733.503 6  99621675.73044  24328629.195    24328634.320
        41.300          25.300
 107627388.430 8  83865493.87847  20480799.742    20480803.832
        49.300          43.600
 109850419.954 8  85597824.83147  20903837.227    20903840.984
        50.400          42.100
 117568452.731 7  91611813.63245  22372535.336    22372541.754
        45.500          35.100
 127201482.944 6  99117999.13043  24205615.680    24205622.445
        37.700          19.000
 118351718.752 7  92222114.63247  22521557.680    22521564.156
        43.700          44.100
 104171447.840 8  81172608.79347  19823156.023    19823163.898
        51.100          46.000
 132279251.69615 103074790.65254  25171887.414    25171894.887
        32.400          26.500
 131589014.528 5 102536920.65242  25040559.266    25040564.254
        33.600          14.800
 122283656.329 7  95286054.56245  23269814.711    23269817.113
        42.400          30.200
 127725067.759 6  99526040.22043  24305267.719    24305273.781
        38.400          22.300
 127070127.648 6  99015702.04345  24180637.336    24180644.488
        36.700          33.100
 21  1  1  0 49 30.0000000  0 12G17G07G21G30G09G08G01G27G28G22G14G03
 127804351.045 6  99587871.25243  24320373.203    24320378.402
        40.500          23.200
 107600088.965 8  83844221.57047  20475604.961    20475608.832
        50.700          43.600
 109904888.480 8  85640267.84146  20914202.422    20914205.656
        50.400          41.800
 117492837.862 7  91552892.95845  22358146.383    22358152.480
        46.000          35.400
 127255883.326 6  99160389.04043  24215968.039    24215974.699
        37.900          19.600
 118411052.063 7  92268348.36647  22532848.539    22532854.965
        44.500          43.800
 104149228.653 8  81155295.15047  19818928.281    19818935.863
        52.100          46.000
 132351431.200 5 103131034.41844  25185624.398    25185630.383
        32.800          25.900
 131533088.02415 102493341.56852  25029915.375    25029922.129
        32.000          14.800
 122229153.034 7  95243584.49444  23259443.156    23259445.621
        42.500          29.900
 127655225.424 6  99471617.68243  24291979.219    24291983.176
        39.400          22.600
 127002710.944 6  98963169.62245  24167808.664    24167815.746
        36.400          30.400
 21  1  1  0 50  0.0000000  0 12G17G07G21G30G09G08G01G27G28G22G14G03
 127761201.603 6  99554248.35843  24312161.750    24312167.125
        40.400          22.800
 107573368.432 8  83823400.37247  20470519.852    20470524.164
        50.900          43.600
 109959808.124 8  85683062.38547  20924653.219    20924656.734
        50.600          42.300
 117417606.667 7  91494271.25045  22343830.352    22343836.770
        46.400          35.200
 127310199.951 6  99202713.70143  24226303.813    24226311.145
        38.000          19.600
 118470339.251 7  92314546.18047  22544130.938    22544137.004
        45.300          43.800
 104127638.377 8  81138471.56847  19814819.875    19814827.383
        51.900          46.100
 132423444.460 5 103187148.65144  25199327.563    25199334.180
        32.500          26.600
 131476995.37315 102449633.02252  25019242.031    25019247.703
        32.600          16.300
 122174750.999 7  95201193.31245  23249091.023    23249092.934
        42.500          30.400
 127585259.254 6  99417098.59643  24278663.805    24278668.527
        39.600          22.200
 126935146.791 6  98910522.32645  24154951.469    24154959.313
        38.700          32.700
 21  1  1  0 50 30.0000000  0 12G17G07G21G30G09G08G01G27G28G22G14G03
 127718284.841 6  99520806.75044  24303995.398    24304001.152
        40.500          25.000
 107547227.999 8  83803031.21147  20465545.758    20465549.723
        50.500          43.600
 110015177.226 8  85726207.14746  20935189.516    20935193.242
        50.200          41.900
 117342761.701 7  91435950.50745  22329588.055    22329594.379
        46.800          35.300
 127364430.438 5  99244971.23143  24236624.031    24236630.746
        35.100          19.600
 118529579.684 7  92360707.56647  22555403.195    22555410.238
        43.900          43.200
 104106677.844 8  81122138.69947  19810831.094    19810838.742
        52.200          46.200
 132495291.423 5 103243133.29044  25212999.141    25213005.961
        32.400          26.600
 131420736.25115 102405794.73252  25008536.406    25008542.293
        33.500          17.400
 122120453.091 6  95158883.26944  23238758.469    23238760.484
        41.500          28.400
 127515169.890 6  99362483.51443  24265326.008    24265331.254
        38.400          22.900
 126867437.286 6  98857761.74045  24142065.797    24142074.762
        38.400          33.600
 21  1  1  0 51  0.0000000  0 12G17G07G21G30G09G08G01G27G28G22G14G03
 127675599.877 6  99487545.78644  24295873.188    24295878.008
        39.800          25.200
 107521668.725 8  83783114.88947  20460681.836    20460685.922
        51.400          43.500
 110070993.615 8  85769700.45846  20945810.828    20945814.645
        50.200          41.800
 117268305.551 7  91377932.72445  22315419.086    22315425.719
        46.500          34.900
 127418572.542 6  99287159.88542  24246926.016    24246933.820
        37.600          17.800
 118588772.408 7  92406831.76147  22566667.234    22566674.457
        43.700          43.600
 104086347.853 8  81106297.15147  19806962.156    19806969.910
        52.300          46.300
 132566971.807 5 103298988.10044  25226640.742    25226645.977
        32.200          25.000
 131364310.85915 102361826.90652  24997799.289    24997803.949
        34.600          16.300
 122066262.423 7  95116656.80044  23228446.211    23228448.703
        43.400          29.100
 127444958.100 6  99307773.04243  24251965.180    24251969.855
        39.100          23.000
 126799584.500 6  98804889.51645  24129154.938    24129162.598
        37.800          32.600
 21  1  1  0 51 30.0000000  0 12G17G07G21G30G09G08G01G27G28G22G14G03
 127633146.315 6  99454465.12144  24287794.516    24287799.277
        41.400          25.600
 107496691.931 8  83763652.43447  20455928.609    20455933.164
        50.300          43.400
 110127255.050 8  85813540.55147  20956517.563    20956520.723
        50.800          42.100
 117194240.524 7  91320219.71345  22301324.805    22301331.270
        46.400          34.400
 127472623.896 6  99329277.82443  24257212.242    24257218.926
        37.900          19.300
 118647916.103 7  92452917.73947  22577921.844    22577929.094
        45.100          43.700
 104066648.918 8  81090947.33547  19803213.563    19803221.203
        52.900          46.000
 132638485.98915 103354713.51754  25240248.094    25240254.848
        31.500          24.100
 131307719.681 5 102317729.96842  24987030.789    24987034.430
        35.000          17.400
 122012181.332 7  95074515.72645  23218155.289    23218157.195
        43.100          30.400
 127374624.374 6  99252967.55843  24238581.164    24238585.402
        38.800          22.900
 126731591.088 6  98751907.69345  24116215.828    24116223.527
        37.600          33.400
 21  1  1  0 52  0.0000000  0 12G17G07G21G30G09G08G01G27G28G22G14G03
 127590923.268 6  99421564.07844  24279759.625    24279764.660
        40.900          24.600
 107472298.795 8  83744644.79447  20451287.391    20451291.383
        51.000          43.600
 110183959.259 8  85857725.65146  20967307.563    20967311.367
        49.800          41.800
 117120569.248 7  91262813.51545  22287305.563    22287312.082
        46.100          35.000
 127526582.251 6  99371323.27443  24267480.227    24267486.699
        38.300          19.600
 118707009.657 7  92498964.66947  22589167.438    22589174.270
        44.300          43.600
 104047581.892 8  81076089.92047  19799585.445    19799592.805
        52.000          46.200
 132709832.49615 103410308.07354  25253824.523    25253832.117
        33.900          24.900
 131250962.311 5 102273503.40842  24976230.414    24976233.617
        35.800          16.900
 121958213.257 7  95032462.68045  23207885.375    23207887.758
        44.600          31.100
 127304169.446 6  99198067.62144  24225173.836    24225178.961
        38.600          24.300
 126663459.302 6  98698818.05545  24103250.711    24103258.199
        37.200          31.900
 21  1  1  0 52 30.0000000  0 12G17G07G21G30G09G08G01G27G28G22G14G03
 127548929.861 6  99388841.97644  24271768.414    24271773.719
        40.300          25.000
 107448490.149 8  83726092.62147  20446756.656    20446760.559
        50.800          43.600
 110241103.588 8  85902253.71447  20978182.164    20978185.473
        50.100          42.100
 117047294.019 7  91205715.93645  22273362.055    22273368.133
        46.400          35.000
 127580445.133 6  99413294.36642  24277729.656    24277737.035
        36.500          16.300
 118766051.778 7  92544971.52447  22600402.906    22600409.719
        43.900          43.700
 104029147.218 8  81061725.25147  19796077.469    19796084.832
        53.200          46.600
 132781013.02115 103465773.48454  25267369.961    25267377.016
        33.900          27.000
 131194039.063 5 102229147.63242  24965398.102    24965401.504
        35.400          17.800
 121904360.611 7  94990499.61245  23197637.484    23197639.750
        44.100          30.600
 127233593.970 6  99143073.80443  24211744.547    24211749.090
        39.900          22.200
 126595192.018 6  98645622.85145  24090259.766    24090267.402
        37.000          31.300
 21  1  1  0 53  0.0000000  0 12G17G07G21G30G09G08G01G27G28G22G14G03
 127507165.063 6  99356297.97644  24263821.156    24263825.785
        40.800          25.300
 107425267.012 8  83707996.66347  20442337.273    20442341.387
        50.700          43.800
 110298685.628 8  85947122.84346  20989139.258    20989142.922
        49.800          41.700
 116974416.940 7  91148928.60445  22259493.797    22259499.992
        45.400          35.100
 127634209.923 6  99455189.04142  24287961.406    24287967.531
        36.900          17.400
 118825041.528 7  92590937.58247  22611627.961    22611635.098
        44.900          43.800
 104011345.230 8  81047853.58547  19792689.906    19792697.273
        52.000          46.300
 132852025.11415 103521107.47254  25280883.969    25280890.676
        35.400          28.900
 131136949.856 6 102184662.54742  24954534.211    24954538.371
        36.500          17.800
 121850626.273 7  94948628.70345  23187411.891    23187414.266
        43.300          30.200
 127162898.252 6  99087986.29844  24198290.930    24198296.211
        40.500          24.500
 126526790.870 6  98592323.29945  24077243.297    24077251.164
        36.500          30.500
 21  1  1  0 53 30.0000000  0 12G17G07G21G30G09G08G01G27G28G22G14G03
 127465628.671 6  99323931.99143  24255916.125    24255921.781
        39.800          22.900
 107402630.692 8  83690357.96947  20438029.711    20438033.945
        50.900          44.000
 110356703.519 8  85992331.60446  21000179.617    21000183.406
        49.600          41.600
 116901940.829 7  91092453.70845  22245702.281    22245707.957
        46.500          34.900
 127687874.634 5  99497005.71842  24298171.734    24298179.613
        35.700          15.600
 118883978.311 7  92636862.34347  22622842.953    22622850.320
        43.900          43.400
 103994176.783 8  81034475.58747  19789422.586    19789430.180
        53.000          46.300
 132922870.360 5 103576311.55344  25294365.430    25294372.176
        34.700          28.600
 131079694.994 6 102140048.39343  24943638.953    24943643.496
        37.200          19.300
 121797012.806 7  94906852.00345  23177210.148    23177211.973
        44.000          31.000
 127092083.255 6  99032805.78943  24184815.453    24184820.125
        39.700          22.800
 126458258.752 5  98538921.71944  24064200.773    24064209.676
        35.200          28.500
 21  1  1  0 54  0.0000000  0 12G17G07G21G30G09G08G01G27G28G22G14G03
 127424319.643 6  99291743.15743  24248055.328    24248060.902
        39.600          22.200
 107380582.059 8  83673177.19147  20433833.953    20433838.133
        50.200          43.600
 110415154.708 8  86037877.99946  21011302.477    21011306.281
        49.700          41.800
 116829868.038 7  91036293.09245  22231987.203    22231993.246
        46.500          35.100
 127741436.968 6  99538742.54842  24308365.477    24308372.086
        36.300          16.300
 118942860.876 7  92682744.85947  22634047.844    22634055.449
        43.900          43.600
 103977642.336 8  81021591.61847  19786276.055    19786283.801
        52.300          46.300
 132993548.237 5 103631385.18544  25307815.359    25307822.555
        32.600          26.100
 131022274.326 6 102095305.01543  24932712.023    24932716.984
        36.900          18.300
 121743523.184 7  94865171.79445  23167031.242    23167032.863
        43.300          31.600
 127021149.650 6  98977532.90143  24171317.492    24171321.438
        39.300          21.800
 126389597.851 5  98485419.81944  24051135.172    24051144.438
        33.700          28.600
 21  1  1  0 54 30.0000000  0 12G17G07G21G30G09G08G01G27G28G22G14G03
 127383237.308 6  99259730.99643  24240238.219    24240243.418
        38.900          22.500
 107359122.099 8  83656455.14247  20429750.383    20429754.488
        50.700          43.500
 110474036.569 8  86083759.98046  21022507.359    21022511.160
        50.400          41.400
 116758200.855 7  90980448.53045  22218349.438    22218355.609
        47.000          35.700
 127794894.577 6  99580397.86142  24318538.398    24318544.789
        38.600          16.900
 119001688.237 7  92728584.36347  22645242.703    22645250.055
        43.800          43.900
 103961742.352 8  81009202.03747  19783250.516    19783258.156
        53.000          46.600
 133064058.848 5 103686328.52643  25321232.656    25321240.145
        31.600          22.300
 130964688.112 6 102050432.68343  24921753.773    24921758.387
        36.200          18.600
 121690160.284 7  94823590.33945  23156876.219    23156878.277
        42.700          30.200
 126950098.122 6  98922168.13543  24157796.422    24157800.371
        37.600          20.900
 126320810.967 6  98431819.71745  24038045.773    24038054.207
        36.300          30.500
 21  1  1  0 55  0.0000000  0 12G17G07G21G30G09G08G01G27G28G22G14G03
 127342380.566 6  99227894.55743  24232463.273    24232468.316
        38.700          22.800
 107338251.178 8  83640192.07347  20425778.695    20425782.820
        50.600          43.700
 110533346.433 8  86129975.47246  21033794.039    21033797.488
        50.600          41.700
 116686941.155 7  90924921.49545  22204789.102    22204796.027
        44.400          35.400
 127848244.652 6  99621969.31843  24328690.336    24328696.758
        37.100          19.300
 119060458.812 7  92774379.63347  22656426.672    22656433.941
        44.800          43.400
 103946476.742 8  80997306.76647  19780345.969    19780353.281
        53.000          46.300
 133134401.44815 103741140.94453  25334617.367    25334625.355
        32.400          21.700
 130906935.973 5 102005430.99443  24910764.070    24910768.609
        35.600          19.000
 121636926.526 7  94782109.49945  23146746.734    23146748.563
        43.100          31.500
 126878928.702 6  98866711.49043  24144253.227    24144257.484
        38.300          21.500
 126251899.739 6  98378122.70945  24024933.063    24024940.574
        37.200          30.000
 21  1  1  0 55 30.0000000  0 12G17G07G21G30G09G08G01G27G28G22G14G03
 127301748.414 6  99196233.13243  24224731.203    24224736.020
        39.200          22.000
 107317970.259 8  83624388.76547  20421919.484    20421923.449
        51.000          44.000
 110593082.140 8  86176522.78346  21045161.188    21045164.629
        50.500          41.800
 116616091.371 7  90869713.86445  22191306.758    22191313.766
        44.700          35.000
 127901484.956 6  99663455.31943  24338822.148    24338828.234
        37.900          19.000
 119119171.975 7  92820130.15147  22667599.266    22667606.422
        45.100          43.400
 103931845.996 8  80985906.19147  19777561.555    19777569.078
        51.100          46.300
 133204576.46515 103795822.89653  25347971.938    25347978.527
        30.500          20.100
 130849018.058 6 101960300.19043  24899743.211    24899746.723
        37.100          19.300
 121583824.464 7  94740731.28745  23136641.344    23136643.695
        43.100          30.600
 126807642.238 6  98811163.68343  24130686.836    24130691.906
        37.600          20.900
 126182866.656 6  98324330.73945  24011797.242    24011803.727
        38.600          30.500
 21  1  1  0 56  0.0000000  0 12G17G07G21G30G09G08G01G27G28G22G14G03
 127261340.186 6  99164746.21043  24217041.938    24217046.867
        40.400          21.700
 107298280.684 8  83609046.22747  20418172.828    20418176.637
        50.500          43.700
 110653241.649 8  86223400.33547  21056608.898    21056612.340
        49.900          42.100
 116545654.041 7  90814827.62545  22177902.961    22177909.652
        46.000          35.300
 127954613.364 6  99704854.05043  24348932.102    24348937.926
        38.200          18.600
 119177826.563 7  92865835.02847  22678760.844    22678767.691
        44.700          43.100
 103917850.680 8  80975000.77247  19774898.383    19774905.949
        52.600          46.600
 133274582.48215 103850290.89553  25361293.961    25361300.711
        33.100          21.300
 130790934.516 6 101915040.30843  24888690.109    24888693.871
        37.000          18.300
 121530857.361 7  94699458.24845  23126562.156    23126564.355
        42.800          30.200
 126736239.621 6  98755525.33243  24117100.398    24117104.258
        37.700          21.500
 126113714.351 6  98270445.87445  23998637.117    23998644.527
        37.000          30.900
 21  1  1  0 56 30.0000000  0 12G17G07G21G30G09G08G01G27G28G22G14G03
 127221155.069 6  99133433.14443  24209395.156    24209399.469
        39.800          19.600
 107279183.056 8  83594164.97547  20414538.594    20414542.582
        50.200          43.800
 110713822.060 8  86270605.85646  21068137.102    21068140.574
        50.300          41.300
 116475631.323 7  90760264.46845  22164578.258    22164584.449
        46.200          35.800
 128007627.515 6  99746163.79043  24359019.523    24359026.707
        36.900          18.300
 119236421.854 7  92911493.68447  22689911.063    22689917.887
        44.500          43.400
 103904491.072 8  80964590.69447  19772356.078    19772363.566
        51.900          46.800
 133344421.01415 103904710.48253  25374583.070    25374590.020
        32.400          20.600
 130732685.539 6 101869651.50443  24877605.469    24877609.199
        36.600          19.600
 121478027.962 7  94658292.47944  23116509.281    23116511.223
        42.700          29.800
 126664721.351 6  98699796.86743  24103491.031    24103494.863
        38.100          21.300
 126044445.275 6  98216470.02745  23985455.445    23985463.828
        37.000          31.700
 21  1  1  0 57  0.0000000  0 12G17G07G21G30G09G08G01G27G28G22G14G03
 127181192.328 6  99102293.35743  24201789.797    24201793.945
        38.700          21.100
 107260678.277 8  83579745.65547  20411017.266    20411021.246
        50.700          43.600
 110774820.867 8  86318137.40746  21079744.828    21079748.633
        50.700          41.800
 116406025.588 7  90706026.23245  22151332.906    22151338.672
        45.700          35.500
 128060525.118 6  99787382.70843  24369086.352    24369093.551
        36.900          18.600
 119294956.435 7  92957105.03147  22701050.055    22701057.035
        43.800          43.900
 103891767.298 8  80954676.07747  19769934.500    19769942.301
        51.400          46.300
 133414091.176 5 103958998.88443  25387841.492    25387846.520
        30.300          18.600
 130674271.355 6 101824134.02643  24866488.648    24866493.105
        37.100          18.300
 121425338.687 7  94617235.94045  23106482.172    23106484.953
        43.500          30.000
 126593088.235 6  98643978.93343  24089859.953    24089863.117
        38.600          20.600
 125975062.115 6  98162405.27345  23972252.344    23972260.246
        36.300          31.900
 21  1  1  0 57 30.0000000  0 12G17G07G21G30G09G08G01G27G28G22G14G03
 127141451.079 6  99071326.11943  24194227.906    24194232.133
        39.600          21.500
 107242766.901 8  83565788.72947  20407608.688    20407612.813
        49.500          43.700
 110836235.996 8  86365993.36646  21091431.852    21091435.473
        50.400          41.700
 116336839.180 7  90652114.73645  22138166.688    22138173.281
        45.700          35.800
 128113303.996 5  99828509.12642  24379128.805    24379136.957
        34.600          17.400
 119353429.865 7  93002668.73747  22712177.297    22712184.066
        43.900          43.300
 103879679.888 8  80945257.32747  19767634.742    19767642.125
        51.200          46.400
 133483593.28515 104013156.33853  25401067.695    25401072.645
        32.300          21.300
 130615692.225 6 101778487.96542  24855342.250    24855345.445
        37.500          17.400
 121372792.599 7  94576290.94745  23096483.336    23096485.609
        43.700          31.100
 126521340.905 6  98588071.93143  24076207.453    24076209.977
        38.700          20.900
 125905566.955 6  98108253.26345  23959027.375    23959035.969
        36.400          32.100
 21  1  1  0 58  0.0000000  0 12G17G07G21G30G09G08G01G27G28G22G14G03
 127101930.227 6  99040530.64043  24186706.586    24186711.574
        38.800          20.900
 107225449.816 8  83552294.89247  20404313.680    20404317.570
        49.400          43.900
 110898064.626 8  86414171.51746  21103197.477    21103200.852
        51.600          41.400
 116268074.172 7  90598531.61446  22125081.664    22125087.891
        45.100          36.500
 128165961.645 5  99869541.05942  24389150.313    24389156.621
        34.600          16.300
 119411841.186 7  93048184.06447  22723292.398    22723298.863
        44.000          43.200
 103868228.789 8  80936334.40147  19765455.406    19765463.082
        51.300          46.600
 133552926.772 5 104067182.36743  25414260.953    25414266.965
        32.600          20.100
 130556948.014 6 101732713.36043  24844163.539    24844166.828
        38.000          18.300
 121320392.306 7  94535459.57445  23086511.398    23086513.559
        44.600          30.000
 126449480.054 6  98532076.47243  24062531.727    24062535.379
        38.300          21.300
 125835962.359 6  98054015.97445  23945783.516    23945790.555
        37.100          32.200
 21  1  1  0 58 30.0000000  0 12G17G07G21G30G09G08G01G27G28G22G14G03
 127062629.017 6  99009906.31943  24179228.188    24179233.129
        39.600          21.800
 107208727.615 8  83539264.58047  20401131.148    20401135.664
        50.200          44.500
 110960304.440 8  86462670.07547  21115041.297    21115044.555
        50.600          42.000
 116199733.040 7  90545278.77945  22112076.531    22112082.859
        45.600          35.900
 128218496.132 6  99910477.02342  24399147.141    24399153.113
        36.000          15.600
 119470188.800 7  93093649.74647  22734396.023    22734402.027
        43.700          43.200
 103857414.319 8  80927907.54947  19763397.922    19763405.234
        51.300          46.600
 133622092.030 5 104121077.38243  25427423.055    25427428.512
        35.200          20.900
 130498038.971 6 101686810.19942  24832953.844    24832957.012
        37.100          17.400
 121268140.413 7  94494743.80945  23076568.250    23076570.570
        44.200          30.800
 126377506.548 6  98475993.27843  24048835.219    24048840.203
        38.000          22.800
 125766250.867 6  97999695.37445  23932517.664    23932524.633
        37.500          32.000
 21  1  1  0 59  0.0000000  0 12G17G07G21G30G09G08G01G27G28G22G14G03
 127023546.625 6  98979452.54643  24171791.664    24171796.465
        40.100          22.800
 107192601.075 8  83526698.46147  20398062.477    20398066.844
        50.300          43.900
 111022952.890 8  86511487.05346  21126962.898    21126966.156
        50.200          41.200
 116131817.838 7  90492357.83246  22099152.625    22099159.191
        45.400          36.100
 128270904.741 5  99951314.88642  24409119.109    24409126.672
        33.400          17.400
 119528472.235 7  93139065.40547  22745486.711    22745493.105
        43.500          42.500
 103847236.659 8  80919976.91147  19761460.820    19761468.512
        52.300          46.800
 133691088.847 5 104174841.09143  25440553.375    25440558.063
        33.400          21.300
 130438965.178 6 101640778.73843  24821712.719    24821715.520
        36.500          18.600
 121216040.156 7  94454146.23145  23066654.359    23066655.813
        44.600          31.000
 126305421.043 6  98419822.80643  24035117.773    24035122.957
        38.100          21.800
 125696434.960 6  97945293.42745  23919231.758    23919239.086
        36.800          32.100
 21  1  1  0 59 30.0000000  0 12G17G07G21G30G09G08G01G27G28G22G14G03
 126984681.894 6  98949168.31543  24164395.328    24164400.539
        40.100          22.200
 107177071.109 8  83514597.18047  20395107.250    20395111.398
        49.600          43.700
 111086007.407 8  86560620.45446  21138961.945    21138964.910
        50.300          41.100
 116064330.814 7  90439770.53946  22086310.648    22086317.168
        46.600          36.600
 128323185.63715  99992053.26052  24419069.313    24419075.789
        35.000          17.800
 119586690.563 7  93184430.34847  22756564.766    22756571.816
        43.400          43.200
 103837695.875 8  80912542.53847  19759645.445    19759653.027
        52.300          46.900
 133759917.256 5 104228473.64043  25453650.633    25453656.410
        34.600          21.700
 130379726.839 6 101594618.99042  24810440.266    24810442.910
        36.000          16.900
 121164094.097 7  94413668.81145  23056768.828    23056771.059
        44.600          31.000
 126233224.241 6  98363565.58643  24021379.906    24021384.168
        38.900          22.200
 125626517.121 6  97890812.06245  23905926.609    23905933.828
        36.400          32.600
 21  1  1  1  0  0.0000000  0 12G17G07G21G30G09G08G01G27G28G22G14G03
 126946034.252 6  98919053.29343  24157041.836    24157046.012
        39.100          22.300
 107162138.128 8  83502961.08347  20392265.938    20392269.793
        49.500          43.900
 111149465.636 8  86610068.44747  21151037.516    21151040.660
        51.400          42.000
 115997274.366 7  90387518.76746  22073550.305    22073556.574
        46.200          37.200
 128375336.93315 100032690.76452  24428993.305    24428999.473
        33.400          16.900
 119644842.889 7  93229743.84147  22767631.031    22767638.281
        44.900          43.400
 103828792.174 8  80905604.59047  19757951.398    19757958.391
        52.100          46.900
 133828577.400 5 104281975.10243  25466716.258    25466722.391
        33.800          20.900
 130320324.299 5 101548331.33842  24799135.141    24799138.379
        34.300          16.300
 121112305.176 7  94373313.82744  23046913.828    23046915.902
        44.300          29.400
 126160917.098 6  98307222.38043  24007619.797    24007624.613
        39.400          22.600
 125556499.935 6  97836253.26545  23892602.766    23892610.117
        37.400          35.200
 21  1  1  1  0 30.0000000  0 12G17G07G21G30G09G08G01G27G28G22G14G03
 126907602.526 6  98889106.51743  24149727.547    24149732.320
        39.400          22.800
 107147802.348 8  83491790.33747  20389537.539    20389541.684
        49.300          43.600
 111213324.918 8  86659828.93546  21163189.516    21163192.844
        50.700          41.400
 115930650.442 7  90335604.02346  22060871.898    22060878.117
        46.000          36.800
 128427354.987 5 100073224.18543  24438890.852    24438898.508
        32.400          20.400
 119702928.247 7  93275005.16547  22778683.930    22778691.148
        43.700          42.600
 103820525.406 8  80899162.96647  19756377.859    19756385.324
        53.400          46.600
 133897068.974 5 104335345.21642  25479751.000    25479756.188
        30.700          16.900
 130260757.465 5 101501915.71342  24787800.203    24787804.398
        33.400          16.300
 121060675.748 7  94333083.13344  23037089.539    23037091.410
        44.700          29.700
 126088500.159 6  98250793.61643  23993839.586    23993844.797
        40.400          22.600
 125486385.969 6  97781619.08145  23879260.242    23879267.824
        37.300          35.100
 21  1  1  1  1  0.0000000  0 12G17G07G21G30G09G08G01G27G28G22G14G03
 126869385.525 6  98859327.04043  24142455.125    24142460.266
        38.700          23.500
 107134064.563 8  83481085.56747  20386923.469    20386927.457
        49.300          43.800
 111277582.595 8  86709899.86646  21175417.219    21175420.738
        50.700          40.900
 115864461.205 7  90284027.98246  22048276.344    22048282.539
        46.000          36.400
 128479238.61315 100113652.99553  24448764.477    24448771.219
        31.500          20.100
 119760945.772 7  93320213.61647  22789724.617    22789731.262
        43.600          42.400
 103812895.515 8  80893217.60447  19754925.859    19754933.543
        52.900          46.800
 133965392.03415 104388583.95853  25492751.344    25492757.188
        35.400          21.300
 130201026.565 5 101455372.15442  24776433.609    24776438.645
        34.300          17.400
 121009208.629 7  94292978.91245  23027295.344    23027297.773
        44.600          30.100
 126015974.075 6  98194279.80144  23980039.000    23980043.344
        41.700          25.300
 125416177.235 6  97726911.05845  23865900.352    23865907.625
        37.800          33.600
 21  1  1  1  1 30.0000000  0 12G17G07G21G30G09G08G01G27G28G22G14G03
 126831382.377 6  98829714.22143  24135223.586    24135228.629
        38.000          22.800
 107120925.383 8  83470847.23847  20384423.211    20384427.340
        48.700          43.400
 111342236.281 8  86760279.36946  21187720.367    21187723.723
        50.800          41.400
 115798708.773 7  90232792.32946  22035763.992    22035770.535
        45.200          37.100
 128530985.24015 100153975.06253  24458611.633    24458618.043
        30.700          22.500
 119818894.330 7  93365368.33947  22800752.125    22800758.504
        43.500          42.200
 103805902.551 8  80887768.55847  19753595.188    19753602.621
        51.500          46.400
 134033546.31315 104441691.26353  25505720.406    25505726.934
        30.100          18.600
 130141132.041 6 101408701.14142  24765035.711    24765040.734
        36.000          16.300
 120957906.978 7  94253003.61245  23017532.938    23017535.637
        43.700          30.400
 125943339.563 6  98137681.53544  23966216.555    23966221.301
        40.900          25.300
 125345876.532 6  97672131.34845  23852522.953    23852529.609
        37.600          34.400
 21  1  1  1  2  0.0000000  0 12G17G07G21G30G09G08G01G27G28G22G14G03
 126793592.615 6  98800267.66643  24128032.211    24128037.125
        36.600          22.200
 107108385.797 8  83461076.11947  20382037.070    20382040.977
        50.800          43.800
 111407283.393 8  86810965.43946  21200098.672    21200101.656
        50.900          41.300
 115733395.646 7  90181898.99846  22023335.148    22023342.066
        46.300          36.800
 128582593.11615 100194188.97353  24468432.148    24468438.973
        30.700          22.200
 119876773.445 7  93410468.93947  22811766.148    22811772.742
        42.900          42.600
 103799546.866 8  80882816.08847  19752385.875    19752393.246
        52.300          46.800
 134101532.22914 104494667.29052  25518657.633    25518663.883
        29.100          17.800
 130081074.202 6 101361902.92442  24753607.867    24753611.738
        36.800          16.900
 120906773.319 7  94213159.22944  23007802.117    23007805.066
        43.800          29.700
 125870598.138 6  98080999.91844  23952374.070    23952378.133
        40.300          24.200
 125275486.495 6  97617282.03645  23839127.031    23839135.211
        38.100          34.700
 21  1  1  1  2 30.0000000  0 12G17G07G21G30G09G08G01G27G28G22G14G03
 126756015.041 6  98770986.46143  24120882.117    24120886.777
        37.400          21.500
 107096445.865 8  83451772.27047  20379764.805    20379768.832
        50.000          43.600
 111472721.401 8  86861956.09346  21212551.102    21212554.277
        50.300          40.900
 115668523.894 7  90131349.58746  22010990.547    22010997.137
        45.500          36.900
 128634059.88315 100234292.94653  24478226.406    24478232.910
        30.300          21.800
 119934582.093 7  93455514.62747  22822766.891    22822773.898
        43.100          42.900
 103793828.148 8  80878359.95647  19751297.313    19751304.895
        52.900          46.300
 134169349.76015 104547512.16253  25531561.789    25531569.238
        31.000          19.000
 130020852.995 5 101314977.35142  24742148.563    24742151.277
        35.400          16.900
 120855810.471 7  94173447.94145  22998104.578    22998106.828
        43.800          30.200
 125797750.132 6  98024235.27144  23938511.406    23938515.754
        40.000          25.800
 125205009.661 6  97562365.04145  23825715.430    23825723.570
        37.400          32.500
 21  1  1  1  3  0.0000000  0 12G17G07G21G30G09G08G01G27G28G22G14G03
 126718648.402 6  98741869.65743  24113770.992    24113775.492
        36.600          20.900
 107085105.870 8  83442935.90647  20377606.984    20377610.949
        50.700          43.800
 111538547.499 8  86913249.15846  21225077.352    21225080.512
        50.700          41.200
 115604095.221 7  90081145.43546  21998730.078    21998736.750
        46.400          37.000
 128685382.952 5 100274284.95643  24487993.719    24487999.383
        31.500          22.600
 119992319.357 7  93500504.70646  22833753.828    22833760.980
        42.200          41.900
 103788746.025 8  80874399.87047  19750330.367    19750337.734
        52.900          46.500
 134236998.618 4 104600225.51742  25544436.125    25544442.672
        27.300          16.900
 129960468.445 6 101267924.47042  24730657.477    24730660.695
        36.200          16.900
 120805021.053 7  94133871.79245  22988439.523    22988441.938
        43.600          31.000
 125724796.085 6  97967387.98444  23924628.484    23924633.223
        39.100          24.400
 125134448.273 6  97507382.20445  23812288.547    23812295.773
        39.700          33.600
 21  1  1  1  3 30.0000000  0 12G17G07G21G30G09G08G01G27G28G22G14G03
 126681491.739 6  98712916.42843  24106699.813    24106704.832
        37.600          22.300
 107074366.440 8  83434567.50547  20375563.445    20375567.406
        51.100          43.700
 111604759.483 8  86964842.92146  21237676.953    21237680.590
        51.300          41.100
 115540112.104 7  90031288.47246  21986554.547    21986561.246
        46.900          37.100
 128736560.552 5 100314163.61343  24497731.594    24497738.320
        31.800          22.200
 120049984.675 7  93545438.72147  22844726.828    22844734.215
        42.300          42.100
 103784300.651 8  80870935.95447  19749484.523    19749491.965
        52.600          46.600
 134304479.269 4 104652807.89942  25557277.102    25557283.039
        29.400          16.900
 129899921.077 5 101220744.75842  24719135.500    24719138.762
        35.500          16.900
 120754407.913 7  94094433.00145  22978807.844    22978809.961
        44.600          31.200
 125651737.227 6  97910459.00744  23910725.844    23910730.938
        39.700          24.300
 125063805.445 6  97452335.92346  23798845.375    23798853.184
        39.900          36.100
 21  1  1  1  4  0.0000000  0 12G17G07G21G30G09G08G01G27G28G22G14G03
 126644544.234 6  98684126.20643  24099668.898    24099674.375
        37.200          22.500
 107064228.338 8  83426667.68147  20373633.711    20373638.320
        50.600          43.800
 111671354.870 8  87016735.44046  21250349.250    21250353.246
        50.200          41.100
 115476576.847 7  89981780.49346  21974464.250    21974471.094
        46.800          36.200
 128787590.59415 100353927.31453  24507442.141    24507448.508
        31.300          21.500
 120107577.422 7  93590316.18147  22855686.906    22855693.957
        43.000          42.200
 103780492.081 8  80867968.24947  19748759.695    19748767.160
        53.000          46.600
 134371792.030 5 104705259.50142  25570085.625    25570090.977
        32.400          17.800
 129839211.551 5 101173438.61342  24707582.688    24707585.594
        34.600          17.400
 120703973.816 7  94055133.72945  22969211.477    22969212.723
        44.700          30.300
 125578574.585 6  97853449.19544  23896804.063    23896807.988
        40.000          26.300
 124993083.658 6  97397228.06745  23785387.875    23785395.039
        39.500          35.700
 21  1  1  1  4 30.0000000  0 12G17G07G21G30G09G08G01G27G28G22G14G03
 126607805.100 6  98655498.38443  24092678.156    24092683.094
        37.900          23.400
 107054691.349 8  83419236.25647  20371819.180    20371823.551
        50.900          43.900
 111738330.926 8  87068924.57546  21263094.844    21263098.035
        50.200          41.100
 115413491.208 7  89932622.85446  21962460.070    21962466.148
        46.200          36.100
 128838471.20615 100393574.63653  24517124.813    24517131.129
        32.900          19.300
 120165096.072 7  93635135.91347  22866632.000    22866638.945
        44.600          42.200
 103777319.824 8  80865496.36647  19748156.039    19748163.598
        53.000          46.800
 134438936.34915 104757579.71853  25582863.148    25582868.527
        30.100          19.000
 129778339.768 5 101126006.05942  24695998.531    24696002.391
        35.500          16.900
 120653721.538 7  94015976.12745  22959648.406    22959649.891
        44.400          30.700
 125505308.727 6  97796358.92944  23882861.883    23882865.984
        40.400          26.500
 124922285.137 6  97342060.47145  23771915.047    23771922.715
        36.600          33.700
 21  1  1  1  5  0.0000000  0 12G17G07G21G30G09G08G01G27G28G22G14G03
 126571273.365 6  98627032.10043  24085726.438    24085730.938
        37.600          22.500
 107045755.710 8  83412273.40447  20370119.133    20370122.867
        51.700          43.700
 111805684.494 8  87121407.88746  21275911.891    21275914.836
        50.200          40.800
 115350856.962 7  89883816.95646  21950540.461    21950547.320
        47.000          36.300
 128889195.54315 100433077.33653  24526777.453    24526784.402
        31.200          19.900
 120222539.994 7  93679897.41946  22877562.906    22877569.539
        43.000          41.300
 103774783.321 8  80863519.88247  19747673.219    19747680.855
        53.800          46.800
 134505911.89714 104809768.58052  25595608.273    25595613.652
        26.800          16.300
 129717305.43415 101078446.90352  24684384.211    24684387.496
        35.300          17.800
 120603653.463 7  93976962.06645  22950120.328    22950122.500
        43.700          30.600
 125431940.240 7  97739188.69944  23868899.742    23868904.742
        42.100          26.800
 124851412.534 6  97286835.11845  23758428.813    23758435.844
        38.100          35.800
 21  1  1  1  5 30.0000000  0 12G17G07G21G30G09G08G01G27G28G22G14G03
 126534947.191 6  98598725.97843  24078813.234    24078818.738
        37.700          21.800
 107037422.530 8  83405780.01347  20368532.852    20368537.234
        50.000          43.800
 111873413.516 8  87174183.75346  21288800.133    21288803.453
        50.000          40.900
 115288676.744 7  89835364.86446  21938708.023    21938714.578
        47.100          37.500
 128939769.46715 100472485.62153  24536402.500    24536407.367
        31.000          20.100
 120279908.868 7  93724600.44446  22888479.875    22888486.539
        42.700          41.600
 103772882.941 8  80862039.08447  19747311.555    19747319.164
        52.600          46.800
 134572719.59714 104861826.45652  25608321.805    25608325.676
        28.300          16.300
 129656109.915 6 101030762.10642  24672738.820    24672742.602
        36.700          17.800
 120553773.047 7  93938094.22745  22940629.016    22940630.773
        44.600          32.100
 125358470.575 7  97681939.63444  23854919.367    23854923.566
        42.200          27.000
 124780469.027 6  97231554.50546  23744928.211    23744935.898
        38.800          36.300
 21  1  1  1  6  0.0000000  0 12G17G07G21G30G09G08G01G27G28G22G14G03
 126498825.884 6  98570579.55843  24071940.227    24071944.930
        39.900          22.500
 107029691.686 8  83399755.97147  20367061.797    20367066.398
        49.900          44.100
 111941515.359 8  87227250.13246  21301759.070    21301762.805
        49.200          40.700
 115226952.516 7  89787268.06846  21926962.398    21926968.660
        46.600          37.700
 128990187.11115 100511772.06152  24545995.156    24546000.984
        30.300          15.600
 120337201.886 7  93769244.36246  22899382.336    22899389.414
        42.200          41.800
 103771618.288 8  80861053.65347  19747071.133    19747078.547
        53.200          46.800
 134639359.516 5 104913753.66443  25621002.063    25621006.332
        31.200          18.300
 129594753.190 6 100982951.68042  24661064.367    24661067.344
        38.000          17.800
 120504082.822 7  93899374.60945  22931172.758    22931175.230
        44.900          32.100
 125284900.455 6  97624612.30844  23840918.648    23840923.574
        40.800          24.700
 124709456.594 6  97176220.16846  23731414.984    23731422.289
        39.400          36.100
 21  1  1  1  6 30.0000000  0 12G17G07G21G30G09G08G01G27G28G22G14G03
 126462908.431 6  98542591.92443  24065105.008    24065109.590
        39.900          23.400
 107022563.120 8  83394201.22847  20365705.266    20365709.563
        49.300          43.600
 112009986.665 8  87280604.40446  21314789.094    21314792.422
        49.500          40.900
 115165685.906 7  89739527.86546  21915303.844    21915310.141
        46.700          37.600
 129040446.20914 100550935.01952  24555559.430    24555565.453
        29.100          16.900
 120394418.010 6  93813828.36646  22910270.250    22910277.098
        41.800          41.500
 103770988.633 8  80860563.01547  19746951.047    19746958.773
        53.200          46.800
 134705831.32214 104965549.92552  25633650.734    25633656.133
        28.300          14.800
 129533235.174 6 100935015.62642  24649356.375    24649361.254
        36.200          17.800
 120454585.235 7  93860805.08045  22921754.250    22921756.359
        44.800          31.800
 125211230.439 6  97567207.13844  23826900.250    23826904.793
        41.300          25.800
 124638378.232 6  97120834.48945  23717887.945    23717896.656
        37.300          35.700
 21  1  1  1  7  0.0000000  0 11G17G07G21G30G09G08G01G28G22G14G03
 126427194.549 6  98514762.95844  24058308.555    24058313.199
        39.500          24.400
 107016038.012 8  83389116.71847  20364464.008    20364467.992
        49.800          43.800
 112078825.846 8  87334245.32646  21327888.336    21327892.012
        49.600          40.400
 115104879.620 7  89692146.34046  21903732.531    21903739.273
        47.200          37.500
 129090545.016 4 100589973.03242  24565093.953    24565100.332
        28.600          16.900
 120451557.254 6  93858352.44846  22921143.867    22921150.539
        41.800          41.700
 103770994.390 8  80860567.51947  19746952.313    19746959.789
        52.900          46.800
 129471556.672 6 100886954.49743  24637619.828    24637624.605
        36.400          18.300
 120405283.532 7  93822388.17445  22912371.797    22912374.613
        44.000          30.800
 125137462.174 6  97509725.38044  23812862.289    23812867.063
        41.200          24.500
 124567236.608 6  97065399.52046  23704350.531    23704359.082
        38.100          36.700
 21  1  1  1  7 30.0000000  0 12G17G07G21G30G09G08G01G27G28G22G14G03
 126391682.390 6  98487091.16244  24051551.250    24051555.875
        40.200          26.000
 107010115.155 8  83384501.50147  20363336.828    20363341.082
        49.500          43.800
 112148029.644 8  87388170.37046  21341057.305    21341061.109
        49.900          40.200
 115044534.753 7  89645124.39046  21892248.844    21892256.367
        46.800          37.900
 129140481.083 4 100628884.27342  24574596.734    24574602.566
        28.900          16.300
 120508617.411 6  93902814.89846  22932001.930    22932008.621
        41.600          41.100
 103771634.282 8  80861066.13847  19747074.172    19747081.602
        52.500          46.900
 134838266.50714                  25658853.648
        29.600
 129409717.711 6 100838768.32943  24625852.484    24625856.961
        37.200          19.600
 120356179.642 7  93784125.42745  22903028.234    22903029.766
        44.200          30.900
 125063595.725 6  97452167.13144  23798805.492    23798810.848
        39.300          24.400
 124496034.158 6  97009917.16545  23690802.102    23690809.395
        38.700          35.400
 21  1  1  1  8  0.0000000  0 12G17G07G21G30G09G08G01G27G28G22G14G03
 126356370.734 6  98459575.60244  24044832.070    24044836.523
        40.300          25.200
 107004795.743 8  83380356.48547  20362324.477    20362328.770
        50.000          43.800
 112217595.463 8  87442377.51046  21354295.242    21354298.949
        48.900          40.200
 114984653.720 7  89598463.85046  21880854.180    21880861.055
        45.800          36.900
 129190252.87715 100667667.61552  24584067.852    24584072.727
        30.300          17.400
 120565598.812 6  93947215.97646  22942845.055    22942851.887
        41.800          40.900
 103772908.225 8  80862058.83947  19747316.617    19747324.199
        52.700          46.700
 134904236.36314 105120139.15152  25671407.180    25671413.457
        28.900          14.800
 129347718.713 6 100790457.45643  24614054.086    24614058.988
        37.100          20.400
 120307276.836 7  93746019.35545  22893721.891    22893723.574
        43.600          30.400
 124989632.387 6  97394533.40244  23784731.234    23784735.656
        40.300          24.100
 124424773.137 6  96954389.14946  23677241.594    23677248.762
        40.700          36.500
 21  1  1  1  8 30.0000000  0 12G17G07G21G30G09G08G01G27G28G22G14G03
 126321259.167 6  98432215.92944  24038150.313    24038154.953
        40.600          26.900
 107000079.307 8  83376681.33547  20361426.969    20361430.961
        50.100          43.700
 112287520.847 8  87496864.82446  21367601.891    21367605.125
        50.000          39.900
 114925238.606 7  89552166.35246  21869548.008    21869554.266
        47.200          37.400
 129239856.94114 100706320.03652  24593507.750    24593512.031
        28.900          17.400
 120622500.538 7  93991554.98046  22953672.789    22953679.684
        42.100          41.000
 103774816.018 8  80863545.43647  19747679.641    19747686.973
        52.500          46.800
 134970038.52414 105171413.53652  25683929.805    25683935.703
        24.600          17.800
 129285560.070 6 100742022.22943  24602225.672    24602229.617
        36.600          19.300
 120258578.094 7  93708072.30745  22884454.828    22884456.598
        43.800          31.500
 124915573.317 6  97336825.09243  23770638.313    23770642.773
        40.900          22.000
 124353456.227 6  96898817.56445  23663669.711    23663677.578
        39.500          35.100
 21  1  1  1  9  0.0000000  0 11G17G07G21G30G09G08G01G28G22G14G03
 126286346.034 6  98405010.87644  24031506.344    24031511.422
        40.400          25.800
 106995966.415 8  83373476.47247  20360644.320    20360648.559
        49.500          44.000
 112357803.349 8  87551630.42346  21380975.922    21380979.523
        49.100          39.900
 114866291.283 7  89506233.37646  21858330.805    21858337.121
        47.100          37.200
 129289292.751 5 100744841.50642  24602914.828    24602919.043
        30.500          15.600
 120679321.691 7  94035831.21846  22964485.234    22964492.855
        42.900          41.400
 103777357.039 8  80865525.46647  19748163.016    19748170.613
        52.500          46.800
 129223242.027 6 100693462.71943  24590366.938    24590370.410
        37.700          20.100
 120210085.952 7  93670286.22545  22875227.070    22875228.969
        43.900          32.100
 124841419.336 6  97279042.79344  23756527.063    23756531.727
        40.700          24.700
 124282087.372 6  96843205.50745  23650089.172    23650096.461
        39.500          34.900
 21  1  1  1  9 30.0000000  0 10G17G07G21G30G08G01G28G22G14G03
 126251630.491 6  98377959.78744  24024899.344    24024904.977
        38.700          26.400
 106992457.361 8  83370742.13647  20359976.719    20359980.883
        50.000          44.100
 112428440.034 8  87606671.98846  21394417.797    21394421.410
        49.500          40.000
 114807813.865 7  89460666.56146  21847203.078    21847209.688
        47.000          38.300
 120736062.085 6  94080044.50846  22975283.531    22975289.852
        41.700          41.200
 103780530.968 8  80867998.66047  19748767.094    19748774.652
        53.200          46.700
 129160765.200 6 100644779.50943  24578478.109    24578481.691
        37.800          19.900
 120161803.300 7  93632663.39745  22866038.852    22866041.219
        45.600          31.700
 124767171.539 6  97221187.40144  23742399.102    23742402.621
        40.700          24.700
 124210668.235 6  96787554.27645  23636498.453    23636506.004
        39.600          35.500
 21  1  1  1 10  0.0000000  0 10G17G07G21G30G08G01G28G22G14G03
 126217111.193 6  98351061.62344  24018331.172    24018336.160
        38.700          26.000
 106989551.839 8  83368478.08447  20359423.531    20359427.828
        50.000          43.700
 112499427.653 8  87661987.01046  21407926.297    21407929.734
        50.500          40.300
 114749807.987 7  89415467.17946  21836164.820    21836171.629
        46.600          38.700
 120792720.774 7  94124194.12646  22986064.813    22986071.520
        43.100          41.100
 103784337.056 8  80870964.45747  19749491.320    19749498.836
        52.600          46.600
 129098129.914 6 100595972.85443  24566559.156    24566562.496
        38.100          19.900
 120113732.626 7  93595205.74545  22856891.766    22856893.910
        44.200          31.800
 124692830.831 6  97163259.57243  23728252.242    23728256.480
        40.500          23.600
 124139201.741 6  96731866.15045  23622898.648    23622906.301
        38.300          35.000
 21  1  1  1 10 30.0000000  0 10G17G07G21G30G08G01G28G22G14G03
 126182787.356 6  98324315.77844  24011799.547    24011804.621
        40.000          25.400
 106987249.736 8  83366684.22847  20358985.695    20358989.879
        49.400          44.100
 112570764.350 8  87717574.06546  21421501.523    21421504.859
        49.700          40.400
 114692275.477 7  89370636.65946  21825216.750    21825223.496
        47.200          38.600
 120849296.998 7  94168279.50346  22996831.273    22996837.586
        42.800          41.700
 103788774.673 8  80874422.34847  19750335.688    19750343.016
        53.200          46.700
 129035336.536 6 100547042.98143  24554609.641    24554613.324
        37.400          20.100
 120065876.406 7  93557915.19045  22847785.242    22847786.977
        44.600          31.400
 124618398.029 6  97105260.03644  23714088.273    23714092.191
        40.300          24.800
 124067690.349 6  96676143.01646  23609290.313    23609297.840
        41.800          38.900
 21  1  1  1 11  0.0000000  0 10G17G07G21G30G08G01G28G22G14G03
 126148657.454 6  98297721.05344  24005304.609    24005309.852
        39.000          24.200
 106985550.870 8  83365360.42447  20358662.430    20358666.496
        50.200          44.000
 112642447.102 8  87773430.76046  21435142.063    21435145.633
        50.500          40.100
 114635218.178 7  89326176.41946  21814359.125    21814365.559
        46.300          38.200
 120905789.965 7  94212299.98746  23007581.359    23007587.969
        42.800          41.800
 103793843.139 8  80878371.81647  19751300.016    19751307.504
        52.500          46.300
 128972385.321 6 100497990.10343  24542630.625    24542634.406
        37.000          20.900
 120018237.537 7  93520794.01745  22838719.672    22838721.574
        43.700          30.700
 124543874.088 6  97047189.47344  23699905.609    23699910.879
        39.600          25.000
 123996136.709 6  96620386.98246  23595674.477    23595681.559
        41.600          38.700
 21  1  1  1 11 30.0000000  0 10G17G07G21G30G08G01G28G22G14G03
 126114720.799 6  98271276.90444  23998846.664    23998851.902
        39.400          25.400
 106984455.985 8  83364507.27147  20358453.852    20358458.227
        49.300          43.600
 112714473.312 8  87829555.07646  21448848.164    21448851.684
        50.200          40.300
 114578638.269 7  89282088.16446  21803592.336    21803598.828
        46.500          38.100
 120962199.454 6  94256255.43546  23018315.523    23018322.387
        41.800          41.300
 103799542.155 8  80882812.61947  19752384.555    19752392.090
        52.300          46.500
 128909276.871 6 100448814.74943  24530621.250    24530625.082
        36.900          20.100
 119970819.098 7  93483844.59945  22829695.578    22829697.750
        44.400          31.400
 124469260.440 6  96989048.98344  23685707.266    23685712.047
        39.900          26.400
 123924544.033 6  96564600.51546  23582050.984    23582058.152
        40.800          37.500
 21  1  1  1 12  0.0000000  0 10G17G07G21G30G08G01G28G22G14G03
 126080976.114 6  98244982.33444  23992425.516    23992430.574
        40.100          27.000
 106983964.545 8  83364124.32647  20358360.359    20358364.414
        49.500          43.500
 112786840.238 8  87885944.90346  21462619.281    21462622.703
        50.300          40.500
 114522537.336 7  89238373.15046  21792916.672    21792923.441
        46.900          38.900
 121018524.732 7  94300145.26146  23029033.523    23029040.602
        42.000          41.600
 103805870.789 8  80887744.03447  19753588.805    19753596.441
        52.500          46.400
 128846011.202 6 100399516.83143  24518582.578    24518586.203
        37.700          20.400
 119923623.483 7  93447068.81345  22820715.094    22820716.781
        44.600          31.200
 124394557.710 6  96930839.09044  23671492.469    23671496.234
        40.200          25.600
 123852914.700 6  96508785.49646  23568420.156    23568427.715
        41.300          38.800
 21  1  1  1 12 30.0000000  0 10G17G07G21G30G08G01G28G22G14G03
 126047422.184 6  98218836.44244  23986040.250    23986045.828
        39.800          26.000
 106984076.532 8  83364211.58147  20358381.820    20358385.977
        50.200          44.000
 112859545.310 8  87942598.19946  21476454.555    21476458.145
        50.000          39.900
 114466917.389 7  89195032.94246  21782332.492    21782339.008
        46.900          38.900
 121074765.092 7  94343968.91546  23039736.438    23039743.039
        42.100          41.700
 103812828.599 8  80893165.71047  19754912.734    19754920.520
        52.400          46.300
 128782589.597 6 100350097.47343  24506513.203    24506517.969
        37.200          21.700
 119876653.574 7  93410468.88645  22811777.070    22811779.270
        44.800          31.900
 124319767.221 6  96872560.79344  23657260.227    23657264.398
        39.700          24.400
 123781251.407 6  96452944.01246  23554783.047    23554790.289
        41.300          37.800
 21  1  1  1 13  0.0000000  0 10G17G07G21G30G08G01G28G22G14G03
 126014057.896 6  98192838.26944  23979691.930    23979696.637
        40.600          27.000
 106984791.561 8  83364768.73547  20358517.547    20358522.020
        50.300          43.700
 112932585.596 8  87999512.71946  21490353.938    21490357.250
        50.900          40.400
 114411780.157 7  89152068.86546  21771840.477    21771846.992
        47.300          38.800
 121130920.160 7  94387726.11346  23050422.492    23050428.609
        43.300          41.400
 103820414.710 8  80899076.97547  19756356.484    19756364.191
        52.500          46.600
 128719012.137 6 100300556.61143  24494416.188    24494419.402
        38.700          21.500
 119829912.063 7  93374046.92845  22802882.688    22802884.211
        45.300          33.500
 124244889.952 6  96814214.89744  23643011.750    23643015.977
        40.100          24.800
 123709556.914 6  96397078.20945  23541138.836    23541147.195
        40.400          35.600
 21  1  1  1 13 30.0000000  0 10G17G07G21G30G08G01G28G22G14G03
 125980882.080 6  98166986.98744  23973378.836    23973383.188
        40.500          26.600
 106986109.704 8  83365795.85347  20358768.914    20358772.781
        50.600          44.100
 113005958.342 8  88056686.28546  21504316.234    21504319.609
        49.200          39.800
 114357127.434 7  89109482.31346  21761440.109    21761446.605
        47.500          39.200
 121186988.967 7  94431416.09346  23061092.180    23061098.234
        43.400          41.800
 103828628.326 8  80905477.20347  19757919.539    19757926.926
        52.900          46.300
 128655278.951 6 100250894.42143  24482286.914    24482290.781
        39.900          21.100
 119783401.422 7  93337804.89345  22794031.867    22794033.871
        46.100          32.400
 124169926.818 6  96755802.07544  23628747.188    23628750.461
        41.700          25.200
 123637834.125 6  96341190.37946  23527491.445    23527498.945
        39.900          36.200
 21  1  1  1 14  0.0000000  0 10G17G07G21G30G08G01G28G22G14G03
 125947893.759 6  98141281.80744  23967101.070    23967105.426
        39.700          25.200
 106988030.645 8  83367292.67947  20359134.180    20359138.242
        50.900          43.800
 113079661.030 8  88114116.95246  21518340.914    21518344.441
        50.000          40.400
 114302960.839 7  89067274.57446  21751132.719    21751138.949
        47.600          38.600
 121242971.250 7  94475038.63647  23071745.164    23071751.672
        44.100          42.500
 103837468.754 8  80912365.86047  19759601.797    19759609.039
        52.100          46.400
 128591390.858 6 100201111.54143  24470130.367    24470133.258
        39.200          21.300
 119737124.432 7  93301744.89245  22785225.188    22785227.832
        44.300          31.500
 124094879.006 6  96697323.27144  23614465.680    23614469.629
        41.500          24.800
 123566085.694 6  96285282.53446  23513837.891    23513845.602
        40.200          37.000
 21  1  1  1 14 30.0000000  0 10G17G07G21G30G08G01G28G22G14G03
 125915091.723 6  98115721.79844  23960859.133    23960863.766
        40.800          26.500
 106990554.852 8  83369259.58647  20359614.742    20359619.012
        50.500          43.900
 113153691.426 8  88171802.97846  21532428.758    21532432.273
        50.000          40.200
 114249282.585 7  89025447.35746  21740917.914    21740924.500
        46.800          38.600
 121298866.437 7  94518593.29346  23082381.250    23082388.730
        43.000          40.800
 103846935.456 8  80919742.51347  19761403.211    19761410.848
        52.700          46.600
 128527348.353 6 100151208.33143  24457942.852    24457946.648
        39.500          19.900
 119691084.117 7  93265869.34245  22776464.055    22776466.195
        45.000          31.800
 124019747.931 6  96638779.57544  23600168.602    23600172.484
        41.700          25.900
 123494314.492 6  96229356.96645  23500180.922    23500187.859
        39.000          35.400
 21  1  1  1 15  0.0000000  0 10G17G07G21G30G08G01G28G22G14G03
 125882474.497 6  98090305.75844  23954652.063    23954657.133
        39.600          24.700
 106993681.238 8  83371695.73447  20360209.430    20360213.574
        50.700          43.600
 113228045.726 8  88229741.40146  21546577.930    21546581.637
        50.700          40.400
 114196094.001 7  88984001.70846  21730796.719    21730802.891
        47.500          39.100
 121354673.576 6  94562079.37346  23093001.492    23093008.016
        41.800          40.900
 103857027.209 8  80927606.22447  19763323.391    19763331.211
        52.100          46.400
 128463151.822 6 100101185.11043  24445725.602    24445729.711
        38.100          20.400
 119645282.893 7  93230180.08545  22767748.688    22767750.629
        45.800          32.600
 123944534.323 6  96580171.55044  23585855.539    23585859.844
        41.700          26.500
 123422523.217 6  96173415.75246  23486519.938    23486526.426
        41.000          37.500
 21  1  1  1 15 30.0000000  0 10G17G07G21G30G08G01G28G22G14G03
 125850040.990 6  98065032.92344  23948479.930    23948485.051
        41.200          25.800
 106997409.838 8  83374601.12347  20360919.227    20360923.113
        50.300          43.700
 113302721.965 8  88287930.68346  21560788.570    21560791.973
        49.600          40.400
 114143396.854 8  88942938.98746  21720769.188    21720775.031
        48.100          39.200
 121410392.695 6  94605496.87746  23103603.922    23103610.625
        41.900          40.800
 103867743.275 8  80935956.40747  19765362.844    19765370.203
        51.700          46.100
 128398801.771 6 100051042.27643  24433481.125    24433485.063
        37.800          19.600
 119599723.540 7  93194679.31445  22759078.914    22759080.836
        44.600          32.400
 123869239.323 6  96521500.13844  23571527.641    23571531.953
        40.300          27.100
 123350714.501 6  96117460.93646  23472854.469    23472861.512
        40.700          37.200
 21  1  1  1 16  0.0000000  0 10G17G07G21G30G08G01G28G22G14G03
 125817790.367 6  98039902.56844  23942343.102    23942348.234
        41.400          26.200
 107001740.231 8  83377975.44347  20361743.000    20361747.297
        50.600          43.700
 113377716.997 8  88346368.37246  21575059.281    21575062.984
        49.200          40.100
 114091192.860 7  88902260.55446  21710834.477    21710840.855
        47.400          39.200
 121466022.997 7  94648845.15346  23114190.898    23114196.895
        44.000          41.000
 103879082.719 8  80944792.35547  19767520.695    19767528.098
        51.700          46.300
 128334298.835 6 100000780.26143  24421205.758    24421210.355
        36.700          19.000
 119554408.744 7  93159369.10845  22750455.672    22750457.785
        44.700          33.200
 123793864.066 6  96462766.17744  23557184.313    23557188.859
        40.800          26.000
 123278891.164 6  96061494.72545  23459186.781    23459193.711
        39.200          35.200
 21  1  1  1 16 30.0000000  0 10G17G07G21G30G08G01G28G22G14G03
 125785721.411 6  98014913.73844  23936240.703    23936245.195
        41.400          25.600
 107006672.471 8  83381818.74147  20362681.820    20362685.848
        50.000          43.800
 113453028.402 8  88405052.58746  21589390.828    21589394.285
        49.100          40.000
 114039483.958 7  88861967.90146  21700994.516    21701001.047
        47.300          39.200
 121521564.069 7  94692123.91846  23124759.336    23124765.707
        43.600          41.400
 103891044.808 8  80954113.46547  19769796.867    19769804.414
        52.500          46.300
 128269643.583 6  99950399.58943  24408903.016    24408905.992
        36.500          18.300
 119509341.088 7  93124251.46845  22741879.297    22741881.742
        43.900          33.400
 123718409.880 6  96403970.72044  23542825.344    23542830.320
        39.600          26.100
 123207056.386 6  96005519.61746  23445516.477    23445524.254
        38.700          36.100
 21  1  1  1 17  0.0000000  0 10G17G07G21G30G08G01G28G22G14G03
 125753832.666 6  97990065.35643  23930172.320    23930177.063
        40.700          23.800
 107012206.121 8  83386130.66647  20363734.648    20363738.664
        50.700          43.900
 113528653.615 8  88463981.33146  21603782.016    21603785.176
        48.200          40.200
 113988271.646 7  88822062.19846  21691249.422    21691255.559
        47.700          39.000
 121577015.373 7  94735332.71146  23135311.602    23135317.984
        43.400          41.400
 103903628.561 8  80963918.99647  19772191.438    19772198.910
        51.400          46.400
 128204836.556 6  99899900.66343  24396569.781    24396573.352
        37.500          19.300
 119464523.332 7  93089328.55345  22733351.156    22733353.172
        43.400          32.000
 123642877.841 6  96345114.61644  23528452.000    23528457.090
        40.000          26.200
 123135212.679 6  95949537.58245  23431845.680    23431852.590
        37.900          35.900
 21  1  1  1 17 30.0000000  0 10G17G07G21G30G08G01G28G22G14G03
 125722122.713 6  97965356.32144  23924138.266    23924143.219
        41.100          24.200
 107018340.639 8  83390910.79347  20364902.281    20364906.316
        50.500          43.800
 113604589.836 8  88523152.41746  21618231.961    21618235.195
        48.300          39.700
 113937557.712 7  88782544.84146  21681598.773    21681605.039
        47.800          38.900
 121632376.345 6  94778471.12146  23145846.070    23145853.215
        41.300          40.900
 103916833.030 8  80974208.21247  19774704.203    19774711.660
        51.900          46.300
 128139878.219 6  99849283.75342  24384209.711    24384212.633
        36.900          17.400
 119419958.440 7  93054602.67445  22724870.758    22724872.988
        44.100          32.600
 123567269.255 6  96286198.83344  23514064.055    23514068.777
        40.600          26.300
 123063363.129 6  95893550.95846  23418172.453    23418180.180
        37.700          36.100
 21  1  1  1 18  0.0000000  0 10G17G07G21G30G08G01G28G22G14G03
 125690590.682 6  97940785.91844  23918138.273    23918142.652
        41.300          26.500
 107025075.428 8  83396158.67547  20366183.914    20366187.938
        50.100          43.900
 113680833.825 8  88582563.32746  21632740.563    21632743.898
        48.200          39.700
 113887343.392 7  88743416.78646  21672043.320    21672049.551
        47.000          38.700
 121687646.295 7  94821538.59246  23156363.992    23156370.832
        43.300          40.600
 103930656.789 8  80984979.97947  19777335.023    19777342.313
        51.500          46.300
 128074768.986 6  99798549.33243  24371819.789    24371821.281
        38.200          19.000
 119375648.555 7  93020075.48445  22716438.883    22716440.898
        44.100          32.300
 123491584.915 6  96227224.02744  23499661.727    23499666.797
        40.200          26.000
 122991510.020 6  95837561.56446  23404499.961    23404507.051
        38.400          36.800
 21  1  1  1 18 30.0000000  0 10G17G07G21G30G08G01G28G22G14G03
 125659235.106 6  97916353.01444  23912171.430    23912175.637
        40.500          26.500
 107032410.065 8  83401873.97047  20367579.609    20367583.406
        51.100          44.100
 113757383.031 8  88642212.06646  21647307.188    21647310.953
        48.300          39.200
 113837630.334 7  88704679.33446  21662583.273    21662589.723
        47.000          38.500
 121742825.011 7  94864534.97846  23166864.031    23166870.426
        43.200          40.800
 103945098.955 8  80996233.62147  19780083.164    19780090.637
        52.400          46.600
 128009509.556 6  99747697.88043  24359400.563    24359403.273
        37.600          18.300
 119331596.468 7  92985749.19445  22708055.852    22708057.766
        44.700          33.100
 123415826.118 6  96168191.19944  23485245.977    23485250.277
        41.100          26.500
 122919656.418 6  95781571.77646  23390826.125    23390833.785
        38.900          37.100
 21  1  1  1 19  0.0000000  0 10G17G07G21G30G08G01G28G22G14G03
 125628055.045 6  97892056.88344  23906237.852    23906242.734
        40.900          26.500
 107040344.651 8  83408056.75447  20369089.523    20369093.496
        50.500          44.100
 113834235.633 8  88702097.20646  21661932.219    21661935.625
        48.400          39.700
 113788420.636 7  88666334.11946  21653218.688    21653225.555
        47.300          38.800
 121797912.286 7  94907460.12446  23177346.336    23177353.250
        42.900          41.100
 103960158.932 8  81007968.67647  19782948.961    19782956.465
        51.500          46.500
 127944100.857 6  99696730.08043  24346954.281    24346956.113
        38.100          18.600
 119287805.187 7  92951626.13145  22699722.336    22699724.711
        45.000          33.200
 123339994.354 6  96109101.51644  23470815.555    23470819.871
        41.000          28.300
 122847805.539 6  95725584.11246  23377153.797    23377160.934
        39.400          37.200
 21  1  1  1 19 30.0000000  0 10G17G07G21G30G08G01G28G22G14G03
 125597049.046 6  97867896.40144  23900337.188    23900342.715
        40.600          24.700
 107048877.888 8  83414706.01247  20370713.109    20370717.359
        50.300          43.700
 113911387.690 8  88762215.70646  21676613.570    21676617.223
        48.100          39.700
 113739715.294 8  88628381.89946  21643950.508    21643957.066
        48.000          38.900
 121852907.299 7  94950313.37146  23187812.125    23187818.602
        42.100          40.500
 103975834.961 8  81020183.77447  19785932.102    19785939.574
        51.800          46.700
 127878542.934 6  99645645.94642  24334478.055    24334481.531
        37.900          17.400
 119244276.630 7  92917707.79445  22691439.359    22691442.000
        44.900          33.200
 123264090.359 6  96049955.54044  23456371.961    23456375.551
        40.900          26.900
 122775959.635 6  95669600.31446  23363481.695    23363489.035
        40.200          37.300
 21  1  1  1 20  0.0000000  0 10G17G07G21G30G08G01G28G22G14G03
 125566216.148 7  97843870.78744  23894469.891    23894474.910
        42.300          27.500
 107058009.946 8  83421821.89747  20372450.758    20372455.137
        50.300          43.700
 113988837.097 8  88822565.90146  21691351.883    21691355.043
        48.300          39.700
 113691516.253 7  88590824.18746  21634778.609    21634785.176
        47.300          38.800
 121907809.743 7  94993094.48846  23198258.820    23198266.621
        43.300          40.300
 103992126.480 8  81032878.47847  19789032.406    19789039.836
        51.900          46.800
 127812836.984 6  99594446.54242  24321975.172    24321978.289
        38.900          17.800
 119201014.260 7  92883996.85545  22683207.227    22683208.984
        45.300          32.600
 123188115.892 6  95990754.66844  23441914.172    23441918.340
        41.300          28.000
 122704122.032 6  95613622.97546  23349811.625    23349818.484
        40.400          37.900
 21  1  1  1 20 30.0000000  0 10G17G07G21G30G08G01G28G22G14G03
 125535554.694 7  97819978.73644  23888635.852    23888640.250
        42.200          26.200
 107067739.864 8  83429403.63447  20374302.594    20374306.828
        50.400          43.600
 114066580.742 7  88883145.36346  21706145.727    21706149.070
        47.900          39.400
 113643824.922 7  88553662.10146  21625703.039    21625709.883
        47.100          38.900
 121962619.092 7  95035803.06246  23208689.875    23208696.230
        42.200          39.800
 104009032.064 8  81046051.67047  19792249.242    19792256.738
        52.800          46.600
 127746983.138 6  99543131.87643  24309443.078    24309447.301
        38.800          19.000
 119158020.477 7  92850495.20945  22675025.211    22675027.332
        45.000          33.000
 123112071.827 6  95931499.55144  23427443.148    23427447.570
        40.500          27.400
 122632295.306 6  95557654.09546  23336143.055    23336150.516
        41.300          38.400
 21  1  1  1 21  0.0000000  0 10G17G07G21G30G08G01G28G22G14G03
 125505063.895 7  97796219.68344  23882834.102    23882837.930
        42.400          25.800
 107078067.133 8  83437450.84647  20376267.625    20376272.043
        50.500          43.700
 114144615.677 8  88943951.80946  21720995.727    21720998.676
        49.600          39.800
 113596642.577 7  88516896.63146  21616724.750    21616731.441
        47.800          39.200
 122017334.862 7  95078438.70346  23219101.805    23219108.145
        43.400          40.400
 104026550.383 8  81059702.32347  19795582.836    19795590.309
        53.100          46.700
 127680982.001 6  99491702.44543  24296883.594    24296888.656
        39.200          19.000
 119115297.533 7  92817204.62145  22666895.391    22666897.098
        45.700          33.000
 123035959.347 6  95872191.10444  23412959.648    23412963.539
        40.700          26.800
 122560482.288 6  95501695.94246  23322477.609    23322485.359
        41.800          37.800
 21  1  1  1 21 30.0000000  0 10G17G07G21G30G08G01G28G22G14G03
 125474742.177 6  97772592.38044  23877063.844    23877067.762
        41.700          26.800
 107088991.338 8  83445963.20647  20378346.375    20378350.695
        49.100          43.400
 114222939.769 8  89004983.57146  21735899.844    21735903.191
        48.400          39.700
 113549971.128 7  88480529.25446  21607843.547    21607849.910
        47.700          39.100
 122071957.083 7  95121001.43746  23229496.273    23229502.391
        42.500          41.000
 104044680.608 8  81073829.77147  19799032.930    19799040.242
        52.800          46.700
 127614834.797 6  99440159.16543  24284297.109    24284300.031
        39.900          18.600
 119072848.405 7  92784127.38645  22658817.398    22658819.855
        45.200          33.600
 122959780.064 6  95812830.61244  23398463.383    23398467.160
        40.600          26.800
 122488686.168 7  95445750.94046  23308815.188    23308823.105
        42.100          39.200
 21  1  1  1 22  0.0000000  0 10G17G07G21G30G08G01G28G22G14G03
 125444588.073 6  97749095.71344  23871325.102    23871329.445
        41.700          25.200
 107100511.499 8  83454939.94047  20380538.867    20380543.160
        51.200          43.900
 114301549.778 8  89066238.12346  21750858.625    21750862.219
        48.100          39.900
 113503811.676 8  88444560.84846  21599059.859    21599065.594
        48.400          39.000
 122126485.130 7  95163490.82146  23239872.102    23239879.035
        42.400          40.200
 104063421.168 8  81088432.81847  19802599.016    19802606.348
        51.800          46.300
 127548541.583 6  99388502.13043  24271682.297    24271685.105
        39.700          19.000
 119030675.763 7  92751265.61045  22650791.953    22650794.426
        44.300          34.100
 122883534.975 6  95753418.84044  23383953.883    23383958.117
        41.300          27.800
 122416909.440 7  95389821.05146  23295157.281    23295164.156
        42.300          39.500
 21  1  1  1 22 30.0000000  0 10G17G07G21G30G08G01G28G22G14G03
 125414600.603 6  97725728.86444  23865618.133    23865623.273
        40.600          25.100
 107112627.261 8  83464380.78347  20382844.422    20382848.605
        49.900          43.800
 114380443.406 8  89127713.68946  21765871.656    21765875.625
        48.300          39.000
 113458165.952 8  88408992.75146  21590373.961    21590379.887
        48.200          39.400
 122180918.620 7  95205906.53146  23250230.930    23250237.379
        43.000          40.500
 104082771.058 8  81103510.65547  19806281.109    19806288.609
        51.700          46.400
 127482103.274 6  99336731.98443  24259038.930    24259042.375
        40.000          18.300
 118988782.030 7  92718621.16545  22642820.313    22642822.973
        45.100          33.800
 122807225.538 6  95693956.93644  23369433.094    23369437.445
        40.800          27.500
 122345155.318 6  95333908.76746  23281502.664    23281509.844
        41.000          39.200
 21  1  1  1 23  0.0000000  0 10G17G07G21G30G08G01G28G22G14G03
 125384778.475 6  97702490.83544  23859944.398    23859947.684
        41.800          24.800
 107125337.912 8  83474285.18147  20385262.961    20385267.406
        50.500          43.700
 114459617.660 7  89189407.91646  21780938.273    21780941.902
        47.800          39.400
 113413035.313 7  88373826.00646  21581785.313    21581792.215
        47.400          39.300
 122235257.361 6  95248248.39346  23260571.164    23260577.539
        41.900          40.100
 104102728.927 8  81119062.25147  19810079.227    19810086.680
        52.000          46.400
 127415520.479 6  99284849.24943  24246368.602    24246372.004
        39.200          19.300
 118947169.802 7  92686196.06445  22634901.430    22634903.855
        44.200          33.700
 122730853.025 6  95634445.89244  23354898.875    23354904.223
        40.900          27.900
 122273426.643 6  95278016.34346  23267852.805    23267860.434
        41.200          40.400
 21  1  1  1 23 30.0000000  0 10G17G07G21G30G08G01G28G22G14G03
 125355120.359 7  97679380.64544  23854299.805    23854304.488
        42.000          25.700
 107138642.381 8  83484652.29347  20387795.141    20387799.039
        50.800          43.600
 114539068.795 7  89251317.89546  21796056.977    21796060.660
        47.300          38.700
 113368420.956 7  88339061.56946  21573295.328    21573302.438
        47.200          39.200
 122289500.684 7  95290515.93746  23270893.617    23270899.422
        42.300          40.900
 104123293.269 8  81135086.42647  19813992.242    19813999.938
        51.700          46.600
 127348794.358 6  99232854.88843  24233671.047    24233673.996
        37.900          20.600
 118905841.562 7  92653992.25145  22627037.141    22627039.480
        44.200          32.800
 122654418.480 6  95574886.47644  23340354.500    23340359.387
        41.100          26.400
 122201726.041 6  95222145.77146  23254208.586    23254215.625
        41.300          39.200
 21  1  1  1 24  0.0000000  0 10G17G07G21G30G08G01G28G22G14G03
 125325625.003 6  97656397.25244  23848686.828    23848691.664
        40.900          25.600
 107152540.068 8  83495481.65247  20390439.547    20390443.609
        50.700          43.500
 114618795.705 7  89313442.76546  21811228.672    21811232.254
        47.500          38.800
 113324324.468 7  88304700.66846  21564904.289    21564910.906
        47.300          39.600
 122343648.357 6  95332708.92146  23281197.047    23281203.465
        41.600          40.500
 104144462.858 8  81151582.21547  19818020.883    19818028.121
        51.400          46.200
 127281925.231 6  99180749.10943  24220945.781    24220949.336
        38.200          19.900
 118864800.091 7  92622011.91245  22619226.844    22619229.199
        44.300          33.100
 122577923.590 6  95515280.05544  23325798.109    23325803.063
        41.600          27.000
 122130056.728 6  95166299.57746  23240570.906    23240577.484
        41.100          39.500
 21  1  1  1 24 30.0000000  0 10G17G07G21G30G08G01G28G22G14G03
 125296291.434 6  97633539.93044  23843104.844    23843109.012
        41.700          24.800
 107167030.269 8  83506772.70347  20393197.055    20393200.887
        49.100          43.300
 114698795.214 7  89375780.05346  21826452.289    21826455.887
        47.400          38.700
 113280747.397 8  88270744.50046  21556611.969    21556618.359
        48.100          39.200
 122397700.146 6  95374827.16646  23291482.617    23291489.406
        40.400          40.000
 104166236.570 8  81168548.74547  19822164.031    19822171.473
        51.000          46.200
 127214913.664 6  99128532.28343  24208193.906    24208196.938
        38.000          20.400
 118824047.787 7  92590256.88445  22611472.695    22611474.422
        44.800          33.600
 122501369.525 6  95455627.53444  23311230.617    23311235.285
        40.800          28.600
 122058421.640 6  95110480.05646  23226938.539    23226945.855
        40.400          39.700
 21  1  1  1 25  0.0000000  0 10G17G07G21G30G08G01G28G22G14G03
 125267117.824 6  97610807.25844  23837553.227    23837557.738
        40.500          26.600
 107182112.210 8  83518524.86347  20396067.000    20396071.074
        50.400          43.500
 114779064.141 7  89438327.27446  21841726.438    21841730.328
        47.100          37.900
 113237690.728 7  88237193.84546  21548418.773    21548424.973
        47.900          39.400
 122451655.714 6  95416870.43646  23301750.000    23301757.035
        40.600          39.800
 104188612.653 8  81185984.66947  19826422.313    19826429.445
        51.200          46.200
 127147760.519 6  99076205.14843  24195415.797    24195418.352
        39.500          20.900
 118783587.540 7  92558729.42945  22603773.125    22603775.328
        45.200          34.300
 122424757.627 7  95395929.93244  23296652.492    23296656.395
        42.900          28.000
 121986823.492 6  95054689.32746  23213314.063    23213321.359
        40.500          39.900
 21  1  1  1 25 30.0000000  0 10G17G07G21G30G08G01G28G22G14G03
 125238103.063 6  97588198.38344  23832031.961    23832036.813
        40.900          24.800
 107197785.093 8  83530737.48547  20399049.273    20399053.793
        49.400          43.500
 114859600.180 7  89501082.62246  21857052.016    21857055.641
        47.000          38.300
 113195155.921 7  88204049.83546  21540324.391    21540331.188
        47.300          39.000
 122505515.002 6  95458838.72146  23311999.117    23312006.262
        40.700          39.200
 104211589.841 8  81203888.96947  19830794.594    19830801.824
        52.300          46.100
 127080466.812 6  99023768.48443  24182610.422    24182613.246
        39.600          21.300
 118743421.826 7  92527431.48445  22596130.383    22596131.809
        45.100          33.700
 122348089.220 6  95336188.29444  23282063.086    23282067.176
        41.700          27.200
 121915265.227 6  94998929.65146  23199696.547    23199704.348
        40.300          39.200
 21  1  1  1 26  0.0000000  0 10G17G07G21G30G08G01G28G22G14G03
 125209245.617 6  97565712.07844  23826541.148    23826545.348
        41.700          24.600
 107214047.614 8  83543409.57747  20402143.945    20402148.223
        50.000          43.500
 114940399.509 7  89564043.13346  21872427.867    21872430.934
        47.100          37.800
 113153144.182 8  88171313.42046  21532329.906    21532336.406
        48.200          39.300
 122559277.440 6  95500731.52746  23322229.445    23322236.395
        40.900          39.400
 104235166.526 8  81222260.41447  19835281.094    19835288.477
        52.100          46.200
 127013032.835 6  98971222.54743  24169777.875    24169781.039
        38.700          22.000
 118703552.930 7  92496364.84945  22588543.203    22588545.121
        45.400          34.400
 122271365.595 6  95276403.66644  23267462.625    23267466.848
        41.300          27.900
 121843749.760 6  94943203.31846  23186088.188    23186095.340
        41.300          40.100
 21  1  1  1 26 30.0000000  0 10G17G07G21G30G08G01G28G22G14G03
 125180544.444 6  97543347.52044  23821079.094    23821083.918
        41.100          26.600
 107230899.068 8  83556540.54747  20405350.492    20405354.809
        49.800          43.300
 115021460.179 7  89627207.30146  21887853.211    21887856.313
        47.100          38.100
 113111656.828 8  88138985.59146  21524435.656    21524441.590
        48.300          39.800
 122612942.626 6  95542548.54846  23332441.844    23332447.980
        40.600          37.700
 104259341.261 8  81241097.87447  19839881.508    19839888.867
        51.400          46.200
 126945459.086 6  98918567.65443  24156919.297    24156921.910
        38.400          22.300
 118663983.536 7  92465531.58145  22581012.719    22581015.395
        44.500          33.700
 122194588.158 7  95216577.09044  23252852.422    23252856.363
        43.000          28.300
 121772280.036 6  94887512.63846  23172487.383    23172494.770
        41.100          40.500
 21  1  1  1 27  0.0000000  0 10G17G07G21G30G08G01G28G22G14G03
 125151998.273 6  97521103.78744  23815646.992    23815651.848
        40.700          25.200
 107248338.576 8  83570129.78047  20408669.242    20408673.602
        48.900          42.900
 115102779.305 7  89690572.85346  21903327.484    21903330.977
        47.000          37.600
 113070694.857 8  88107067.16546  21516640.664    21516646.793
        48.000          40.500
 122666510.373 6  95584289.64446  23342635.594    23342641.035
        40.500          38.300
 104284112.373 8  81260400.05047  19844595.203    19844602.664
        52.300          46.000
 126877747.086 6  98865805.07143  24144033.563    24144036.754
        38.600          22.300
 118624716.081 7  92434933.58745  22573540.789    22573542.715
        44.700          34.900
 122117758.127 7  95156709.52344  23238232.438    23238236.359
        43.500          29.900
 121700858.828 6  94831859.77246  23158896.469    23158903.949
        41.000          39.900
 21  1  1  1 27 30.0000000  0 10G17G07G21G30G08G01G28G22G14G03
 125123605.489 6  97498979.53844  23810243.641    23810248.809
        41.100          25.800
 107266364.876 8  83584176.23847  20412099.789    20412103.762
        49.100          42.900
 115184353.460 7  89754137.13046  21918850.766    21918853.996
        46.900          37.500
 113030259.465 8  88075559.06346  21508946.016    21508952.250
        48.100          39.800
 122719980.006 6  95625954.28346  23352809.750    23352816.547
        40.100          37.700
 104309478.201 8  81280165.63147  19849422.086    19849429.484
        52.800          46.400
 126809896.903 6  98812934.79243  24131122.023    24131125.086
        37.900          21.700
 118585753.598 7  92404573.22245  22566126.500    22566128.602
        45.200          33.600
 122040876.756 7  95096801.96044  23223601.570    23223606.859
        44.200          29.900
 121629488.950 6  94776246.90146  23145315.727    23145322.715
        41.200          39.800
 21  1  1  1 28  0.0000000  0 10G17G07G21G30G08G01G28G22G14G03
 125095365.575 6  97476974.42244  23804870.047    23804874.680
        41.700          24.300
 107284977.724 8  83598679.74647  20415641.406    20415645.836
        50.200          42.900
 115266181.414 7  89817899.17546  21934422.438    21934425.609
        47.200          38.200
 112990352.501 7  88044462.72646  21501351.656    21501358.023
        47.800          40.600
 122773352.254 6  95667543.06346  23362967.547    23362973.469
        40.200          37.900
 104335437.883 8  81300393.96447  19854362.219    19854369.309
        51.600          46.000
 126741909.879 6  98759957.89043  24118184.609    24118187.844
        38.400          22.500
 118547097.807 7  92374451.85545  22558770.695    22558772.543
        44.900          34.200
 121963946.128 7  95036856.01644  23208962.648    23208966.535
        43.700          28.300
 121558174.050 7  94720676.86246  23131744.398    23131751.629
        42.000          40.400
 21  1  1  1 28 30.0000000  0 10G17G07G21G30G08G01G28G22G14G03
 125067276.483 7  97455086.77644  23799525.008    23799528.859
        42.800          25.800
 107304176.172 8  83613639.56547  20419294.820    20419299.152
        48.800          43.000
 115348260.186 7  89881856.65546  21950041.047    21950044.746
        47.200          37.900
 112950975.183 8  88013779.08646  21493858.438    21493864.938
        48.300          40.200
 122826626.563 6  95709055.52146  23373104.633    23373111.688
        40.600          38.600
 104361989.838 8  81321083.80247  19859414.914    19859422.039
        53.200          46.200
 126673786.957 6  98706875.09243  24105220.938    24105225.336
        38.600          22.500
 118508751.930 7  92344571.97245  22551473.695    22551475.293
        44.800          33.300
 121886967.650 7  94976872.78744  23194314.047    23194318.172
        42.800          28.800
 121486917.091 6  94665152.01346  23118184.484    23118191.922
        40.300          40.000
 21  1  1  1 29  0.0000000  0 10G17G07G21G30G08G01G28G22G14G03
 125039336.775 7  97433315.56344  23794208.055    23794212.953
        42.100          25.700
 107323958.831 8  83629054.61447  20423059.492    20423063.789
        48.700          42.800
 115430586.453 7  89946006.99046  21965707.289    21965710.777
        46.800          37.900
 112912128.445 8  87983508.88446  21486466.211    21486472.457
        48.000          40.800
 122879802.734 6  95750491.50346  23383223.945    23383230.445
        41.400          39.500
 104389132.220 8  81342233.72547  19864579.625    19864587.055
        53.000          46.100
 126605528.687 6  98653686.83943  24092231.594    24092236.332
        37.800          22.000
 118470718.343 7  92314935.44045  22544235.867    22544237.723
        45.400          33.700
 121809942.557 7  94916853.24544  23179656.258    23179660.766
        43.100          28.500
 121415720.829 6  94609674.46046  23104636.438    23104643.848
        39.900          39.700
 21  1  1  1 29 30.0000000  0 10G17G07G21G30G08G01G28G22G14G03
 125011545.392 7  97411659.92244  23788920.188    23788924.074
        42.100          26.700
 107344324.435 8  83644923.90447  20426934.789    20426939.297
        48.900          42.800
 115513157.251 7  90010347.88146  21981420.156    21981423.793
        47.300          38.000
 112873813.368 8  87953652.97546  21479175.211    21479181.398
        49.300          40.500
 122932880.400 6  95791850.70446  23393324.414    23393330.523
        40.700          38.600
 104416863.317 8  81363842.36947  19869857.016    19869864.199
        52.000          46.000
 126537135.701 6  98600393.61643  24079217.070    24079221.402
        37.800          21.700
 118432999.365 7  92285544.04745  22537057.758    22537060.098
        45.800          33.900
 121732872.255 7  94856798.47344  23164990.500    23164994.934
        43.700          29.800
 121344588.153 6  94554246.41446  23091100.344    23091107.504
        40.700          40.300
 21  1  1  1 30  0.0000000  0 10G17G07G21G30G08G01G28G22G14G03
 124983901.026 6  97390118.82244  23783659.641    23783663.902
        41.000          26.000
 107365271.487 8  83661246.27547  20430920.820    20430925.406
        48.600          43.000
 115595969.667 7  90074877.03746  21997178.727    21997182.129
        46.700          37.100
 112836030.888 8  87924212.08146  21471985.469    21471991.527
        49.500          40.300
 122985859.106 6  95833132.82046  23403404.805    23403411.656
        40.900          38.500
 104445181.325 8  81385908.35347  19875245.617    19875252.859
        53.000          46.000
 126468609.129 6  98546996.27943  24066176.688    24066180.773
        37.700          22.200
 118395597.394 7  92256399.67745  22529941.063    22529942.930
        45.800          33.600
 121655757.969 7  94796709.43444  23150315.945    23150320.484
        43.500          28.800
 121273521.693 6  94498869.96446  23077577.125    23077584.121
        40.600          40.200
 21  1  1  1 30 30.0000000  0 10G17G07G21G30G08G01G28G22G14G03
 124956402.078 6  97368691.07344  23778426.297    23778431.008
        40.000          25.100
 107386799.308 8  83678021.19447  20435017.805    20435021.762
        48.900          43.000
 115679021.253 8  90139592.56646  22012983.039    22012986.234
        48.100          36.900
 112798782.193 8  87895187.10946  21464897.273    21464903.375
        48.900          39.700
 123038738.649 6  95874337.66246  23413468.250    23413474.461
        41.000          38.700
 104474084.595 8  81408430.38947  19880745.281    19880753.098
        53.000          45.900
 126399949.495 6  98493495.25343  24053111.922    24053115.676
        38.000          22.500
 118358515.074 7  92227504.38245  22522883.867    22522886.172
        45.900          33.900
 121578601.347 7  94736587.39644  23135633.906    23135638.211
        44.100          29.000
 121202524.771 6  94443547.71946  23064066.586    23064073.691
        41.100          40.200
 21  1  1  1 31  0.0000000  0 10G17G07G21G30G08G01G28G22G14G03
 124929047.542 6  97347375.83744  23773220.492    23773225.699
        39.400          26.200
 107408906.744 8  83695247.75547  20439224.578    20439228.797
        49.800          43.200
 115762309.098 8  90204492.18846  22028832.172    22028835.504
        48.300          37.900
 112762068.190 8  87866578.78646  21457910.805    21457916.895
        48.800          39.800
 123091519.015 6  95915465.21946  23423511.914    23423518.305
        41.100          37.500
 104503571.324 8  81431407.06947  19886356.859    19886364.152
        52.700          46.100
 126331158.001 6  98439891.50143  24040021.727    24040024.645
        38.400          22.500
 118321754.764 7  92198860.00045  22515889.234    22515891.219
        46.700          33.500
 121501403.665 7  94676433.33744  23120943.625    23120947.949
        45.000          29.700
 121131600.246 6  94388281.90146  23050570.172    23050577.141
        41.600          39.900
 21  1  1  1 31 30.0000000  0 10G17G07G21G30G08G01G28G22G14G03
 124901835.815 6  97326171.90144  23768042.438    23768047.508
        39.700          24.900
 107431592.849 8  83712925.23847  20443541.484    20443545.828
        49.000          42.900
 115845830.599 8  90269573.87746  22044725.516    22044729.223
        48.300          37.900
 112725890.288 8  87838388.20046  21451026.406    21451032.668
        48.700          40.300
 123144200.184 6  95956515.47946  23433536.953    23433543.391
        40.500          38.900
 104533640.058 8  81454837.26247  19892078.438    19892085.918
        52.300          45.400
 126262235.138 6  98386185.37843  24026905.063    24026909.492
        38.700          22.500
 118285318.799 7  92170468.35345  22508955.227    22508957.559
        45.800          33.700
 121424166.609 7  94616248.63244  23106245.938    23106250.445
        44.700          28.900
 121060751.220 7  94333074.90146  23037088.508    23037095.316
        42.400          40.500
 21  1  1  1 32  0.0000000  0 10G17G07G21G30G08G01G28G22G14G03
 124874765.238 6  97305077.97044  23762891.250    23762895.648
        40.300          26.000
 107454856.143 8  83731052.47147  20447968.398    20447972.555
        49.600          42.700
 115929583.250 8  90334835.68646  22060663.281    22060666.617
        48.200          37.200
 112690249.346 8  87810616.02546  21444244.141    21444250.738
        48.700          40.500
 123196782.181 6  95997488.45246  23443543.109    23443549.523
        41.100          38.500
 104564288.890 8  81478719.47847  19897910.695    19897918.246
        52.300          45.700
 126193181.969 6  98332377.71543  24013765.273    24013768.602
        38.600          22.900
 118249209.651 7  92142331.37945  22502084.453    22502085.621
        46.300          33.100
 121346891.659 7  94556034.40544  23091541.461    23091545.625
        44.700          28.900
 120989980.728 7  94277929.10446  23023620.508    23023627.891
        42.700          40.300
 21  1  1  1 32 30.0000000  0 10G17G07G21G30G08G01G28G22G14G03
 124847835.108 6  97284093.44744  23757765.773    23757771.125
        39.500          27.200
 107478695.542 8  83749628.61547  20452504.695    20452509.598
        48.900          43.100
 116013563.656 7  90400274.96946  22076644.117    22076647.602
        46.900          37.600
 112655146.450 8  87783263.09546  21437564.383    21437570.629
        48.100          40.400
 123249264.152 6  96038383.48346  23453529.406    23453536.609
        40.200          38.700
 104595516.148 8  81503052.41547  19903852.984    19903860.563
        51.500          45.500
 126123999.456 6  98278469.27843  24000600.672    24000603.480
        39.100          23.600
 118213430.063 7  92114451.21945  22495275.930    22495277.406
        46.800          34.400
 121269580.468 7  94495791.92244  23076829.133    23076833.039
        44.700          28.300
 120919291.757 7  94222846.80846  23010168.883    23010176.109
        42.400          40.900
 21  1  1  1 33  0.0000000  0 10G17G07G21G30G08G01G28G22G14G03
 124821044.877 6  97263217.96444  23752667.828    23752673.508
        40.900          26.500
 107503111.117 8  83768653.71547  20457150.633    20457155.484
        49.900          43.400
 116097771.183 7  90465891.22146  22092668.602    22092671.719
        47.300          37.500
 112620583.809 8  87756331.15446  21430987.250    21430993.586
        49.600          40.200
 123301647.844 6  96079201.94646  23463498.094    23463504.371
        40.000          37.500
 104627321.186 8  81527835.56147  19909905.453    19909912.750
        52.100          45.400
 126054689.973 6  98224461.88043  23987412.102    23987414.383
        39.200          22.000
 118177983.368 7  92086830.44645  22488530.258    22488532.250
        46.500          34.800
 121192235.678 7  94435523.26244  23062111.078    23062114.957
        45.000          29.000
 120848688.523 7  94167831.35446  22996733.336    22996741.078
        42.900          41.100
 21  1  1  1 33 30.0000000  0 10G17G07G21G30G08G01G28G22G14G03
 124794390.934 6  97242448.66644  23747596.977    23747601.535
        41.400          27.200
 107528099.017 8  83788124.79947  20461906.250    20461910.445
        49.600          43.100
 116182200.226 7  90531680.08646  22108734.602    22108738.273
        47.100          37.300
 112586559.828 7  87729818.94646  21424512.383    21424519.055
        47.800          40.500
 123353930.195 6  96119941.43246  23473447.969    23473453.988
        41.100          38.300
 104659699.651 8  81553065.54747  19916066.844    19916074.348
        51.900          45.400
 125985251.430 6  98170353.90843  23974197.781    23974201.152
        39.500          22.300
 118142869.308 7  92059468.85645  22481848.375    22481850.043
        45.500          34.600
 121114856.332 7  94375227.66444  23047386.055    23047390.082
        45.300          29.800
 120778171.497 7  94112883.06046  22983314.289    22983322.059
        42.000          40.700
 21  1  1  1 34  0.0000000  0 10G17G07G21G30G08G01G28G22G14G03
 124767871.359 7  97221784.04844  23742550.125    23742554.938
        42.200          28.100
 107553657.309 8  83808040.33047  20466769.695    20466773.914
        49.900          42.900
 116266847.421 7  90597638.93746  22124842.766    22124846.004
        47.400          37.500
 112553075.065 8  87703726.90546  21418140.672    21418147.246
        49.100          39.900
 123406111.070 6  96160601.85446  23483376.703    23483383.785
        40.500          38.200
 104692649.385 8  81578740.66447  19922337.094    19922344.500
        51.700          46.000
 125915684.789 6  98116146.12243  23960959.719    23960963.051
        40.500          21.100
 118108090.713 7  92032368.67345  22475230.234    22475231.910
        46.600          35.900
 121037443.604 7  94314906.06744  23032655.203    23032659.227
        44.300          29.300
 120707743.378 7  94058004.02846  22969912.516    22969919.730
        43.500          40.300
 21  1  1  1 34 30.0000000  0 11G19G17G07G21G30G08G01G28G22G14G03
 133378121.97615                  25381003.969
        30.500
 124741489.103 6  97201226.44644  23737529.563    23737534.211
        41.800          27.700
 107579788.902 8  83828402.60047  20471742.820    20471746.922
        49.100          43.100
 116351714.375 7  90663769.04146  22140992.391    22140995.676
        47.200          37.600
 112520134.547 8  87678058.94846  21411872.344    21411878.719
        48.500          40.900
 123458194.028 6  96201185.98446  23493288.398    23493295.082
        40.800          39.000
 104726172.512 8  81604862.58347  19928716.234    19928723.789
        51.800          45.800
 125845994.914 6  98061842.35343  23947697.734    23947701.215
        41.700          21.500
 118073653.619 7  92005534.59445  22468676.898    22468678.555
        45.400          35.600
 120960003.023 7  94254562.76444  23017918.359    23017922.816
        43.600          29.900
 120637411.207 7  94003199.78846  22956528.531    22956536.012
        42.800          40.200
 21  1  1  1 35  0.0000000  0 11G19G17G07G21G30G08G01G28G22G14G03
 133324845.30614                  25370867.133
        27.600
 124715239.048 7  97180771.87944  23732534.797    23732539.012
        42.500          27.600
 107606489.090 8  83849207.93247  20476823.063    20476827.824
        49.300          43.000
 116436794.988 7  90730065.63346  22157182.156    22157185.926
        46.400          37.200
 112487735.979 8  87652813.30046  21405707.008    21405713.586
        48.700          41.100
 123510176.516 6  96241691.80346  23503179.672    23503186.883
        41.100          38.500
 104760264.007 8  81631427.38147  19935203.703    19935210.961
        52.000          45.700
 125776179.846 7  98007440.99043  23934412.945    23934416.113
        42.200          23.000
 118039557.087 7  91978965.89945  22462188.422    22462190.484
        45.700          34.500
 120882533.151 7  94194196.65044  23003175.797    23003180.801
        43.600          29.000
 120567174.844 7  93948470.19646  22943163.156    22943170.441
        42.200          39.500
 21  1  1  1 35 30.0000000  0 11G19G17G07G21G30G08G01G28G22G14G03
 133271704.59215                  25360755.625
        30.800
 124689120.978 6  97160420.15244  23727564.180    23727569.305
        40.600          27.100
 107633757.323 8  83870455.89947  20482012.047    20482016.637
        48.800          43.200
 116522086.900 7  90796526.86346  22173412.813    22173416.723
        46.200          36.400
 112455881.006 8  87627991.22546  21399645.039    21399651.844
        48.200          41.200
 123562058.600 6  96282119.40346  23513052.266    23513059.090
        41.100          37.500
 104794922.716 8  81658434.17547  19941799.320    19941806.469
        51.800          46.100
 125706240.685 6  97952942.93543  23921103.508    23921107.438
        41.400          22.600
 118005804.328 7  91952665.07245  22455765.219    22455767.535
        45.500          35.200
 120805036.274 7  94133809.49545  22988428.789    22988433.344
        43.800          30.400
 120497038.197 7  93893818.29446  22929817.211    22929824.043
        44.000          41.000
 21  1  1  1 36  0.0000000  0 11G19G17G07G21G30G08G01G28G22G14G03
 133218697.68515                  25350667.688
        30.700
 124663133.416 6  97140170.10944  23722618.469    23722624.133
        40.300          27.100
 107661592.348 8  83892145.52547  20487308.953    20487313.492
        49.700          43.100
 116607587.994 7  90863151.10546  22189683.789    22189686.938
        46.700          36.200
 112424570.450 8  87603593.37946  21393687.297    21393693.402
        48.600          40.600
 123613840.149 6  96322468.65646  23522906.281    23522912.465
        41.800          38.100
 104830146.674 8  81685881.41547  19948502.008    19948509.313
        52.600          45.800
 125636178.805 6  97898349.24743  23907771.094    23907775.035
        40.200          22.900
 117972397.784 7  91926634.00745  22449408.328    22449410.195
        45.700          34.800
 120727514.014 7  94073402.54245  22973676.813    22973681.121
        43.900          30.200
 120427004.166 7  93839246.35546  22916489.742    22916496.500
        43.600          40.600
 21  1  1  1 36 30.0000000  0 11G19G17G07G21G30G08G01G28G22G14G03
 133165824.59815                  25340605.906
        30.700
 124637275.071 6  97120020.74344  23717698.383    23717703.082
        40.000          28.100
 107689992.335 8  83914275.37247  20492713.000    20492717.805
        48.900          42.400
 116693295.211 7  90929935.94846  22205993.539    22205996.535
        47.500          36.800
 112393804.974 8  87579620.28346  21387832.398    21387838.977
        49.500          41.000
 123665521.553 6  96362739.85346  23532740.930    23532746.906
        40.800          37.200
 104865933.811 8  81713767.49448  19955312.039    19955319.578
        51.200          52.000
 125565995.145 7  97843660.67543  23894416.086    23894419.598
        42.000          23.000
 117939339.448 7  91900874.28645  22443117.711    22443119.371
        46.000          33.700
 120649967.751 7  94012976.87645  22958920.320    22958924.402
        43.900          30.500
 120357075.690 7  93784756.67346  22903182.766    22903189.625
        43.100          40.100
 21  1  1  1 37  0.0000000  0 11G19G17G07G21G30G08G01G28G22G14G03
 133113083.98515                  25330570.141
        31.300
 124611544.621 6  97099971.07244  23712802.297    23712806.770
        41.300          28.900
 107718956.540 8  83936844.88447  20498225.117    20498229.559
        49.100          42.400
 116779206.477 7  90996879.78946  22222341.445    22222344.594
        46.600          36.300
 112363585.684 8  87556072.77546  21382082.281    21382088.633
        49.600          40.800
 123717102.834 6  96402933.06846  23542556.563    23542563.078
        40.200          37.100
 104902282.345 8  81742091.03548  19962228.867    19962236.301
        52.100          51.800
 125495690.837 6  97788878.11043  23881037.680    23881041.723
        41.000          22.600
 117906632.117 7  91875388.07345  22436893.844    22436895.672
        45.700          35.000
 120572399.438 7  93952534.05844  22944159.875    22944163.500
        43.700          29.800
 120287256.087 7  93730351.79646  22889896.539    22889903.320
        44.100          40.700
 21  1  1  1 37 30.0000000  0 11G19G17G07G21G30G08G01G28G22G14G03
 133060476.62415                  25320559.086
        33.100
 124585940.434 6  97080019.78044  23707929.602    23707934.770
        41.700          28.900
 107748482.951 8  83959852.46647  20503844.047    20503847.902
        49.200          42.400
 116865318.507 7  91063980.06246  22238727.672    22238731.031
        46.300          36.300
 112333913.074 8  87532951.24946  21376435.633    21376442.051
        49.500          40.600
 123768583.565 6  96443047.91746  23552353.547    23552359.605
        40.800          37.700
 104939190.055 8  81770850.29749  19969252.055    19969259.387
        51.700          55.400
 125425266.403 6  97734001.92643  23867635.836    23867639.891
        41.800          22.600
 117874277.891 7  91850177.02145  22430736.586    22430739.129
        45.500          34.800
 120494810.473 7  93892075.14244  22929394.250    22929398.836
        43.100          28.900
 120217548.143 7  93676033.96746  22876630.977    22876638.406
        43.100          40.500
 21  1  1  1 38  0.0000000  0 11G19G17G07G21G30G08G01G28G22G14G03
 133008001.24715                  25310575.031
        33.200
 124560461.121 6  97060165.77744  23703081.047    23703085.770
        41.600          27.900
 107778569.853 8  83983296.79947  20509569.172    20509573.406
        50.100          42.600
 116951628.692 7  91131234.75545  22255152.117    22255155.297
        47.100          35.200
 112304788.029 8  87510256.39946  21370893.359    21370900.043
        49.500          40.200
 123819963.815 6  96483084.47546  23562131.000    23562137.090
        40.000          38.100
 104976655.055 8  81800043.80049  19976381.508    19976388.695
        51.600          55.700
 125354723.439 6  97679033.38743  23854212.602    23854216.098
        41.200          22.000
 117842279.058 7  91825242.87445  22424647.703    22424649.805
        46.000          35.000
 120417202.591 7  93831601.49544  22914626.539    22914630.582
        43.400          29.300
 120147955.010 7  93621805.57146  22863387.633    22863395.348
        43.600          40.400
 21  1  1  1 38 30.0000000  0 11G19G17G07G21G30G08G01G28G22G14G03
 132955653.46515 103601788.16252  25300612.398    25300615.332
        31.300          14.800
 124535102.610 6  97040405.91344  23698255.883    23698260.172
        41.300          28.300
 107809212.927 8  84007174.50747  20515400.344    20515404.703
        49.800          42.500
 117038131.249 7  91198639.35145  22271612.867    22271616.172
        47.200          34.400
 112276208.443 8  87487986.58246  21365454.930    21365461.508
        49.100          40.500
 123871240.919 6  96523040.64146  23571887.813    23571894.598
        39.700          37.200
 105014672.441 8  81829667.74249  19983615.875    19983623.125
        50.800          54.900
 125284059.943 6  97623970.95743  23840764.930    23840768.645
        41.300          22.300
 117810635.159 7  91800585.31445  22418626.242    22418627.883
        45.800          35.400
 120339574.617 7  93771112.16745  22899854.289    22899858.664
        43.400          30.300
 120078476.998 7  93567666.88546  22850167.203    22850174.215
        43.300          41.500
 21  1  1  1 39  0.0000000  0 11G19G17G07G21G30G08G01G28G22G14G03
 132903441.59115                  25290675.758
        31.000
 124509870.659 6  97020744.65744  23693454.305    23693458.848
        40.800          27.100
 107840418.510 8  84031490.54447  20521338.953    20521342.980
        49.800          42.600
 117124830.915 7  91266197.54245  22288111.711    22288114.520
        47.200          35.000
 112248182.323 8  87466148.03646  21360121.930    21360128.227
        48.000          40.900
 123922421.780 7  96562921.83046  23581627.297    23581633.883
        42.200          37.900
 105053247.443 8  81859726.19749  19990956.219    19990963.770
        50.700          55.600
 125213284.288 6  97568821.09643  23827297.031    23827301.203
        41.000          22.000
 117779355.834 7  91776211.83045  22412674.117    22412675.500
        46.400          35.400
 120261935.564 7  93710614.20645  22885080.188    22885084.426
        42.600          30.400
 120009124.364 7  93513625.90246  22836969.398    22836976.805
        43.900          41.100
 21  1  1  1 39 30.0000000  0 11G19G17G07G21G30G08G01G28G22G14G03
 132851357.51915 103520521.82152  25280765.992    25280768.566
        31.500          16.300
 124484758.440 6  97001176.70444  23688675.148    23688680.293
        40.600          26.300
 107872179.097 8  84056239.03247  20527382.344    20527386.551
        49.800          42.400
 117211719.630 7  91333903.04245  22304645.938    22304649.395
        47.300          35.500
 112220704.768 8  87444736.94546  21354892.664    21354899.344
        48.200          40.400
 123973501.157 6  96602723.93946  23591347.883    23591354.387
        41.300          37.700
 105092372.394 8  81890213.17149  19998401.609    19998408.977
        51.600          55.100
 125142392.093 6  97513580.42743  23813806.625    23813810.277
        41.500          21.800
 117748437.709 7  91752119.80445  22406790.148    22406791.859
        46.000          35.400
 120184281.545 6  93650104.57645  22870303.008    22870307.395
        41.900          30.400
 119939894.735 7  93459680.78046  22823795.563    22823803.070
        43.700          41.600
 21  1  1  1 40  0.0000000  0 11G19G17G07G21G30G08G01G28G22G14G03
 132799401.78315 103480036.77652  25270878.414    25270881.500
        31.000          14.800
 124459765.177 6  96981701.44344  23683919.695    23683923.754
        41.700          27.900
 107904493.190 8  84081418.83947  20533530.820    20533535.969
        49.000          42.500
 117298794.765 7  91401753.79445  22321216.063    22321219.262
        46.900          35.600
 112193776.853 7  87423754.15346  21349768.227    21349774.977
        47.900          40.500
 124024479.792 6  96642447.54746  23601048.055    23601055.281
        41.300          37.200
 105132045.668 8  81921127.41749  20005951.305    20005958.578
        52.200          55.700
 125071384.573 6  97458249.90043  23800294.203    23800298.043
        40.500          22.200
 117717883.738 7  91728311.52945  22400976.141    22400978.137
        45.900          35.500
 120106614.642 7  93589584.92245  22855523.859    22855527.770
        42.900          30.800
 119870791.528 7  93405834.13946  22810645.992    22810652.676
        45.000          41.900
 21  1  1  1 40 30.0000000  0 11G19G17G07G21G30G08G01G28G22G14G03
 132747574.173 5 103439651.65642  25261015.016    25261018.516
        33.200          15.600
 124434889.357 6  96962317.70244  23679185.359    23679189.855
        41.100          28.700
 107937359.783 8  84107029.18447  20539785.820    20539790.492
        48.900          42.600
 117386054.301 7  91469748.24745  22337820.430    22337824.164
        47.000          35.900
 112167399.644 8  87403200.47246  21344749.414    21344755.617
        48.300          40.900
 124075357.556 6  96682092.54246  23610729.961    23610737.020
        41.300          37.400
 105172265.465 8  81952467.51749  20013604.766    20013611.910
        51.200          55.300
 125000263.472 6  97402830.86943  23786759.414    23786764.039
        40.600          22.500
 117687696.429 7  91704788.98445  22395231.375    22395233.246
        45.800          35.500
 120028937.009 7  93529056.89845  22840742.391    22840746.438
        42.800          31.200
 119801818.207 7  93352088.72746  22797520.883    22797527.453
        44.300          41.200
 21  1  1  1 41  0.0000000  0 11G19G17G07G21G30G08G01G28G22G14G03
 132695874.435 5 103399366.18742  25251176.789    25251179.934
        31.900          16.900
 124410130.068 6  96943024.76744  23674473.961    23674478.449
        41.900          28.000
 107970777.594 8  84133069.03947  20546145.289    20546149.289
        50.100          42.200
 117473496.014 7  91537884.65245  22354460.219    22354463.426
        47.600          35.100
 112141574.035 8  87383076.61346  21339834.906    21339841.211
        49.500          40.900
 124126134.783 6  96721659.22146  23620392.977    23620399.672
        40.700          36.600
 105213029.997 8  81984232.08749  20021361.820    20021369.473
        51.400          55.200
 124929030.122 6  97347324.37243  23773205.063    23773208.711
        41.300          22.500
 117657877.882 7  91681553.78745  22389557.531    22389559.145
        46.700          35.600
 119951250.649 7  93468522.08845  22825959.242    22825963.203
        42.900          30.700
 119732978.213 7  93298447.19846  22784420.945    22784427.785
        44.100          41.600
 21  1  1  1 41 30.0000000  0 11G19G17G07G21G30G08G01G28G22G14G03
 132644302.234 5 103359180.04542  25241364.117    25241366.691
        33.800          16.300
 124385486.083 6  96923821.67944  23669783.844    23669789.465
        40.400          27.300
 108004744.892 8  84159537.05347  20552608.969    20552612.957
        49.200          42.000
 117561116.815 7  91606160.61245  22371133.875    22371136.953
        47.100          34.600
 112116300.423 8  87363382.88146  21335025.344    21335031.953
        48.600          40.600
 124176811.507 6  96761147.55946  23630036.344    23630043.148
        40.800          36.200
 105254336.866 8  82016419.26049  20029222.297    20029229.934
        51.700          55.400
 124857685.293 7  97291731.02044  23759628.969    23759631.992
        42.400          24.400
 117628430.682 7  91658607.93145  22383953.688    22383955.563
        45.900          35.700
 119873557.044 7  93407981.60345  22811173.563    22811178.555
        43.800          30.100
 119664274.374 7  93244911.76046  22771346.688    22771353.609
        43.100          41.300
 21  1  1  1 42  0.0000000  0 11G19G17G07G21G30G08G01G28G22G14G03
 132592855.528 5 103319091.78442  25231573.586    25231576.746
        33.500          16.900
 124360955.763 6  96904707.15644  23665116.133    23665121.336
        41.000          29.300
 108039259.779 8  84186431.76547  20559176.938    20559181.238
        49.100          42.200
 117648913.818 7  91674573.86645  22387841.117    22387844.125
        46.900          34.800
 112091579.272 8  87344119.63346  21330321.109    21330327.531
        48.100          41.400
 124227387.980 6  96800557.80046  23639660.906    23639667.547
        41.200          36.300
 105296183.871 8  82049027.31849  20037185.711    20037193.086
        52.200          55.000
 124786230.035 6  97236051.60544  23746031.211    23746034.719
        41.300          24.700
 117599356.924 7  91635953.08545  22378420.711    22378423.281
        45.500          35.200
 119795857.906 7  93347436.85245  22796388.484    22796393.523
        44.900          31.500
 119595709.775 7  93191484.83546  22758299.352    22758306.215
        43.400          41.700
 21  1  1  1 42 30.0000000  0 11G19G17G07G21G30G08G01G28G22G14G03
 132541534.360 5 103279101.35442  25221807.109    25221810.066
        32.900          15.600
 124336537.650 6  96885680.07044  23660469.523    23660474.117
        41.500          27.200
 108074320.311 8  84213751.66147  20565848.664    20565852.914
        49.800          42.500
 117736884.911 7  91743122.78145  22404581.203    22404584.809
        47.000          35.000
 112067411.258 8  87325287.40746  21325722.000    21325728.855
        49.600          40.600
 124277864.294 6  96839889.97845  23649266.102    23649272.703
        40.300          35.400
 105338568.864 8  82082054.59149  20045251.359    20045258.656
        52.800          55.200
 124714665.902 6  97180287.37943  23732413.359    23732416.492
        41.400          22.800
 117570659.008 7  91613591.09745  22372959.945    22372961.699
        46.300          35.200
 119718155.154 7  93286889.26045  22781602.039    22781607.582
        44.100          30.500
 119527287.545 7  93138168.84846  22745278.625    22745285.922
        43.000          41.300
 21  1  1  1 43  0.0000000  0 11G19G17G07G21G30G08G01G28G22G14G03
 132490338.099 5 103239208.10642  25212064.422    25212067.898
        33.800          17.800
 124312230.434 6  96866739.37944  23655844.336    23655848.547
        41.600          26.800
 108109925.266 8  84241495.78847  20572624.016    20572628.492
        50.300          42.200
 117825026.945 7  91811804.88945  22421354.070    22421357.820
        46.500          35.200
 112043796.978 8  87306886.65946  21321228.477    21321235.348
        49.600          41.200
 124328240.469 6  96879144.15345  23658852.438    23658858.988
        40.600          35.500
 105381489.739 8  82115499.43549  20053418.766    20053426.250
        51.900          55.400
 124642993.716 6  97124438.90544  23718774.828    23718777.348
        41.600          24.000
 117542339.053 7  91591523.62445  22367571.063    22367572.637
        47.500          35.800
 119640450.614 7  93226340.28545  22766815.641    22766820.969
        43.900          31.700
 119459010.913 7  93084966.30546  22732285.664    22732293.379
        42.600          40.900
 21  1  1  1 43 30.0000000  0 11G19G17G07G21G30G08G01G28G22G14G03
 132439265.941 5 103199411.68142  25202345.492    25202349.613
        33.500          16.900
 124288032.637 6  96847883.97744  23651239.398    23651243.738
        41.600          26.900
 108146072.632 8  84269662.53447  20579502.750    20579507.070
        50.300          42.100
 117913337.604 7  91880618.39045  22438159.031    22438162.168
        46.800          34.700
 112020736.987 8  87288917.82946  21316840.141    21316847.129
        49.300          41.100
 124378516.832 6  96918320.54345  23668419.023    23668426.426
        40.000          34.800
 105424944.323 8  82149360.14849  20061688.180    20061695.391
        52.500          55.100
 124571214.797 7  97068507.32143  23705115.281    23705118.234
        42.300          23.000
 117514399.016 7  91569752.18946  22362254.648    22362256.148
        46.700          36.100
 119562746.024 7  93165791.25245  22752028.805    22752033.984
        44.700          31.900
 119390882.954 7  93031879.62546  22719321.398    22719328.945
        43.400          41.700
 21  1  1  1 44  0.0000000  0 11G19G17G07G21G30G08G01G28G22G14G03
 132388316.95815 103159711.30752  25192650.563    25192653.832
        33.400          16.900
 124263942.744 6  96829112.65844  23646655.383    23646660.059
        40.500          28.000
 108182760.095 8  84298250.17346  20586483.844    20586488.313
        49.600          41.800
 118001813.380 7  91949560.55645  22454995.875    22454998.574
        47.000          34.400
 111998231.004 8  87271380.68546  21312557.828    21312563.984
        49.900          41.600
 124428693.064 6  96957418.90645  23677968.086    23677974.492
        40.900          35.300
 105468929.570 8  82183634.37049  20070058.344    20070065.332
        52.700          55.400
 124499329.960 6  97012493.14944  23691435.961    23691438.695
        40.800          24.700
 117486840.796 7  91548278.25645  22357010.086    22357011.680
        46.300          35.400
 119485042.526 7  93105243.08045  22737242.141    22737247.371
        42.900          31.600
 119322906.106 7  92978910.67846  22706386.047    22706393.688
        43.200          41.400
 21  1  1  1 44 30.0000000  0 11G19G17G07G21G30G08G01G28G22G14G03
 132337490.885 5 103120106.64042  25182979.117    25182981.504
        33.100          17.800
 124239959.655 6  96810424.54244  23642091.719    23642096.395
        41.800          28.900
 108219986.507 8  84327257.75947  20593568.266    20593572.270
        50.100          42.000
 118090452.515 7  92018630.01745  22471862.883    22471866.121
        46.900          34.600
 111976279.861 8  87254275.88746  21308380.352    21308386.918
        49.600          41.000
 124478769.205 6  96996439.27245  23687496.656    23687503.109
        40.900          34.900
 105513443.687 8  82218320.69449  20078528.969    20078536.254
        53.000          55.000
 124427340.718 6  96956397.66443  23677736.305    23677739.727
        40.200          23.900
 117459666.989 7  91527103.89445  22351839.242    22351840.680
        47.200          35.500
 119407342.445 7  93044697.56945  22722456.594    22722461.539
        43.300          31.800
 119255083.886 7  92926062.22646  22693479.969    22693487.469
        44.000          41.800
 21  1  1  1 45  0.0000000  0 11G19G17G07G21G30G08G01G28G22G14G03
 132286786.72615 103080596.96253  25173330.531    25173333.305
        34.500          18.300
 124216081.391 6  96791818.11044  23637547.227    23637552.832
        40.500          28.100
 108257749.590 8  84356683.54247  20600754.234    20600758.398
        49.800          42.100
 118179252.196 7  92087824.57545  22488761.391    22488764.277
        47.300          35.300
 111954884.205 8  87237603.94346  21304308.977    21304315.746
        49.200          41.000
 124528745.577 6  97035381.89845  23697007.164    23697013.098
        41.700          35.100
 105558484.580 8  82253417.50249  20087099.797    20087107.484
        51.700          55.000
 124355248.310 6  96900221.76843  23664017.469    23664021.387
        39.800          22.500
 117432879.835 7  91506230.80145  22346741.445    22346743.352
        47.300          35.700
 119329647.684 7  92984156.20845  22707671.398    22707676.797
        43.000          32.300
 119187419.587 7  92873336.82147  22680604.203    22680610.980
        43.600          42.300
 21  1  1  1 45 30.0000000  0 11G19G17G07G21G30G08G01G28G22G14G03
 132236203.50815 103041181.54853  25163704.703    25163707.855
        34.600          19.000
 124192306.993 6  96773292.65744  23633023.383    23633028.266
        40.800          28.200
 108296047.573 8  84386526.12747  20608042.086    20608046.336
        50.300          42.200
 118268209.266 7  92157141.75745  22505688.844    22505692.539
        47.400          35.000
 111934044.259 8  87221365.02246  21300343.445    21300350.012
        49.700          41.100
 124578622.322 6  97074246.89245  23706498.531    23706504.367
        40.400          35.200
 105604049.725 8  82288922.81949  20095770.555    20095778.055
        51.800          55.600
 124283053.667 6  96843966.20843  23650279.047    23650283.352
        39.900          23.000
 117406480.907 7  91485660.22845  22341717.641    22341719.660
        47.000          35.500
 119251959.902 7  92923620.29545  22692888.055    22692893.359
        42.600          32.700
 119119916.168 7  92820736.76747  22667758.602    22667765.398
        43.900          42.200
 21  1  1  1 46  0.0000000  0 11G19G17G07G21G30G08G01G28G22G14G03
 132185740.39815 103001859.71553  25154101.555    25154104.711
        34.800          18.600
 124168634.594 6  96754846.64144  23628518.102    23628523.242
        40.900          28.100
 108334877.907 8  84416783.52847  20615431.180    20615435.574
        50.200          42.200
 118357321.282 7  92226579.70645  22522646.477    22522649.820
        46.200          34.800
 111913760.147 8  87205559.21646  21296483.211    21296489.852
        48.800          41.500
 124628399.645 6  97113034.41245  23715970.359    23715977.070
        40.000          35.900
 105650136.531 8  82324834.62549  20104540.563    20104547.918
        51.700          55.100
 124210757.691 6  96787631.70543  23636521.773    23636525.559
        39.200          22.600
 117380472.543 7  91465393.98446  22336768.664    22336770.262
        47.700          36.100
 119174280.702 7  92863091.05745  22678106.375    22678111.523
        42.500          32.000
 119052576.426 7  92768264.27347  22654944.789    22654951.480
        45.300          43.000
 21  1  1  1 46 30.0000000  0 11G19G17G07G21G30G08G01G28G22G14G03
 132135397.05915 102962631.22053  25144520.594    25144524.188
        33.600          18.600
 124145063.494 6  96736479.59444  23624033.484    23624038.504
        41.000          27.700
 108374240.050 8  84447455.31346  20622921.523    20622925.578
        49.400          41.800
 118446586.380 7  92296136.92745  22539632.828    22539636.359
        47.200          34.300
 111894032.775 8  87190187.23246  21292729.438    21292736.027
        48.600          41.400
 124678077.883 6  97151744.73145  23725424.359    23725430.477
        40.600          35.700
 105696743.319 8  82361151.60349  20113409.703    20113416.922
        52.200          55.000
 124138362.384 6  96731219.77643  23622745.930    23622748.609
        40.900          23.400
 117354857.332 7  91445434.09845  22331894.305    22331895.938
        47.800          35.400
 119096612.535 7  92802570.41245  22663327.008    22663331.625
        42.700          31.600
 118985404.120 7  92715922.24647  22642161.852    22642168.988
        44.600          42.300
 21  1  1  1 47  0.0000000  0 11G19G17G07G21G30G08G01G28G22G14G03
 132085172.084 5 102923494.96943  25134963.805    25134967.297
        34.600          20.600
 124121591.449 6  96718189.71144  23619567.547    23619571.930
        41.800          29.300
 108414130.922 8  84478539.11346  20630512.609    20630516.566
        48.900          41.300
 118536000.714 7  92365810.43745  22556647.859    22556651.297
        47.200          35.200
 111874861.731 8  87175248.73746  21289080.875    21289087.941
        49.100          40.900
 124727656.497 6  97190377.41745  23734859.063    23734864.773
        41.000          35.900
 105743866.940 8  82397871.31249  20122376.953    20122384.262
        52.400          55.000
 124065868.271 6  96674730.88743  23608950.219    23608953.918
        40.000          22.500
 117329636.480 7  91425781.49545  22327094.750    22327096.551
        47.200          34.400
 119018956.517 7  92742059.24245  22648548.867    22648554.438
        42.900          32.700
 118918401.645 7  92663712.55947  22629411.766    22629418.793
        44.600          42.900
 21  1  1  1 47 30.0000000  0 11G19G17G07G21G30G08G01G28G22G14G03
 132035065.231 6 102884450.76843  25125428.359    25125432.422
        36.000          21.700
 124098217.232 7  96699976.05744  23615118.781    23615123.391
        42.500          27.900
 108454548.865 8  84510033.61646  20638203.742    20638208.070
        49.600          41.300
 118625562.042 7  92435598.47845  22573690.922    22573694.457
        47.600          34.200
 111856247.477 8  87160744.10946  21285539.414    21285545.816
        48.500          41.500
 124777136.148 6  97228932.98346  23744274.633    23744280.930
        40.200          36.500
 105791505.210 8  82434992.04149  20131442.320    20131449.637
        51.600          55.200
 123993276.730 6  96618166.06443  23595136.906    23595140.133
        41.100          22.600
 117304812.392 8  91406438.06845  22322371.047    22322372.527
        48.100          35.900
 118941314.713 7  92681559.15745  22633774.461    22633779.695
        42.700          31.900
 118851572.259 7  92611637.72447  22616694.547    22616701.441
        45.900          43.100
 21  1  1  1 48  0.0000000  0 11G19G17G07G21G30G08G01G28G22G14G03
 131985075.496 6 102845497.78843  25115916.625    25115919.336
        36.400          20.100
 124074939.935 7  96681837.91644  23610689.734    23610693.688
        42.500          28.400
 108495491.596 8  84541937.03546  20645994.844    20645999.035
        50.300          41.200
 118715267.973 7  92505499.20045  22590761.805    22590764.766
        46.500          33.500
 111838190.349 8  87146673.61046  21282102.727    21282109.605
        48.700          41.600
 124826516.876 6  97267411.47946  23753671.906    23753677.910
        41.700          36.800
 105839655.758 8  82472511.96149  20140605.008    20140612.172
        52.200          55.000
 123920589.094 6  96561526.35444  23581304.594    23581308.754
        41.300          25.300
 117280387.176 7  91387405.45245  22317723.078    22317724.340
        47.800          34.600
 118863689.028 7  92621071.61445  22619002.984    22619007.633
        43.600          32.200
 118784919.039 7  92559700.18947  22604010.367    22604017.816
        44.700          42.900
 21  1  1  1 48 30.0000000  0 11G19G17G07G21G30G08G01G28G22G14G03
 131935202.131 5 102806635.51743  25106425.844    25106428.172
        35.600          21.100
 124051757.636 6  96663773.81244  23606277.281    23606282.148
        41.700          27.600
 108536957.337 8  84574247.99646  20653885.320    20653889.766
        49.600          41.500
 118805115.504 7  92575510.26045  22607859.180    22607862.117
        47.200          34.100
 111820690.585 8  87133037.41846  21278772.797    21278779.430
        48.800          41.100
 124875798.925 6  97305813.07445  23763049.664    23763055.926
        41.100          35.200
 105888316.204 8  82510429.19549  20149864.781    20149872.094
        52.500          55.800
 123847806.731 6  96504812.80844  23567454.523    23567459.199
        40.200          25.300
 117256362.818 7  91368685.17445  22313150.953    22313152.445
        47.300          34.200
 118786081.331 7  92560598.09245  22604234.281    22604239.070
        43.600          31.600
 118718445.240 7  92507902.44547  22591361.422    22591367.879
        44.100          42.500
 21  1  1  1 49  0.0000000  0 11G19G17G07G21G30G08G01G28G22G14G03
 131885444.165 5 102767863.11843  25096956.359    25096960.117
        35.500          19.600
 124028669.251 6  96645782.89044  23601883.266    23601888.699
        41.000          26.800
 108578944.100 8  84606964.96447  20661875.383    20661879.613
        49.600          42.100
 118895102.449 7  92645629.94345  22624982.609    22624986.223
        47.000          33.700
 111803748.301 8  87119835.64046  21275548.758    21275555.434
        48.500          41.100
 124924982.691 6  97344138.08345  23772409.047    23772415.215
        40.700          35.700
 105937484.022 8  82548741.78049  20159221.234    20159228.465
        51.500          55.000
 123774930.872 6  96448026.44244  23553586.711    23553591.395
        40.800          25.300
 117232741.011 8  91350278.57745  22308656.031    22308657.324
        48.100          35.300
 118708493.587 7  92500140.11445  22589470.211    22589474.465
        43.700          32.400
 118652153.923 7  92456246.87247  22578746.758    22578753.387
        44.900          43.100
 21  1  1  1 49 30.0000000  0 11G19G17G07G21G30G08G01G28G22G14G03
 131835801.510 5 102729180.56143  25087510.141    25087512.824
        34.800          19.000
 124005673.083 6  96627863.85144  23597508.461    23597513.172
        41.300          27.400
 108621450.170 8  84640086.56346  20669964.414    20669968.402
        49.800          41.600
 118985226.249 7  92715856.26045  22642133.227    22642136.398
        47.500          33.900
 111787364.095 8  87107068.70646  21272430.969    21272437.613
        49.100          40.700
 124974068.470 6  97382386.74245  23781749.398    23781756.383
        40.500          35.000
 105987157.184 8  82587448.13949  20168673.531    20168680.824
        52.200          55.300
 123701963.153 6  96391168.50344  23539701.805    23539706.023
        39.900          26.200
 117209524.484 7  91332187.78745  22304238.336    22304239.527
        47.000          34.000
 118630927.936 7  92439699.35045  22574709.719    22574714.340
        44.000          32.800
 118586048.423 7  92404736.11847  22566166.461    22566173.898
        45.200          43.300
 21  1  1  1 50  0.0000000  0 11G19G17G07G21G30G08G01G28G22G14G03
 131786272.694 5 102690586.69242  25078085.328    25078087.203
        34.700          17.400
 123982767.624 6  96610015.47644  23593149.273    23593154.520
        41.700          28.000
 108664472.983 8  84673610.82846  20678151.016    20678155.344
        48.500          41.300
 119075483.836 7  92786186.83845  22659308.641    22659311.762
        47.500          34.200
 111771537.419 8  87094736.23146  21269419.117    21269425.227
        49.000          40.900
 125023056.175 6  97420558.96946  23791071.852    23791077.805
        40.400          36.200
 106037332.471 8  82626545.77549  20178221.398    20178228.938
        50.700          55.100
 123628904.189 6  96334239.43444  23525799.914    23525803.168
        40.800          26.700
 117186714.650 7  91314413.89945  22299897.727    22299899.078
        47.300          34.900
 118553385.689 7  92379276.83145  22559953.594    22559958.555
        43.400          31.700
 118520131.253 7  92353372.10147  22553623.133    22553630.168
        43.700          43.400
 21  1  1  1 50 30.0000000  0 11G19G17G07G21G30G08G01G28G22G14G03
 131736857.044 5 102652081.03143  25068681.781    25068683.965
        34.700          18.600
 123959951.672 6  96592236.85544  23588807.320    23588812.477
        41.100          27.900
 108708010.452 8  84707536.11746  20686435.867    20686440.063
        49.600          41.200
 119165873.159 7  92856620.06945  22676508.852    22676512.195
        46.900          33.800
 111756268.702 8  87082838.53046  21266513.797    21266520.121
        49.100          41.300
 125071945.931 6  97458654.88145  23800374.453    23800381.125
        39.900          35.500
 106088007.796 8  82666033.04749  20187864.594    20187871.977
        51.800          55.300
 123555755.464 6  96277240.44444  23511879.445    23511883.117
        40.100          24.700
 117164313.639 7  91296958.58345  22295634.500    22295636.277
        46.900          35.400
 118475869.137 7  92318874.30345  22545203.313    22545207.918
        43.500          32.500
 118454405.872 7  92302157.54647  22541115.516    22541123.203
        43.700          43.300
 21  1  1  1 51  0.0000000  0 11G19G17G07G21G30G08G01G28G22G14G03
 131687553.937 5 102613663.07643  25059299.734    25059302.656
        35.400          19.300
 123937223.745 7  96574526.79544  23584482.680    23584487.430
        43.000          28.900
 108752060.931 8  84741861.16246  20694818.367    20694822.832
        49.800          41.800
 119256391.389 7  92927153.75445  22693733.906    22693736.785
        46.500          33.900
 111741558.496 8  87071376.02246  21263714.477    21263721.406
        48.800          40.700
 125120738.396 6  97496674.97645  23809659.445    23809665.961
        39.400          34.800
 106139180.983 8  82705908.26849  20197602.781    20197610.023
        51.400          55.200
 123482518.560 6  96220172.73944  23497942.648    23497946.781
        40.800          25.100
 117142323.354 7  91279823.31245  22291450.484    22291451.895
        47.800          34.700
 118398380.494 7  92258493.55745  22530457.734    22530462.156
        43.800          32.400
 118388875.723 7  92251095.11947  22528646.195    22528653.473
        42.900          43.000
 21  1  1  1 51 30.0000000  0 11G19G17G07G21G30G08G01G28G22G14G03
 131638362.092 6 102575331.74143  25049938.703    25049941.453
        36.700          18.600
 123914582.117 6  96556884.01644  23580173.891    23580178.691
        41.400          27.700
 108796621.463 8  84776583.64546  20703297.945    20703302.527
        49.900          41.200
 119347035.422 7  92997785.45445  22710983.398    22710985.777
        46.300          33.100
 111727405.953 8  87060348.05746  21261021.320    21261027.945
        49.300          41.500
 125169433.385 6  97534619.10845  23818926.320    23818932.688
        40.500          34.900
 106190848.660 8  82746168.80549  20207434.531    20207441.926
        51.400          55.300
 123409194.189 6  96163036.87244  23483989.664    23483993.559
        41.100          26.000
 117120745.546 7  91263009.45745  22287344.258    22287346.016
        47.200          35.600
 118320920.934 7  92198135.47145  22515717.797    22515722.078
        43.900          33.600
 118323543.075 7  92200186.59347  22516213.672    22516220.934
        44.200          43.900
 21  1  1  1 52  0.0000000  0 11G19G17G07G21G30G08G01G28G22G14G03
 131589281.090 6 102537086.83443  25040598.734    25040601.285
        36.500          18.300
 123892025.603 7  96539307.53244  23575882.102    23575885.883
        42.500          27.600
 108841690.279 8  84811702.18446  20711874.336    20711878.906
        48.700          41.400
 119437803.264 7  93068513.62845  22728255.586    22728258.328
        46.400          32.400
 111713811.599 8  87049755.04047  21258434.711    21258441.066
        48.700          42.000
 125218031.130 6  97572487.47245  23828174.000    23828181.172
        39.600          34.900
 106243008.786 8  82786813.06649  20217360.453    20217367.707
        51.600          55.400
 123335784.447 7  96105834.47444  23470020.836    23470023.934
        42.700          26.800
 117099582.504 7  91246518.78545  22283316.625    22283318.656
        46.800          35.500
 118243492.740 7  92137801.81445  22500983.492    22500988.094
        44.300          33.500
 118258411.458 7  92149434.71747  22503819.789    22503826.930
        44.200          44.000
 21  1  1  1 52 30.0000000  0 11G19G17G07G21G30G08G01G28G22G14G03
 131540310.027 6 102498927.62843  25031279.898    25031282.875
        36.800          20.400
 123869552.613 6  96521796.12044  23571604.773    23571609.820
        41.500          27.400
 108887264.661 8  84847214.70546  20720546.773    20720551.340
        49.000          41.500
 119528691.827 7  93139335.87545  22745550.344    22745554.117
        45.900          32.200
 111700774.697 8  87039596.40346  21255953.492    21255960.355
        48.900          41.300
 125266531.944 6  97610280.31745  23837403.578    23837410.242
        39.400          34.200
 106295658.051 8  82827838.46449  20227379.273    20227386.660
        51.200          54.900
 123262289.944 6  96048566.03344  23456034.414    23456038.430
        41.900          26.700
 117078835.547 7  91230352.33945  22279368.492    22279370.438
        46.400          35.200
 118166097.449 7  92077493.79845  22486255.508    22486260.262
        44.500          33.400
 118193483.324 7  92098841.39847  22491464.000    22491471.148
        44.000          43.000
 21  1  1  1 53  0.0000000  0 11G19G17G07G21G30G08G01G28G22G14G03
 131491448.170 6 102460853.40743  25021982.063    25021984.414
        36.100          19.300
 123847162.007 6  96504348.94344  23567343.820    23567348.637
        41.200          26.400
 108933343.297 8  84883120.11646  20729315.578    20729319.824
        49.400          41.200
 119619699.285 7  93210250.76245  22762869.398    22762872.500
        46.000          33.600
 111688296.275 8  87029872.95146  21253579.406    21253585.711
        48.100          41.200
 125314936.224 6  97647997.95845  23846614.469    23846621.344
        41.200          34.100
 106348794.895 8  82869243.79449  20237490.758    20237498.160
        50.700          55.000
 123188712.615 6  95991233.07943  23442032.469    23442037.008
        40.100          23.500
 117058507.169 7  91214512.05045  22275500.352    22275502.230
        47.200          35.400
 118088737.730 7  92017213.50845  22471534.578    22471538.914
        44.300          31.500
 118128762.681 7  92048409.75947  22479148.000    22479154.727
        43.000          42.800
 21  1  1  1 53 30.0000000  0 11G19G17G07G21G30G08G01G28G22G14G03
 131442694.487 6 102422863.56942  25012704.336    25012706.918
        36.900          17.800
 123824852.095 6  96486964.63544  23563098.664    23563103.625
        40.900          28.400
 108979923.468 8  84919416.34546  20738179.383    20738183.715
        48.500          41.400
 119710822.598 7  93281255.93345  22780209.203    22780212.570
        46.100          32.300
 111676375.946 8  87020584.37446  21251310.531    21251317.238
        49.000          41.100
 125363244.195 6  97685640.51845  23855806.414    23855813.727
        40.300          33.400
 106402416.437 8  82911026.82449  20247694.602    20247702.184
        51.200          55.000
 123115053.832 6  95933836.65044  23428016.539    23428020.551
        40.300          25.600
 117038599.047 7  91198999.23645  22271712.258    22271713.605
        46.700          35.400
 118011415.369 7  91956962.33145  22456820.367    22456825.164
        43.800          33.600
 118064252.345 7  91998141.99647  22466872.188    22466879.016
        44.100          43.800
 21  1  1  1 54  0.0000000  0 11G19G17G07G21G30G08G01G28G22G14G03
 131394048.066 6 102384957.28143  25003447.719    25003449.727
        36.500          18.600
 123802621.686 7  96469642.26244  23558869.070    23558872.938
        42.100          29.400
 109027002.866 8  84956101.58346  20747138.023    20747142.414
        49.000          40.900
 119802058.938 7  93352349.17945  22797571.305    22797574.113
        46.400          32.700
 111665013.556 8  87011730.54646  21249148.508    21249154.797
        48.200          40.700
 125411456.332 6  97723208.40745  23864981.164    23864987.969
        39.500          32.500
 106456519.911 8  82953185.37749  20257989.969    20257997.832
        51.200          55.100
 123041314.649 6  95876377.55744  23413984.211    23413987.941
        41.300          25.300
 117019112.920 7  91183815.25045  22268004.250    22268005.492
        47.300          35.900
 117934132.214 7  91896741.69145  22442114.414    22442118.215
        45.300          33.500
 117999955.293 7  91948040.44247  22454636.875    22454643.707
        43.200          43.000
 21  1  1  1 54 30.0000000  0 11G19G17G07G21G30G08G01G28G22G14G03
 131345508.352 6 102347134.18142  24994210.727    24994212.691
        37.100          17.800
 123780469.309 7  96452380.68844  23554653.258    23554657.848
        43.300          29.200
 109074579.635 8  84993174.37646  20756191.836    20756196.043
        48.800          40.700
 119893406.109 7  93423528.79945  22814953.906    22814957.152
        45.600          33.200
 111654209.199 8  87003311.55046  21247092.648    21247099.070
        48.100          41.100
 125459572.581 6  97760701.55645  23874137.289    23874144.023
        38.600          31.500
 106511102.919 8  82995717.59649  20268377.172    20268384.609
        51.100          55.200
 122967496.644 6  95818857.03644  23399937.258    23399940.664
        41.300          25.400
 117000050.697 7  91168961.56745  22264376.813    22264378.102
        46.600          35.300
 117856890.475 7  91836553.32445  22427415.484    22427419.887
        44.700          33.100
 117935874.761 7  91898107.58547  22442442.609    22442449.801
        43.800          43.300
 21  1  1  1 55  0.0000000  0 11G19G17G07G21G30G08G01G28G22G14G03
 131297074.502 6 102309393.51743  24984993.734    24984996.719
        38.400          19.300
 123758393.281 7  96435178.61944  23550452.813    23550456.918
        42.300          29.200
 109122651.079 8  85030632.65146  20765339.102    20765343.789
        50.000          40.800
 119984862.028 7  93494793.14545  22832357.438    22832360.758
        46.000          31.900
 111643962.654 8  86995327.22946  21245142.836    21245149.117
        49.100          41.100
 125507593.898 6  97798120.75845  23883275.461    23883282.313
        39.700          33.100
 106566162.706 8  83038621.32849  20278854.906    20278861.973
        51.600          55.600
 122893601.182 6  95761276.15044  23385875.805    23385879.500
        41.300          24.700
 116981413.760 7  91154439.29945  22260829.867    22260831.383
        46.800          35.200
 117779692.036 7  91776398.71345  22412724.766    22412729.238
        44.600          33.200
 117872013.732 7  91848345.77447  22430290.438    22430297.559
        43.600          43.700
 21  1  1  1 55 30.0000000  0 11G19G17G07G21G30G08G01G28G22G14G03
 131248745.448 6 102271734.54343  24975796.391    24975799.840
        37.300          20.100
 123736392.329 7  96418035.03744  23546265.164    23546269.938
        43.700          29.600
 109171214.862 8  85068474.55846  20774580.648    20774585.363
        49.700          41.300
 120076423.660 7  93566139.86845  22849780.844    22849784.441
        46.100          32.100
 111634273.700 8  86987777.38346  21243298.648    21243305.539
        49.000          41.700
 125555519.985 6  97835465.75745  23892395.328    23892402.129
        38.100          32.100
 106621696.623 8  83081894.51149  20289422.469    20289429.516
        51.300          55.200
 122819629.794 6  95703636.10744  23371799.055    23371803.500
        41.800          26.900
 116963204.443 7  91140250.22645  22257364.688    22257366.410
        47.600          35.400
 117702538.882 7  91716279.37445  22398043.266    22398047.902
        46.300          34.100
 117808375.315 7  91798757.42547  22418179.938    22418186.949
        44.400          43.100
 21  1  1  1 56  0.0000000  0 11G19G17G07G21G30G08G01G28G22G14G03
 131200520.319 6 102234156.53543  24966619.727    24966622.910
        37.000          19.600
 123714464.812 7  96400948.69644  23542092.695    23542097.203
        43.400          27.900
 109220268.821 8  85106698.41546  20783915.477    20783920.102
        49.000          41.100
 120168088.030 7  93637566.63845  22867223.906    22867227.195
        45.200          32.000
 111625142.079 8  86980661.82346  21241561.406    21241567.902
        49.700          41.300
 125603351.773 6  97872737.29445  23901497.797    23901504.543
        38.900          32.400
 106677701.867 8  83125534.96149  20300079.617    20300087.070
        50.700          55.100
 122745583.407 6  95645937.65044  23357708.688    23357712.992
        41.300          26.500
 116945424.422 7  91126395.66245  22253981.320    22253983.043
        47.000          35.400
 117625432.948 7  91656196.84845  22383370.547    22383374.824
        45.700          33.500
 117744962.429 7  91749344.81547  22406113.336    22406120.117
        45.000          44.400
 21  1  1  1 56 30.0000000  0 11G19G17G07G21G30G08G01G28G22G14G03
 131152398.284 6 102196658.83843  24957462.141    24957465.223
        37.100          19.000
 123692609.685 6  96383918.74344  23537933.508    23537938.152
        41.400          28.300
 109269810.289 8  85145302.14946  20793343.023    20793347.391
        49.300          41.100
 120259853.031 7  93709071.83745  22884686.414    22884689.363
        45.800          31.900
 111616567.717 8  86973980.50646  21239929.602    21239936.348
        49.100          41.800
 125651088.810 6  97909934.96745  23910581.906    23910589.270
        39.900          33.200
 106734175.849 8  83169540.66149  20310826.469    20310833.676
        51.100          55.400
 122671463.842 7  95588182.13844  23343604.336    23343608.020
        42.100          26.700
 116928075.342 7  91112876.91045  22250679.656    22250681.633
        47.500          35.200
 117548376.371 7  91596152.77745  22368707.578    22368711.199
        44.300          33.100
 117681778.301 7  91700110.45047  22394089.969    22394096.293
        44.500          44.100
 21  1  1  1 57  0.0000000  0 11G19G17G07G21G30G08G01G28G22G14G03
 131104378.415 5 102159240.75743  24948323.773    24948327.598
        35.400          18.300
 123670825.381 7  96366943.97444  23533787.930    23533793.250
        43.100          27.900
 109319837.028 8  85184284.02046  20802862.734    20802867.270
        49.600          40.800
 120351716.316 7  93780653.61145  22902167.398    22902170.543
        45.800          31.900
 111608550.353 8  86967733.19846  21238403.789    21238410.758
        49.600          41.300
 125698732.102 6  97947059.60245  23919647.750    23919654.898
        38.500          32.300
 106791115.986 8  83213909.57649  20321661.688    20321669.188
        50.700          55.100
 122597272.688 6  95530370.84244  23329486.219    23329490.215
        41.800          26.200
 116911158.948 7  91099695.31445  22247460.844    22247462.684
        47.300          35.700
 117471371.117 7  91536148.70345  22354053.227    22354057.645
        45.200          33.400
 117618825.921 7  91651056.66247  22382109.609    22382117.008
        44.000          43.200
 21  1  1  1 57 30.0000000  0 11G19G17G07G21G30G08G01G28G22G14G03
 131056459.875 5 102121901.67643  24939205.188    24939208.918
        34.200          18.300
 123649110.467 7  96350023.27244  23529656.273    23529660.848
        43.200          28.800
 109370346.973 8  85223642.40046  20812474.563    20812478.852
        49.000          41.200
 120443675.271 7  93852309.92245  22919666.422    22919669.715
        45.900          31.000
 111601089.674 8  86961919.67346  21236984.484    21236991.156
        48.800          41.300
 125746281.882 6  97984111.36745  23928697.156    23928703.371
        40.200          33.900
 106848519.428 8  83258639.53149  20332585.125    20332592.625
        50.200          54.700
 122523011.177 7  95472504.75144  23315355.039    23315358.750
        43.200          27.400
 116894677.044 7  91086852.27745  22244324.922    22244326.461
        46.400          35.200
 117394419.295 7  91476186.24045  22339410.008    22339414.340
        45.700          33.800
 117556108.424 7  91602185.91647  22370175.336    22370182.422
        43.700          43.300
 21  1  1  1 58  0.0000000  0 11G19G17G07G21G30G08G01G28G22G14G03
 131008642.128 6 102084641.09143  24930106.656    24930109.699
        36.000          18.300
 123627463.443 7  96333155.47144  23525536.875    23525541.352
        43.500          29.800
 109421337.645 8  85263375.38246  20822177.609    20822182.102
        50.500          40.800
 120535727.362 7  93924038.82345  22937183.500    22937186.934
        45.600          32.100
 111594185.768 8  86956539.99046  21235670.320    21235677.324
        49.100          41.300
 125793738.503 6  98021090.56145  23937727.586    23937733.934
        39.500          33.400
 106906383.791 8  83303728.64449  20343596.617    20343603.914
        50.100          54.800
 122448680.727 7  95414584.91344  23301209.836    23301213.816
        43.700          26.600
 116878631.310 7  91074349.12045  22241271.102    22241272.566
        46.000          35.400
 117317523.241 7  91416267.23345  22324776.898    22324781.410
        44.900          33.300
 117493629.101 7  91553500.74847  22358285.836    22358293.008
        44.100          44.200
 21  1  1  1 58 30.0000000  0 11G19G17G07G21G30G08G01G28G22G14G03
 130960923.911 5 102047458.08543  24921025.852    24921028.980
        35.900          18.600
 123605882.809 7  96316339.41244  23521430.242    23521434.590
        42.800          29.600
 109472806.429 8  85303480.92346  20831972.313    20831976.145
        49.200          40.900
 120627870.193 7  93995838.43445  22954717.727    22954721.105
        45.800          32.300
 111587837.902 8  86951593.58846  21234462.578    21234469.316
        48.700          41.100
 125841102.115 6  98057997.26345  23946739.883    23946746.941
        39.200          34.200
 106964706.032 8  83349174.54249  20354694.781    20354701.902
        50.300          54.700
 122374282.947 7  95356612.62244  23287052.219    23287056.684
        42.700          27.400
 116863023.035 7  91062186.83345  22238300.742    22238302.961
        47.200          34.900
 117240684.640 7  91356393.00745  22310154.516    22310159.543
        45.100          34.400
 117431390.726 7  91505003.33547  22346442.086    22346449.105
        44.300          43.700
 21  1  1  1 59  0.0000000  0 11G19G17G07G21G30G08G01G28G22G14G03
 130913304.437 6 102010351.98743  24911964.313    24911967.590
        36.400          19.600
 123584367.207 6  96299574.02344  23517335.906    23517340.500
        41.800          28.600
 109524750.800 8  85343957.05146  20841856.430    20841861.031
        49.800          40.800
 120720101.010 7  94067706.57745  22972268.703    22972272.418
        45.200          32.300
 111582045.721 8  86947080.20146  21233359.898    21233367.223
        48.700          41.400
 125888373.040 6  98094831.75745  23955736.508    23955741.645
        40.900          33.800
 107023483.379 8  83394975.06149  20365879.914    20365886.832
        50.200          54.500
 122299819.151 7  95298588.89844  23272882.508    23272886.633
        42.900          27.600
 116847854.339 7  91050367.07245  22235414.172    22235415.832
        46.800          35.800
 117163905.543 7  91296565.15645  22295544.633    22295549.121
        44.900          34.300
 117369396.312 7  91456696.01147  22334645.469    22334651.984
        43.800          43.700
 21  1  1  1 59 30.0000000  0 11G19G17G07G21G30G08G01G28G22G14G03
 130865782.513 6 101973321.88743  24902920.594    24902924.094
        37.400          19.600
 123562915.278 7  96282858.22444  23513252.914    23513258.258
        42.000          27.200
 109577168.411 8  85384801.93046  20851831.500    20851835.715
        49.700          40.800
 120812417.649 7  94139641.62245  22989835.672    22989839.418
        44.600          30.800
 111576808.969 8  86942999.60546  21232363.289    21232370.742
        48.500          40.700
 125935551.900 6  98131594.50445  23964713.469    23964719.945
        40.400          34.300
 107082713.148 8  83441128.13349  20377150.852    20377157.914
        50.800          54.600
 122225291.071 7  95240515.06444  23258699.617    23258704.145
        42.100          27.600
 116833126.673 7  91038890.97746  22232611.930    22232613.395
        47.300          36.400
 117087188.178 7  91236785.40745  22280945.047    22280949.820
        44.500          33.800
 117307648.978 7  91408581.23047  22322895.320    22322901.820
        43.700          44.100
 21  1  1  2  0  0.0000000  0 11G19G17G07G21G30G08G01G28G22G14G03
 130818357.291 6 101936367.18743  24893896.117    24893899.391
        37.900          19.300
 123541525.588 7  96266190.95644  23509183.281    23509187.730
        42.300          28.000
 109630056.266 8  85426013.23546  20861895.469    20861899.969
        49.100          40.900
 120904817.069 7  94211641.16345  23007418.875    23007422.258
        44.400          31.600
 111572127.156 8  86939351.42646  21231473.180    21231479.973
        48.800          41.600
 125982639.158 6  98168285.86545  23973673.297    23973680.797
        39.200          33.600
 107142392.454 8  83487631.49349  20388506.984    20388514.715
        50.300          54.600
 122150699.666 7  95182391.91644  23244505.992    23244509.949
        42.700          27.400
 116818841.485 7  91027759.66346  22229893.633    22229895.543
        47.300          36.700
 117010534.487 7  91177055.27445  22266358.617    22266363.520
        45.200          33.800
 117246151.731 7  91360661.32247  22311192.266    22311199.633
        44.100          44.700
 21  1  1  2  0 30.0000000  0 11G19G17G07G21G30G08G01G28G22G14G03
 130771028.341 6 101899487.48243  24884889.766    24884893.035
        37.600          19.000
 123520196.624 7  96249570.98344  23505124.484    23505129.262
        42.200          27.000
 109683412.552 8  85467589.55446  20872049.008    20872053.270
        48.400          40.700
 120997297.242 7  94283703.63545  23025017.344    23025020.629
        43.800          30.900
 111568000.141 8  86936135.56646  21230687.531    21230694.348
        48.600          41.600
 126029635.394 6  98204906.28945  23982617.188    23982624.000
        39.300          34.600
 107202518.809 8  83534483.19949  20399949.344    20399956.727
        50.300          55.000
 122076046.979 6  95124221.00044  23230299.242    23230304.125
        40.800          27.600
 116805000.716 7  91016974.64346  22227259.750    22227261.137
        47.900          36.400
 116933946.866 7  91117376.63445  22251784.281    22251789.207
        45.000          34.800
 117184907.774 7  91312938.78947  22299538.242    22299545.305
        44.700          44.800
 21  1  1  2  1  0.0000000  0 11G19G17G07G21G30G08G01G28G22G14G03
 130723794.960 6 101862682.25243  24875901.820    24875905.473
        37.900          19.900
 123498927.217 7  96232997.43044  23501077.164    23501081.648
        43.700          28.300
 109737234.947 8  85509529.08046  20882291.031    20882295.461
        49.400          40.600
 121089855.821 7  94355827.18245  23042630.875    23042633.555
        43.800          30.300
 111564427.451 8  86933351.64847  21230007.742    21230014.617
        48.200          42.200
 126076540.601 6  98241455.77445  23991542.680    23991550.023
        39.400          34.500
 107263089.466 8  83581681.11149  20411475.227    20411482.770
        50.600          54.800
 122001334.730 7  95066003.67944  23216082.867    23216087.129
        42.600          28.100
 116791606.176 7  91006537.34346  22224711.055    22224712.168
        47.900          36.200
 116857427.454 7  91057751.15845  22237223.742    22237228.023
        46.300          34.400
 117123920.230 7  91265416.03847  22287933.180    22287939.754
        44.200          45.000
 21  1  1  2  1 30.0000000  0 11G19G17G07G21G30G08G01G28G22G14G03
 130676655.447 6 101825950.19043  24866931.594    24866934.945
        36.300          19.300
 123477715.752 7  96216469.01844  23497040.922    23497044.613
        43.200          27.900
 109791520.212 8  85551829.27246  20892621.234    20892625.332
        49.900          40.600
 121182489.925 7  94428009.60544  23060258.531    23060261.578
        43.800          29.800
 111561408.050 8  86930998.86546  21229432.984    21229439.719
        48.900          41.000
 126123354.858 6  98277934.40645  24000451.367    24000458.371
        38.800          33.800
 107324101.012 8  83629222.58249  20423085.430    20423092.582
        50.200          54.600
 121926564.050 7  95007740.83344  23201854.516    23201857.867
        42.300          28.100
 116778659.032 8  90996448.66346  22222247.000    22222248.383
        48.000          36.700
 116780977.700 7  90998179.93145  22222675.500    22222680.141
        46.200          34.600
 117063191.599 7  91218095.03547  22276376.617    22276383.379
        44.500          45.200
 21  1  1  2  2  0.0000000  0 11G19G17G07G21G30G08G01G28G22G14G03
 130629609.161 6 101789290.70742  24857978.586    24857981.609
        36.000          17.400
 123456560.604 7  96199984.48444  23493014.828    23493019.277
        42.700          28.200
 109846265.723 8  85594488.11246  20903038.813    20903043.121
        50.200          40.600
 121275197.284 7  94500249.11245  23077900.242    23077903.199
        44.900          31.200
 111558942.060 8  86929077.31246  21228963.719    21228970.152
        48.200          40.900
 126170079.316 6  98314343.06745  24009342.930    24009349.578
        38.900          34.800
 107385551.227 8  83677105.87649  20434778.906    20434786.223
        49.600          54.700
 121851736.760 7  94949433.85344  23187615.031    23187618.637
        42.600          28.300
 116766160.817 7  90986709.79146  22219869.008    22219870.305
        47.800          36.400
 116704600.384 7  90938665.15745  22208141.383    22208145.680
        45.600          34.700
 117002725.493 7  91170978.60047  22264870.117    22264877.195
        44.300          45.400
 21  1  1  2  2 30.0000000  0 11G19G17G07G21G30G08G01G28G22G14G03
 130582655.221 6 101752703.23642  24849043.734    24849046.969
        36.400          17.800
 123435460.678 7  96183542.99444  23488999.602    23489004.266
        42.200          28.500
 109901469.394 8  85637503.95446  20913543.781    20913548.285
        49.400          40.500
 121367975.594 7  94572543.88145  23095554.922    23095558.715
        44.300          31.400
 111557028.845 8  86927586.48546  21228599.469    21228606.539
        48.900          41.300
 126216714.038 6  98350681.78545  24018216.500    24018223.566
        38.100          34.200
 107447437.153 8  83725328.66449  20446555.547    20446562.719
        50.200          54.600
 121776854.048 6  94891083.69644  23173365.234    23173368.688
        41.400          28.500
 116754113.024 7  90977321.91146  22217576.094    22217577.590
        47.700          36.000
 116628297.553 7  90879208.42945  22193621.906    22193625.973
        45.600          35.500
 116942524.751 7  91124068.92547  22253413.805    22253420.996
        43.900          44.600
 21  1  1  2  3  0.0000000  0 11G19G17G07G21G30G08G01G28G22G14G03
 130535792.810 5 101716187.05043  24840125.164    24840129.102
        34.800          18.300
 123414414.448 7  96167143.37644  23484994.531    23484999.648
        42.400          28.600
 109957128.444 8  85680874.63246  20924135.570    20924139.977
        49.500          40.400
 121460822.519 7  94644892.13245  23113223.250    23113226.875
        44.100          31.200
 111555667.821 8  86926525.93346  21228340.500    21228347.707
        48.500          41.700
 126263259.848 6  98386951.25745  24027075.039    24027081.461
        38.000          35.100
 107509756.032 8  83773888.82549  20458414.883    20458421.891
        49.700          54.800
 121701917.579 7  94832691.67344  23159105.922    23159108.867
        43.400          27.600
 116742517.418 8  90968286.37146  22215369.719    22215371.207
        48.000          36.100
 116552071.275 7  90819811.33745  22179116.273    22179120.441
        46.900          35.200
 116882592.475 7  91077368.47047  22242009.406    22242016.250
        43.800          45.100
 21  1  1  2  3 30.0000000  0 11G19G17G07G21G30G08G01G28G22G14G03
 130489020.945 5 101679741.50542  24831225.484    24831228.777
        35.600          17.800
 123393420.475 7  96150784.44344  23480999.641    23481004.422
        43.100          28.200
 110013240.890 8  85724598.59046  20934813.172    20934817.527
        48.700          40.300
 121553735.980 7  94717292.22145  23130904.141    23130908.148
        43.900          31.100
 111554858.706 8  86925895.44546  21228186.414    21228193.750
        48.100          41.000
 126309717.261 6  98423151.82045  24035914.570    24035921.598
        39.500          34.900
 107572505.263 8  83822784.32249  20470355.578    20470362.797
        49.900          54.900
 121626929.641 7  94774259.53844  23144835.906    23144838.820
        43.100          28.500
 116731375.520 8  90959604.37246  22213249.594    22213251.098
        48.500          36.100
 116475924.101 7  90760475.87945  22164626.125    22164630.309
        47.300          35.400
 116822931.929 7  91030879.73647  22230656.641    22230663.051
        44.400          44.900
 21  1  1  2  4  0.0000000  0 11G19G17G07G21G30G08G01G28G22G14G03
 130442338.628 5 101643365.65442  24822341.883    24822344.551
        35.300          16.900
 123372477.285 7  96134465.08944  23477014.547    23477019.035
        42.800          29.100
 110069803.343 8  85768673.21846  20945576.484    20945580.902
        48.700          39.900
 121646712.849 7  94789741.72545  23148597.164    23148601.176
        44.400          31.500
 111554600.307 8  86925694.06946  21228137.930    21228144.441
        48.000          41.800
 126356086.337 6  98459283.54845  24044738.805    24044745.152
        40.100          35.100
 107635681.411 8  83872012.47549  20482377.438    20482384.660
        50.700          54.700
 121551891.141 7  94715787.99644  23130556.813    23130559.824
        43.700          28.200
 116720688.602 7  90951276.90345  22211215.922    22211217.594
        47.800          35.600
 116399857.568 7  90701203.26045  22150150.961    22150155.387
        45.900          34.800
 116763545.552 7  90984604.65247  22219355.586    22219362.344
        44.800          45.100
 21  1  1  2  4 30.0000000  0 11G19G17G07G21G30G08G01G28G22G14G03
 130395744.897 5 101607058.84942  24813475.836    24813478.016
        35.500          16.900
 123351583.856 7  96118184.49444  23473038.922    23473043.109
        43.700          29.600
 110126813.057 8  85813096.38746  20956425.094    20956429.590
        49.500          39.600
 121739750.156 7  94862238.32945  23166301.305    23166305.707
        43.500          31.500
 111554892.191 8  86925921.49946  21228193.523    21228199.969
        48.500          41.400
 126402367.652 6  98495346.90345  24053545.664    24053552.504
        41.100          35.500
 107699281.812 8  83921571.22149  20494480.320    20494487.344
        49.900          54.700
 121476803.310 7  94657278.00544  23116267.977    23116270.988
        43.100          28.700
 116710458.033 8  90943305.02445  22209268.633    22209270.242
        48.100          35.800
 116323873.953 7  90641995.25345  22135691.367    22135696.316
        46.600          34.900
 116704436.612 7  90938545.73747  22208107.633    22208114.191
        44.300          44.500
 21  1  1  2  5  0.0000000  0 11G19G17G07G21G30G08G01G28G22G14G03
 130349238.583 6 101570820.14342  24804625.781    24804628.234
        37.200          17.800
 123330738.306 7  96101941.22744  23469072.602    23469075.832
        43.300          27.400
 110184267.611 8  85857866.16846  20967358.555    20967362.742
        48.800          39.900
 121832846.583 7  94934780.98245  23184017.398    23184021.063
        43.400          30.900
 111555733.750 8  86926577.25246  21228353.180    21228359.988
        48.100          41.400
 126448561.794 6  98531342.31645  24062336.375    24062343.004
        40.800          35.400
 107763303.717 8  83971458.41449  20506663.188    20506670.113
        49.900          54.600
 121401668.279 7  94598731.24144  23101969.672    23101972.813
        43.400          29.400
 116700685.077 8  90935689.74846  22207409.195    22207410.750
        48.000          36.100
 116247975.646 7  90582853.71345  22121248.695    22121253.168
        46.300          35.100
 116645608.158 7  90892705.38247  22196912.734    22196919.672
        44.500          45.100
 21  1  1  2  5 30.0000000  0 11G19G17G07G21G30G08G01G28G22G14G03
 130302819.309 6 101534649.27542  24795792.398    24795795.313
        36.300          17.400
 123309939.388 7  96085734.29844  23465114.289    23465118.148
        42.300          29.000
 110242164.423 8  85902980.55846  20978375.672    20978380.254
        48.300          39.800
 121925999.411 7  95007367.60345  23201743.672    23201747.227
        43.700          31.100
 111557124.501 8  86927660.95446  21228618.313    21228624.691
        48.400          40.800
 126494668.865 6  98567269.89145  24071110.031    24071116.820
        39.800          34.700
 107827744.301 8  84021671.85749  20518925.789    20518932.895
        49.100          54.100
 121326487.693 7  94540148.98044  23087663.273    23087666.578
        43.200          29.300
 116691371.263 8  90928432.25246  22205636.602    22205638.332
        48.000          36.000
 116172164.867 7  90523780.37745  22106822.750    22106826.754
        46.800          35.000
 116587063.258 7  90847085.99247  22185772.094    22185778.980
        44.500          45.200
 21  1  1  2  6  0.0000000  0 11G19G17G07G21G30G08G01G28G22G14G03
 130256485.881 6 101498545.29642  24786975.445    24786978.320
        36.700          17.400
 123289185.638 7  96069562.57444  23461164.586    23461168.988
        43.100          29.100
 110300500.546 8  85948437.27046  20989476.922    20989481.047
        48.900          39.600
 122019206.420 7  95079996.42145  23219480.375    23219484.023
        44.300          30.900
 111559063.428 8  86929171.79246  21228986.922    21228993.773
        49.700          41.500
 126540689.810 6  98603130.36645  24079867.688    24079874.156
        40.500          35.100
 107892600.501 8  84072209.15249  20531267.398    20531274.855
        49.800          54.300
 121251262.846 7  94481532.24044  23073349.180    23073351.516
        44.300          29.000
 116682518.120 8  90921533.70345  22203951.727    22203953.574
        48.200          35.900
 116096443.560 7  90464776.76545  22092413.281    22092417.340
        46.200          34.800
 116528804.728 7  90801689.74747  22174685.273    22174692.543
        44.600          44.500
 21  1  1  2  6 30.0000000  0 12G19G17G07G21G30G08G01G06G28G22G14G03
 130210237.390 5 101462507.48543  24778174.422    24778177.930
        35.800          18.600
 123268475.511 7  96053424.83345  23457224.367    23457227.848
        43.000          30.600
 110359273.499 8  85994234.36746  21000661.078    21000665.414
        48.500          40.100
 122112464.452 7  95152665.03245  23237227.055    23237230.191
        44.100          30.200
 111561549.963 8  86931109.33646  21229460.000    21229467.137
        48.300          41.600
 126586625.030 6  98638924.05246  24088609.063    24088615.754
        41.300          36.600
 107957869.578 8  84123068.16149  20543687.844    20543695.254
        50.100          54.300
 128215824.42215                  24398659.398
        30.100
 121175995.662 7  94422882.51844  23059025.805    23059029.039
        43.400          29.100
 116674126.918 8  90914995.11145  22202354.898    22202356.559
        48.100          35.500
 116020814.143 7  90405844.75845  22078021.344    22078025.383
        46.800          35.500
 116470835.638 7  90756519.02447  22163654.633    22163661.520
        43.900          44.800
 21  1  1  2  7  0.0000000  0 12G19G17G07G21G30G08G01G06G28G22G14G03
 130164073.181 5 101426535.41243  24769389.539    24769393.273
        35.600          18.300
 123247808.398 7  96037320.60445  23453291.297    23453295.156
        44.300          31.100
 110418480.983 8  86040370.06846  21011927.875    21011932.098
        49.200          40.000
 122205772.631 7  95225372.72145  23254982.469    23254986.145
        43.900          30.100
 111564583.877 8  86933473.41146  21230037.648    21230044.227
        48.500          41.600
 126632475.387 6  98674651.60445  24097334.430    24097340.723
        40.600          35.500
 108023549.084 8  84174247.00049  20556185.953    20556193.340
        49.300          54.000
 128120197.48115                  24380461.367
        31.600
 121100688.172 7  94364201.35044  23044695.531    23044698.293
        43.700          29.100
 116666199.605 8  90908817.99046  22200846.344    22200848.125
        48.100          36.000
 115945279.327 7  90346986.47545  22063648.023    22063651.574
        47.000          35.000
 116413159.500 7  90711576.59447  22152679.289    22152686.219
        43.400          44.800
 21  1  1  2  7 30.0000000  0 12G19G17G07G21G30G08G01G06G28G22G14G03
 130117992.018 6 101390628.03543  24760621.852    24760624.473
        37.600          19.600
 123227182.319 7  96021248.34544  23449365.977    23449369.813
        43.200          29.900
 110478120.116 8  86086842.11246  21023276.852    21023281.215
        48.500          40.000
 122299127.662 7  95298116.88845  23272747.352    23272751.156
        43.700          30.800
 111568163.915 8  86936263.04646  21230719.156    21230725.309
        48.700          41.400
 126678241.198 6  98710313.26545  24106043.406    24106049.238
        40.800          34.800
 108089635.642 8  84225743.00948  20568761.578    20568769.195
        48.300          53.500
 128024790.692 5                  24362306.234
        31.800
 121025341.813 7  94305489.91744  23030357.734    23030360.477
        43.300          28.400
 116658737.279 8  90903003.20546  22199426.859    22199428.078
        48.000          36.400
 115869840.796 7  90288203.20345  22049291.789    22049296.699
        45.900          35.200
 116355778.869 7  90666864.42947  22141759.547    22141766.945
        43.500          44.700
 21  1  1  2  8  0.0000000  0 12G19G17G07G21G30G08G01G06G28G22G14G03
 130071993.071 5 101354784.69043  24751866.914    24751871.477
        35.200          20.600
 123206595.987 7  96005207.03945  23445448.219    23445452.508
        43.000          30.200
 110538187.958 8  86133648.22046  21034707.438    21034711.660
        48.300          39.900
 122392527.356 7  95370895.86345  23290521.180    23290524.246
        43.400          30.800
 111572289.230 8  86939477.57846  21231503.664    21231510.402
        48.800          40.900
 126723923.084 6  98745909.51945  24114736.219    24114742.262
        40.000          33.800
 108156126.339 8  84277553.94248  20581414.313    20581421.973
        48.400          53.200
 127929605.878 5  99685450.82542  24344193.102    24344203.043
        33.000          16.300
 120949958.088 7  94246749.38644  23016011.797    23016015.074
        43.800          28.100
 116651740.878 7  90897551.46746  22198095.164    22198096.645
        47.900          36.100
 115794500.834 7  90229496.74945  22034955.227    22034959.801
        45.900          35.000
 116298696.694 7  90622384.83247  22130897.695    22130904.602
        43.800          45.200
 21  1  1  2  8 30.0000000  0 12G19G17G07G21G30G08G01G06G28G22G14G03
 130026075.231 6 101319004.54443  24743129.859    24743133.531
        36.700          21.300
 123186048.465 6  95989195.97844  23441537.922    23441542.453
        41.600          28.000
 110598681.889 8  86180786.32446  21046218.656    21046223.320
        49.100          39.600
 122485969.517 7  95443707.94045  23308302.617    23308305.828
        43.500          30.400
 111576959.299 8  86943116.57646  21232392.172    21232399.188
        48.600          41.300
 126769521.159 6  98781440.47945  24123412.633    24123418.973
        39.500          34.100
 108223018.552 8  84329677.74548  20594143.813    20594150.848
        49.500          53.500
 127834645.189 5  99611455.45743  24326124.063    24326130.621
        33.900          18.300
 120874539.016 7  94187981.30444  23001660.133    23001663.523
        43.800          28.800
 116645212.120 7  90892464.12345  22196852.789    22196854.074
        47.300          35.900
 115719261.963 7  90170869.05145  22020637.992    22020641.758
        46.600          35.800
 116241916.210 7  90578140.31847  22120092.906    22120099.547
        44.200          45.400
 21  1  1  2  9  0.0000000  0 12G19G17G07G21G30G08G01G06G28G22G14G03
 129980237.500 6 101283286.87443  24734407.570    24734410.668
        37.500          21.300
 123165537.598 6  95973213.50744  23437635.172    23437639.555
        41.500          29.200
 110659598.608 8  86228253.88846  21057810.875    21057815.309
        49.200          39.300
 122579451.341 7  95516550.90945  23326091.602    23326094.855
        43.800          30.700
 111582172.781 8  86947179.02246  21233384.039    21233391.430
        48.000          41.100
 126815036.584 6  98816907.02445  24132074.023    24132080.098
        39.800          34.600
 108290308.893 8  84382111.76448  20606948.414    20606955.715
        48.700          53.200
 127739909.929 5  99537635.71842  24308095.844    24308103.234
        34.000          16.900
 120799085.736 7  94129186.56544  22987302.031    22987305.758
        43.000          28.900
 116639151.411 8  90887741.48745  22195699.445    22195701.020
        48.100          35.700
 115644126.008 7  90112321.56545  22006340.117    22006344.086
        47.000          35.600
 116185439.937 7  90534132.85247  22109346.148    22109352.309
        44.200          45.300
 21  1  1  2  9 30.0000000  0 12G19G17G07G21G30G08G01G06G28G22G14G03
 129934478.711 6 101247630.70743  24725699.570    24725702.910
        36.500          21.300
 123145062.096 7  95957258.58544  23433738.727    23433743.125
        42.600          29.700
 110720935.838 8  86276049.12646  21069483.109    21069487.426
        48.300          39.300
 122672970.723 7  95589423.15344  23343887.820    23343890.887
        43.200          29.000
 111587929.210 7  86951664.53246  21234479.586    21234486.781
        47.700          41.100
 126860469.454 6  98852309.23245  24140719.625    24140725.930
        39.900          33.600
 108357994.670 8  84434853.92148  20619828.742    20619836.246
        48.000          53.100
 127645402.590 5  99463993.54842  24290111.391    24290119.137
        34.500          17.800
 120723600.240 7  94070366.69244  22972937.570    22972941.160
        44.100          29.000
 116633560.789 8  90883385.16946  22194635.609    22194637.316
        48.300          36.800
 115569095.516 7  90053856.25745  21992061.867    21992066.715
        46.600          35.200
 116129271.123 7  90490364.95347  22098657.180    22098663.770
        44.000          45.000
 21  1  1  2 10  0.0000000  0 12G19G17G07G21G30G08G01G06G28G22G14G03
 129888798.483 6 101212035.71743  24717007.313    24717009.895
        37.700          19.000
 123124620.881 7  95941330.35245  23429849.406    23429853.277
        42.900          31.000
 110782690.501 8  86324169.62946  21081234.820    21081239.172
        48.900          39.600
 122766525.764 7  95662323.17344  23361690.453    23361693.676
        42.800          29.700
 111594227.376 8  86956572.18946  21235678.688    21235685.156
        48.100          40.400
 126905820.236 6  98887647.50245  24149349.914    24149356.016
        40.200          35.100
 108426072.804 8  84487901.80848  20632783.875    20632791.367
        48.400          53.400
 127551124.556 5  99390530.15142  24272169.953    24272178.777
        34.800          17.800
 120648084.114 7  94011522.97044  22958567.633    22958570.656
        44.000          28.200
 116628441.094 8  90879395.79846  22193661.664    22193662.762
        48.200          36.700
 115494172.456 7  89995474.67245  21977804.758    21977809.078
        45.900          35.200
 116073412.534 7  90446838.79647  22088027.320    22088034.398
        44.800          45.800
